time,dpt,mtw,awa,aws,cog,hdg,rot,sog,stw,pitch,yaw,roll,lng,lat,tws,twa,twd,vmg,dist,cum_dist
2025-10-08T17:32:39+03:00,,,118.99760447072069,11.39184,54.99821875460771,49.40042109617958,-0.09998113525032865,6.337439999999999,,-1.3980170201192088,-131.79748161394326,-0.20053522829578813,24.818527,59.486429,15.48979162861561,139.96564764237425,194.96386639698196,-4.852317431702119,0.0035472052358380816,0.0035472052358380816
2025-10-08T17:32:41+03:00,,,125.0022021636917,11.00304,53.995542613128784,53.302263681020484,0.9000021045914972,6.9984,,0.09740282517223994,-126.10228113034287,-6.302535746439056,24.818555,59.486418,16.0743375497189,145.89561056420584,199.89115317733462,-5.7947968432441215,0.0010804637990725267,0.004627669034910608
2025-10-08T17:32:43+03:00,,,121.9999033172062,9.60336,56.99784145961429,52.29958753954155,1.200002806121996,6.7068,,1.3980170201192088,-126.60075441210671,-5.2998596049601145,24.818656,59.486449,14.334133699021834,145.37779735282425,202.37563881243852,-5.519134786032818,0.003601872522399052,0.00822954155730966
2025-10-08T17:32:47+03:00,,,129.00144757370484,10.303199999999999,50.998973344594575,50.50050006283075,-0.5000202678106694,6.24024,,0.20053522829578813,-129.49992085546867,-4.102377813136695,24.818828,59.486508,15.034049869137794,147.8196436329284,198.818616977523,-5.281588190395892,0.000623408269163977,0.008852949826473637
2025-10-08T17:32:51+03:00,,,125.99914872721935,9.79776,53.995542613128784,48.00240407606037,-0.8000209693411684,5.94864,,-1.501149423242757,-133.2012282120138,-2.6012283898939375,24.819064,59.486613,14.138500678165848,145.89977925827554,199.89532187140432,-4.925819980105753,0.0031314054205597913,0.011984355247033427
2025-10-08T17:32:53+03:00,,,125.99914872721935,9.60336,51.995919908122204,46.30071942452182,0.2000195662801704,6.62904,,0.6016056848873644,-133.09809580889024,-3.0997016716577535,24.819153,59.486648,14.526018923599159,147.66568138190217,199.66160129002438,-5.601151790336576,0.0034356322826747812,0.015419987529708207
2025-10-08T17:32:55+03:00,,,133.99763954724563,9.00072,50.998973344594575,47.40079839117301,-2.499986747494321,6.25968,,0.6990085100596044,-132.89756058059447,-6.302535746439056,24.819239,59.486685,14.087923208600703,152.63858992971294,203.63756327430752,-5.559379164552842,0.0034401781621808047,0.018860165691889013
2025-10-08T17:32:57+03:00,,,140.99918380374427,9.408959999999999,49.99629720311564,40.30185130950211,-5.79999446432981,5.22936,,-1.1974817918234204,-141.60078948863168,-0.49847328176381617,24.819301,59.486724,13.869009605371458,154.72593264888798,204.7222298520036,-4.728784134343841,0.003012575823551816,0.02187274151544083
2025-10-08T17:32:59+03:00,,,146.00110535523638,9.50616,39.998183678082775,31.100149119701083,2.9000258800546614,5.67648,,0.29793805346802804,-148.49920134200676,-0.40107045659157625,24.81933,59.486719,14.562380790848918,158.59091203973853,198.5890957178213,-5.284791125610748,0.0009346857053286715,0.0228074272207695
2025-10-08T17:33:03+03:00,,,138.00261453521009,9.60336,37.998560973076195,22.700587843083216,-1.7000230739326654,5.38488,,-0.6016056848873644,-157.7009035318078,1.1000789666511805,24.819445,59.486801,14.07426812108695,152.83543200065503,190.83399297373123,-4.790921677376336,0.0009766048628213175,0.02378403208359082
2025-10-08T17:33:05+03:00,,,144.0014826502298,9.70056,30.699078663109514,24.900745776385577,-0.3999818367808277,5.773680000000001,,-0.40107045659157625,-154.89913991361806,-4.801386323196299,24.819501,59.486847,14.766877868801718,157.28731625584922,187.98639491895872,-5.32594634486775,0.0032505157921989946,0.027034547875789815
2025-10-08T17:33:07+03:00,,,146.00110535523638,8.70912,33.99931556306306,17.102790184655074,-4.299990956677315,5.28768,,0.49847328176381617,-164.50191256001065,-3.798710181717358,24.819552,59.48689,13.422570870587087,158.72669249186538,192.72600805492843,-4.92737936194437,0.0030170999438163867,0.030051647819606203
2025-10-08T17:33:09+03:00,,,151.9999734702561,9.195120000000001,24.99814860155782,13.802553284701533,-1.2999839413723246,5.69592,,0.0,-167.6016142316684,0.8995437383553924,24.819603,59.486939,14.473489130369336,162.6469241157328,187.64507271729062,-5.436669728403746,0.003331250066456094,0.033382897886062295
2025-10-08T17:33:13+03:00,,,161.99808699528896,8.30088,359.85187280986486,1.0026761414789407,-5.499993762799311,4.87944,,-0.09740282517223994,178.79720954852468,-1.0026761414789407,24.81966,59.487037,13.029014559717972,168.64442551094083,168.49629832080564,-4.783920754910926,0.0021235820978243816,0.035506479983886674
2025-10-08T17:33:15+03:00,,,168.99963125178763,8.70912,4.996191973540778,350.10013113673824,-8.800001479634801,4.87944,,-1.1974817918234204,167.29794660024908,5.798332886723932,24.819666,59.487084,13.530976673085819,172.94529445007208,177.94148642361287,-4.84249941570945,0.0028309908338641308,0.0383374708177508
2025-10-08T17:33:17+03:00,,,-162.9999037000752,7.503839999999999,348.9943225921357,348.59898171349545,1.7000230739326654,4.510079999999999,,-1.0026761414789407,171.60085964168155,9.20170218980102,24.819662,59.487124,11.890193073350458,169.36712529142318,179.6271973007125,-4.432640308365004,0.0024074057206091124,0.04074487653835992
2025-10-08T17:33:19+03:00,,,-144.00062321353712,9.00072,341.9985079135884,346.5019561833167,-6.09999516586031,4.97664,,-2.4006931615981495,166.10046480842567,8.502693679741416,24.819633,59.487167,13.351315691904542,156.65626615980233,185.34224175378608,-4.569273122276526,0.0027319619004972837,0.043476838438857204
2025-10-08T17:33:21+03:00,,,-132.9998335470253,10.692,330.99771824707665,335.90223697339644,-5.400012627548983,5.0544,,-0.6990085100596044,151.5989030136645,8.800631733209444,24.819593,59.487215,14.614315583465812,147.65146596583875,183.3462522812379,-4.270002061346399,0.003132797335603323,0.04660963577446053
2025-10-08T17:33:23+03:00,,,-116.00017576549378,10.808639999999999,319.99692858056477,326.59740238047186,-3.600008418365989,5.6376,,2.200157933302361,142.90140368357862,7.700552766558264,24.819541,59.487261,14.213855035764174,136.8846927262187,183.11223585434607,-4.115333588029272,0.0031880127744033245,0.04979764854886385
2025-10-08T17:33:25+03:00,,,-99.99746454748988,11.29464,304.9968935040398,315.79714794225583,-4.999973494988642,6.006959999999999,,1.3006141949469687,132.10114924536262,10.399183981624443,24.819469,59.487294,13.682447615091984,125.61490774397087,179.38198576006891,-3.4980601111949814,0.002960193888147409,0.05275784243701126
2025-10-08T17:33:27+03:00,,,-91.99897372746359,11.10024,301.99459465755433,306.6011753304062,0.6999825383113268,5.94864,,-0.29793805346802804,125.50067544545551,10.198648753328653,24.81938,59.487323,12.775296565906103,119.7320304659408,182.26256419161354,-2.9501934358228317,0.0032273681056041955,0.05598521054261545
2025-10-08T17:33:29+03:00,,,-87.99972831745043,12.20832,299.99497195254776,303.5014736587484,-0.2000195662801704,5.346,,-3.002298846485514,123.70158796874472,9.700175471564837,24.819305,59.487348,13.15548159411996,111.96124197776565,188.0337299747821,-1.9992933886335595,0.002738076719154781,0.058723287261770236
2025-10-08T17:33:33+03:00,,,-89.00240445892939,13.19976,306.99651620904643,301.7997890072098,-1.7000230739326654,6.0652800000000004,,1.598552248414997,120.69928912225922,10.800254438216017,24.819032,59.487428,14.430298554762896,113.8528976933095,193.14361851573693,-2.4527376731588095,0.003453871811130022,0.06217715907290026
2025-10-08T17:33:35+03:00,,,-84.0004829074373,13.9968,301.99459465755433,304.29788499398023,-1.7000230739326654,5.832,,-0.6990085100596044,126.49762200898317,15.29797312999298,24.818939,59.487456,14.589682116691778,107.42528400340701,194.56931065414733,-1.74646156162007,0.003299688626235118,0.06547684769913538
2025-10-08T17:33:37+03:00,,,-80.99818406095179,15.49368,296.9984026840135,301.39871855061824,-0.09998113525032865,5.67648,,-0.29793805346802804,127.90136860705366,14.799499848229162,24.818938,59.487461,15.644626957024405,101.9983099092757,195.00009277473782,-1.1800427703990892,0.0003020841045241915,0.06577893180365957
2025-10-08T17:33:39+03:00,,,-74.99931594593207,16.31016,287.9972357225083,294.3971742941196,-1.2999839413723246,6.201359999999999,,-1.3006141949469687,110.90171082552214,16.902254956359283,24.818833,59.487479,15.878263684073096,97.16260371978288,190.83463200272544,-0.7732206976000938,0.0033821453430351203,0.06916107714669469
2025-10-08T17:33:43+03:00,,,-78.00161479241758,16.79616,288.9999118639872,302.2982622889736,0.9000021045914972,6.18192,,-0.40107045659157625,122.40097377379776,18.999280486538098,24.818586,59.487507,16.648028770665967,99.29958130803288,189.70033055595434,-0.9989773128074431,0.0009056176709715196,0.07006669481766621
2025-10-08T17:33:49+03:00,,,-82.99780676595836,18.701279999999997,295.9957265425346,303.197806027329,-0.300000701530499,7.251119999999999,,-2.1027551081301215,118.90020164554844,17.102790184655074,24.818235,59.487603,19.21598477887412,104.99331373874078,191.00241280379385,-1.8759105886985927,0.0006608584000294739,0.07072755321769568
2025-10-08T17:33:51+03:00,,,-84.0004829074373,18.895680000000002,294.99877997900694,309.7008770020639,0.5000202678106694,7.8732,,0.29793805346802804,129.20198280200063,15.49850835828877,24.818119,59.48763,19.6960708575339,107.42528400340699,187.57349597559994,-2.3577231081870913,0.0038943792812305925,0.07462193249892628
2025-10-08T17:33:57+03:00,,,-72.00274667739787,20.39256,285.90021019232944,301.10078049715025,0.600001403060998,7.4844,,-0.40107045659157625,119.30127210214,18.59821002994652,24.817718,59.487722,19.43086620271057,93.49248495936284,192.40772523296658,-0.45593184599171765,0.0013165217871398327,0.0759384542860661
2025-10-08T17:33:59+03:00,,,-74.00236938240442,18.895680000000002,289.9968584275149,295.19931520730273,1.5999846429028237,7.542719999999999,,-2.498095986770389,118.20119313548884,27.897315044919782,24.817589,59.487742,18.31339258433331,97.3256500242013,192.67120840331359,-0.9617620034544944,0.0041162852145117295,0.08005473950057783
2025-10-08T17:34:03+03:00,,,-72.00274667739787,18.798479999999998,285.407466488517,307.9017895253531,0.5000202678106694,8.04816,,-3.2028340747813018,130.69740264729208,29.39846446816254,24.817346,59.487786,18.018468334346434,97.14120409089024,188.26626239762675,-1.0005076325582416,0.0009630903097517693,0.0810178298103296
2025-10-08T17:34:05+03:00,,,-72.00274667739787,18.895680000000002,279.998744902482,294.5977095224154,2.499986747494321,8.00928,,-6.697876625079324,110.59804319410281,26.699833253096365,24.817213,59.487798,18.101804759414847,96.88840007191553,183.11034483056645,-0.9605997707462328,0.004122485938820997,0.0851403157491506
2025-10-08T17:34:19+03:00,,,-78.00161479241758,13.8996,301.99459465755433,303.197806027329,0.0,7.29,,-0.09740282517223994,124.10265842533632,16.100114043176134,24.816273,59.488067,14.290345705090806,107.93481212560557,194.05978253194877,-2.244844230330661,0.004061213400216815,0.08920152914936741
2025-10-08T17:34:21+03:00,,,-80.99818406095179,14.30784,299.99497195254776,312.101570163662,-2.7000063137744914,8.00928,,-1.3006141949469687,131.00107027871144,15.097437901697193,24.816209,59.488091,15.264413076379231,112.21246671123447,187.7825052413133,-3.027846100489032,0.0024281251001224097,0.09162965424948982
2025-10-08T17:34:23+03:00,,,-72.9996932409255,15.901919999999999,279.51173077662077,296.59733222742193,-6.60001543367098,7.1928,,-1.902219879834333,111.19964887899017,16.99965778153153,24.8161,59.48812,15.418291110973888,99.4950834382696,180.01664733835116,-1.1865456642693184,0.0037554798674122964,0.09538513411690212
2025-10-08T17:34:27+03:00,,,-59.999280869407116,18.99288,251.20188611920682,230.50092098113018,-6.9000161352014775,6.9984,,-0.40107045659157625,45.29804328304288,19.400350943129673,24.815843,59.488145,16.636839612400166,81.36359693730446,169.83828918190235,1.0509043983212387,0.002259568750676153,0.09764470286757827
2025-10-08T17:34:29+03:00,,,-50.00116734437425,20.5092,251.9982974544387,210.80263198453247,-2.1000049107134933,6.1236,,-2.498095986770389,26.997771306564392,22.500052614787425,24.81573,59.488132,17.224230427606546,65.80535816503912,186.1929392893996,2.5096823402381285,0.0035359205361449996,0.10118062340372327
2025-10-08T17:34:33+03:00,,,-37.9977015363835,20.39256,238.99788508292028,193.4019037464094,-1.4000223724021665,6.29856,,-1.7990874767107847,14.799499848229162,16.99965778153153,24.81554,59.488072,15.908861824409238,52.10492071700604,186.89296436591422,3.868685330555546,0.0009839395075499355,0.10216456291127321
2025-10-08T17:34:35+03:00,,,-33.99845612637036,20.7036,228.9997715578874,201.60092979473148,1.8000042091829944,5.6376,,-1.3980170201192088,23.898069634906637,10.3017811564522,24.815455,59.488035,16.336763274810984,45.12416946992403,183.8756020879634,3.9777366763702124,0.0034168701657437844,0.10558143307701699
2025-10-08T17:34:37+03:00,,,-27.002641447823002,20.29536,237.86915822651258,208.9978149298704,-0.2000195662801704,5.96808,,-1.3980170201192088,28.000447448043335,12.501939089754565,24.815367,59.488005,15.221023177841907,37.257285170889475,200.6118730556231,4.750144269976137,0.0032347968738419626,0.10881622995085896
2025-10-08T17:34:39+03:00,,,-24.997289164865123,20.003759999999996,236.99826237791373,203.10207921797422,-2.000023775463165,5.42376,,0.40107045659157625,22.098982158195852,9.602772646392598,24.815271,59.487975,15.261141696521525,33.63475797098087,203.36350440693286,4.51574326677367,0.0034401820957256296,0.1122564120465846
2025-10-08T17:34:40+03:00,,,-25.99996530634406,19.809359999999998,233.99596353142817,215.90195636119682,4.099971390397145,5.0544,,1.0026761414789407,38.80070188625935,8.800631733209444,24.815201,59.487948,15.426443794207461,34.25791981752039,199.73804371390779,4.1775219821614025,0.002682795993672447,0.11493920804025705
2025-10-08T17:34:42+03:00,,,-29.002264152829575,19.10952,244.99675319794,223.0009034428677,2.1000049107134933,5.6376,,-0.8995437383553924,43.000482524568284,15.20057030482074,24.815117,59.487925,14.439932593523872,39.9137082839861,205.0830449139539,4.324104934565062,0.0029125219686691644,0.11785173000892621
2025-10-08T17:34:44+03:00,,,-31.99883342136378,17.70984,244.99675319794,219.99860459638222,2.7000063137744914,6.18192,,-6.199403343315507,37.901158147903956,24.70021054808979,24.815019,59.487904,12.890392288488263,46.72076448221691,198.2759887157231,4.238043425786846,0.0032462152680758807,0.12109794527700209
2025-10-08T17:34:46+03:00,,,-39.997324241390075,16.69896,259.99678827446496,205.1017019229808,-2.000023775463165,5.1127199999999995,,-4.199780638308934,15.899578814880346,29.598999696458325,24.814919,59.487892,13.197906227156855,54.415362459672934,205.58142581479203,2.975117005331674,0.0031358717482398986,0.12423381702524199
2025-10-08T17:34:48+03:00,,,-39.997324241390075,17.5932,241.99445435145452,182.60164930819334,-2.3000244769936637,5.832,,-3.5981749534215695,5.099324376664327,18.099736748182707,24.81482,59.487883,13.650238216347134,55.9362588587678,186.0581954926867,3.266589837610944,0.0030693232155307687,0.12730314024077274
2025-10-08T17:34:50+03:00,,,-44.999245792882164,20.5092,246.9963759029466,212.4011842329475,6.0000140306099805,5.3654399999999995,,-3.798710181717358,37.40268486614014,15.097437901697193,24.814718,59.487851,17.140358069018774,57.78714031600646,189.20923558694014,2.8601346342187544,0.003659147030807456,0.1309622872715802
2025-10-08T17:34:54+03:00,,,-42.999623087875584,19.10952,252.99524401796634,212.80225468953907,-0.2000195662801704,6.6095999999999995,,-3.300236899953542,26.098227568209,25.50235146127294,24.814493,59.487818,14.97031388024434,60.52388088309577,192.47136313487056,3.2523247533863424,0.0019569028809300433,0.13291919015251025
2025-10-08T17:34:56+03:00,,,-39.997324241390075,20.29536,249.9986747494321,201.8988678481995,0.2000195662801704,6.62904,,-4.297183463481174,17.498131063295343,26.997771306564392,24.81438,59.4878,15.802291070956546,55.63978551992102,194.35888922951108,3.74138985878107,0.003614273295840028,0.13653346344835027
2025-10-08T17:34:58+03:00,,,-42.999623087875584,19.10952,255.00059630092417,203.40001727144224,-0.9999832398418258,6.940079999999999,,-3.0997016716577535,23.697534406610853,23.898069634906637,24.814276,59.487784,14.810492309966207,61.636956773390864,193.3636395275333,3.2969316521205707,0.0033163805046589,0.13984984395300917
2025-10-08T17:35:00+03:00,,,-48.00154463936767,18.895680000000002,256.9944894279795,205.8007104330404,0.0,6.62904,,-3.798710181717358,26.29876279650479,21.10203559466822,24.814154,59.487771,15.27628950732511,66.81514398076945,190.17934544721004,2.609846134133359,0.0038043123599083737,0.14365415631291756
2025-10-08T17:35:02+03:00,,,-44.999245792882164,20.003759999999996,256.9944894279795,189.00158787980467,-7.200016836731978,6.337439999999999,,-1.1000789666511805,6.302535746439056,21.30257082296401,24.814047,59.487754,16.15634949409631,61.10218153826004,195.89230788971946,3.0625618567107193,0.0034215740463243234,0.14707573035924187
2025-10-08T17:35:06+03:00,,,-37.9977015363835,20.10096,238.99788508292028,189.59746398674073,-2.9000258800546614,6.29856,,-1.7990874767107847,7.299482309966689,17.801798694714677,24.813834,59.487698,15.626217733322775,52.36552384106095,186.63236124185931,3.846037993649209,0.001776990820643827,0.1488527211798857
2025-10-08T17:35:10+03:00,,,-24.997289164865123,20.10096,230.99939426289401,194.50198271306053,-0.300000701530499,5.3654399999999995,,-1.1974817918234204,14.902632251352712,7.9984908200262925,24.813657,59.487637,15.40586706204448,33.46032896825503,197.539065294639,4.476213706088866,0.0012664403420457307,0.15011916152193144
2025-10-08T17:35:14+03:00,,,-25.99996530634406,19.20672,229.99671812141503,209.1983501581662,2.9000258800546614,6.0264,,-1.1000789666511805,28.097850273215574,7.597420363434716,24.813464,59.487548,14.040990751792972,36.84473957704628,193.15197854436875,4.822707218476385,0.0029897416790676864,0.15310890320099912
2025-10-08T17:35:16+03:00,,,-20.998043754851974,17.90424,232.9990169679006,206.2991837148042,-1.200002806121996,5.151599999999999,,-1.9996227050065731,25.198683829853607,11.60239535139917,24.813405,59.487524,13.22422219981707,29.02231866321651,203.97669830468408,4.504717662302797,0.0023071900775860758,0.1554160932785852
2025-10-08T17:35:18+03:00,,,-27.002641447823002,19.10952,238.99788508292028,207.59979790975117,2.499986747494321,4.62672,,-1.1974817918234204,27.301438937983725,8.10162322314984,24.813328,59.487502,15.133683695297586,34.981519997494644,204.01636508542563,3.790842890364367,0.0026964271791191548,0.15811252045770435
2025-10-08T17:35:20+03:00,,,-31.00188685783615,20.9952,233.99596353142817,206.00124566133618,-3.0000070153049903,4.93776,,-0.8021409131831525,23.502728756266368,11.401860123103383,24.813267,59.487479,16.95463406499684,39.62908233823447,194.3668811931937,3.803011390575621,0.0023188045214319313,0.16043132497913629
2025-10-08T17:35:22+03:00,,,-24.997289164865123,20.5092,231.41192387538817,198.90229857966528,1.7000230739326654,4.60728,,-1.3980170201192088,22.001579333023614,9.900710699860626,24.813212,59.48746,16.449119744533174,31.794770679481303,199.61715319590687,3.915915175777844,0.0020301857361884235,0.16246151071532472
2025-10-08T17:35:24+03:00,,,-29.002264152829575,19.809359999999998,237.5196539714828,208.20140359463852,2.499986747494321,4.393439999999999,,-0.20053522829578813,28.89999118639872,6.399938571611295,24.813159,59.487439,16.108318585438205,36.60120827472832,200.91844569675447,3.527075166887597,0.002051710765101941,0.16451322148042666
2025-10-08T17:35:26+03:00,,,-29.999210716357208,19.303919999999998,243.8794854974349,212.09751660152813,2.9000258800546614,4.101839999999999,,-1.9996227050065731,31.902290032884235,13.699420881577984,24.813102,59.487417,15.88454560214112,37.41743960217795,206.46204589525695,3.2578032002485626,0.002185103882735394,0.16669832536316206
2025-10-08T17:35:28+03:00,,,-29.999210716357208,18.99288,238.99788508292028,219.5001313146184,6.60001543367098,4.374,,-1.0026761414789407,42.89735012144474,20.700965138076644,24.813037,59.487394,15.361326405581885,38.184055303985645,200.81382977893463,3.4380906624440546,0.0024179086730858872,0.16911623403624795
2025-10-08T17:35:30+03:00,,,-39.00037767786244,18.29304,245.99942933941892,219.00165803285458,4.800011224487984,4.45176,,-2.6986312150661775,39.998183678082775,30.699078663109514,24.812961,59.487378,15.095644748691974,49.695931310336874,196.30349802908205,2.8795939627825984,0.0025108786356714307,0.17162711267191938
2025-10-08T17:35:32+03:00,,,-44.999245792882164,17.107200000000002,254.9948667229729,209.39888538646196,2.7999874490248207,5.46264,,-5.099324376664327,25.697157111617422,34.497788844826864,24.812876,59.487366,13.796233500271642,61.258038316639016,193.73682840633387,2.6267965555582786,0.002692475594500591,0.17431958826641997
2025-10-08T17:35:34+03:00,,,-50.99811390790188,18.60408,250.9956213129597,197.49855198159477,2.400005612243992,5.0544,,-1.9996227050065731,23.399596353142822,18.500807204774283,24.812784,59.487353,15.915428032163438,65.28625117896517,185.70937013399453,2.113169174699312,0.0029143993993450126,0.17723398766576498
2025-10-08T17:35:36+03:00,,,-56.00003545939396,22.00608,281.8723168925598,240.49903450616304,10.900006390348295,6.648479999999999,,-2.6986312150661775,69.00130726760504,17.29759583499955,24.812697,59.487338,19.100846589536737,72.7721191189867,209.10019777357311,1.9690993764692428,0.002804010656655149,0.18003799832242012
2025-10-08T17:35:40+03:00,,,-84.0004829074373,20.7036,287.9972357225083,307.59812189393375,9.900023150506469,6.78456,,-2.200157933302361,130.80053505041565,11.900333404867197,24.812328,59.487426,21.10228706428946,102.64812664652266,185.34910907598567,-1.4855669574171169,0.003950868986038008,0.18398886730845812
2025-10-08T17:35:42+03:00,,,-99.99746454748988,20.9952,301.99459465755433,329.50229840178514,8.700020344384471,8.125919999999999,,0.6990085100596044,151.19783255707296,4.497718691776963,24.812304,59.487385,23.792114939028252,119.65225325768097,182.34234139987336,-4.020174048598986,0.002570956474719087,0.1865598237831772
2025-10-08T17:35:54+03:00,,,178.99774477682047,11.508479999999999,5.998868115019719,10.599719209920229,0.2000195662801704,6.95952,,-1.0026761414789407,-169.49810453355144,12.301403861458775,24.812227,59.487871,18.467336477717275,179.37543378847963,185.37430190349934,-6.959106517915096,0.003870547265380131,0.19043037104855734
2025-10-08T17:35:56+03:00,,,-164.00257984155417,10.1088,358.9981656951199,11.401860123103383,3.600008418365989,6.72624,,-0.6990085100596044,-167.00000854678103,8.697499330085895,24.812222,59.487937,16.677898497254002,170.3840657937808,188.6140999013391,-6.631733770856344,0.003970042774412148,0.1944004138229695
2025-10-08T17:35:58+03:00,,,-159.9976048535897,9.60336,356.9985429901134,6.302535746439056,0.9000021045914972,6.92064,,-1.3980170201192088,-174.9010965416351,1.9996227050065731,24.812225,59.488,16.27957155568151,168.35883199326278,188.6397109968506,-6.778286025578257,0.003787892721844132,0.19818830654481362
2025-10-08T17:36:00+03:00,,,-174.000693366587,9.70056,5.752496263113465,9.40223741809681,0.0,7.4844,,-0.6990085100596044,-170.39764827190683,8.502693679741416,24.812235,59.488065,17.16180589620338,176.61316564236793,189.13933062074554,-7.471327965610327,0.0039189022426776715,0.20210720878749128
2025-10-08T17:36:02+03:00,,,-176.0003160715936,10.303199999999999,6.995814678547352,11.60239535139917,7.800018239792975,7.270560000000001,,0.8995437383553924,-165.80252675495763,5.099324376664327,24.812259,59.488133,17.56337507522443,177.65491652945775,189.3408981490896,-7.264470963402063,0.004152429461862848,0.20625963824935412
2025-10-08T17:36:04+03:00,,,-176.0003160715936,11.99448,9.998113525032863,18.002333923010465,1.200002806121996,6.62904,,-0.6016056848873644,-163.29870119023593,-5.500394833255903,24.8123,59.48819,18.613118611820614,177.4237885048155,192.57432502021737,-6.622340147565135,0.00364746447420006,0.20990710272355417
2025-10-08T17:36:06+03:00,,,165.0003858417745,10.303199999999999,18.999280486538098,16.701719728063498,4.999973494988642,5.87088,,-0.09740282517223994,-161.2016756600571,0.8021409131831525,24.812354,59.488242,16.0461478081272,170.43403437395878,189.43331486049686,-5.789244977556689,0.0035334300362433457,0.21344053275979752
2025-10-08T17:36:08+03:00,,,170.9992539567942,10.5948,21.995849755072307,27.100903709687937,1.5999846429028237,6.201359999999999,,-0.8021409131831525,-153.99959617526267,-12.702474318050351,24.812414,59.488288,16.74792278530632,174.3201858239045,196.3160355789768,-6.1709144197132755,0.0033162836610985263,0.21675681642089606
2025-10-08T17:36:10+03:00,,,155.0022723167416,10.206,34.996262126590686,16.39805209664416,9.700003584226298,6.10416,,2.4006931615981495,-162.39915745188054,-15.802175989708104,24.812493,59.488336,15.948339552299473,164.31027215519228,199.30653428178297,-5.87672049389032,0.003759863884565823,0.22051668030546187
2025-10-08T17:36:12+03:00,,,144.99842921375745,12.20832,41.99780638308934,26.90036848139215,7.699979808763134,7.01784,,-0.6016056848873644,-153.5985257186711,-24.99814860155782,24.812596,59.48837,18.402550413699263,157.63363107322695,199.6314374563163,-6.489884755162241,0.003749254054639318,0.2242659343601012
2025-10-08T17:36:14+03:00,,,125.0022021636917,12.30552,57.99478802314193,25.3992190581494,12.60002946428096,6.6095999999999995,,1.0026761414789407,-152.29791152372414,-31.5986224014649,24.812712,59.488388,16.98296016410465,143.59240769320138,201.5871957163433,-5.319506254482552,0.0037016731718577654,0.22796760753195897
2025-10-08T17:36:16+03:00,,,90.0002104591497,14.91048,72.99482309966687,75.49864866438858,9.600022448975968,7.07616,,2.200157933302361,-88.69959626420275,-31.5986224014649,24.812841,59.488385,16.504400300767355,115.38807806317008,188.38290116283696,-3.0338835091909826,0.003940881189940293,0.23190848872189926
2025-10-08T17:36:18+03:00,,,73.00055267761819,19.10952,97.99870127917599,138.39795541385035,6.399995867390808,6.1624799999999995,,-1.3980170201192088,-37.40268486614014,-28.802588361226483,24.812956,59.488364,18.283640590747112,91.80398275904054,189.8026840382165,-0.19399633066527994,0.0037296068398797143,0.23563809556177898
2025-10-08T17:36:20+03:00,,,67.99863112612611,19.59552,114.99835906070751,151.9999734702561,-0.3999818367808277,6.76512,,-0.6990085100596044,-21.49737647330849,-31.501219576292662,24.813061,59.488335,18.177600257034126,88.18438087011597,203.1827399308235,0.2143408437111376,0.0036477747938928363,0.2392858703556718
2025-10-08T17:36:22+03:00,,,69.99825383113267,20.19816,123.99952602221278,148.90027179859837,-2.199986045963822,7.2122399999999995,,-1.501149423242757,-32.69870136811608,-27.702509394575305,24.813167,59.488305,18.9822775289291,90.91606984987085,214.91559587208363,-0.11530751804189772,0.0037035051825593836,0.2429893755382312
2025-10-08T17:36:24+03:00,,,71.99787653613924,18.798479999999998,124.99647258574039,140.7986485754485,1.8000042091829944,7.503839999999999,,-0.8995437383553924,-39.79764844978698,-22.2021145613194,24.813286,59.488275,17.958289470365397,95.41314999600706,220.40962258174744,-0.7078882757345214,0.004054637326255912,0.2470440128644871
2025-10-08T17:36:26+03:00,,,71.99787653613924,19.49832,115.99530562423517,150.49882404701333,3.600008418365989,8.125919999999999,,0.40107045659157625,-28.802588361226483,-19.297218540006124,24.813323,59.488232,18.66230100691382,96.4607216176531,212.45602724188828,-0.9143452322415496,0.002820514686676718,0.2498645275511638
2025-10-08T17:36:30+03:00,,,63.002439152585325,20.5092,119.9945510342483,136.10039465537574,-0.300000701530499,7.3094399999999995,,0.8995437383553924,-43.20101775286407,-16.197516868348373,24.813636,59.48817,18.38342847699779,83.75182601534769,203.746377049596,0.7955243221933376,0.0041379958799429625,0.2540025234311068
2025-10-08T17:36:32+03:00,,,67.00168456259847,20.29536,119.9945510342483,134.19817477554142,0.2000195662801704,7.503839999999999,,0.09740282517223994,-45.601710914462224,-19.19981571483389,24.813745,59.488139,18.68705860382224,88.69484734257975,208.68939837682805,0.17091677338686448,0.0038127613913375197,0.2578152848224443
2025-10-08T17:36:34+03:00,,,65.99900842111953,18.00144,118.99760447072069,126.80128964040247,-5.299974196519141,6.648479999999999,,0.09740282517223994,-54.299210244548114,-23.697534406610853,24.813853,59.488113,16.458798870469447,87.65425898236708,206.65186345308777,0.27211874861370616,0.003647654345983487,0.2614629391684278
2025-10-08T17:36:36+03:00,,,71.00092997261162,18.09864,112.21951375432303,136.59886793713957,0.600001403060998,7.270560000000001,,-1.3980170201192088,-41.29879787302974,-24.60280772291755,24.813967,59.488088,17.168127925626486,94.60546261569579,206.82497637001882,-0.5837820355693939,0.0037896797529133447,0.2652526189213411
2025-10-08T17:36:38+03:00,,,71.99787653613924,18.40968,116.99798176571409,124.89906976056815,-4.999973494988642,7.542719999999999,,-0.20053522829578813,-61.002816447578745,-18.300271976478495,24.814038,59.488039,17.60623566278157,96.04193298324799,213.03991474896208,-0.7939187582413892,0.003656434937416462,0.2689090538587576
2025-10-08T17:36:44+03:00,,,78.9994207926379,16.50456,106.99986824068124,107.89941197903663,-5.599974898049641,7.46496,,0.6990085100596044,-74.70223732915674,-16.002711218003892,24.814508,59.488018,16.76621910006835,104.91567656362298,211.9155448043042,-1.921459738028657,0.0040806172695016345,0.2729896711282592
2025-10-08T17:36:46+03:00,,,88.00058775414314,16.19352,93.99945586916286,95.09953483581404,-0.6999825383113268,7.056719999999999,,-0.6016056848873644,-86.7973763843684,-15.29797312999298,24.814627,59.488018,17.437132227144836,111.85716611441464,205.8566219835775,-2.6271747636433185,0.0036316184429340138,0.27662128957119325
2025-10-08T17:36:48+03:00,,,90.99715702267736,15.610319999999998,85.99523547118525,85.599894592545,-4.299990956677315,6.492959999999999,,-1.501149423242757,-97.00175471564837,-17.69866629159113,24.814751,59.488021,17.01083233007304,113.43232602455605,199.42756149574132,-2.5820269671860623,0.003788501182907676,0.28040979075410094
2025-10-08T17:36:50+03:00,,,101.0010001256615,15.20208,59.46155997867684,66.40007887771111,-12.000028061219961,6.6679200000000005,,0.40107045659157625,-118.90020164554844,-7.9984908200262925,24.814867,59.488041,17.727127605116998,122.66914429082178,182.1307042694986,-3.5992569346447953,0.003738612823473791,0.2841484035775747
2025-10-08T17:36:52+03:00,,,110.99911365069438,16.31016,72.99482309966687,49.69835914964761,-7.299997971982305,7.32888,,-0.40107045659157625,-131.79748161394326,1.1000789666511805,24.81497,59.488079,20.13468453917462,130.8649339239376,203.85975702360446,-4.795125643642022,0.003885563467238062,0.28803396704481277
2025-10-08T17:36:54+03:00,,,138.00261453521009,13.10256,45.997051793102486,33.90191273789081,-10.000004285756797,7.542719999999999,,1.1000789666511805,-150.0003507652495,0.49847328176381617,24.814983,59.488053,19.376897879554523,153.09967365979756,199.09672545290005,-6.7265596252777895,0.00161237128985866,0.2896463383346714
2025-10-08T17:36:56+03:00,,,150.99729732877717,11.89728,32.996639421584106,20.798367963248886,-4.800011224487984,7.40664,,-0.20053522829578813,-159.99846429028239,5.202456779787875,24.815056,59.488109,18.722728364870935,162.0554473226966,195.0520867442807,-7.046344874900971,0.004036489135137822,0.2936828274698092
2025-10-08T17:36:58+03:00,,,-172.00107066158043,10.206,8.995437383553925,6.801009028202872,-13.399993137842614,6.97896,,1.0026761414789407,179.8972885151759,1.9996227050065731,24.815086,59.488171,17.144586986733955,175.24832565476618,193.74711172878776,-6.954973888021253,0.0038374898805918056,0.297520317350401
2025-10-08T17:37:02+03:00,,,-140.9983243670516,10.1088,340.6405979391283,356.4026668831773,3.099988150555319,5.96808,,-0.40107045659157625,174.50002608504352,11.000789666511807,24.815035,59.488286,15.21756303880863,155.28762797343057,185.35296996569775,-5.421510851169526,0.0006639090920294549,0.2981842264424305
2025-10-08T17:37:04+03:00,,,-134.99945625203188,12.59712,340.99583177210945,358.20175435988807,-4.599991658207815,6.95952,,-0.20053522829578813,177.80026298499706,5.700930061551691,24.814982,59.488344,18.19629489804718,150.6904453430129,190.30538642909656,-6.068615495355587,0.003843175700856759,0.3020274021432872
2025-10-08T17:37:08+03:00,,,-112.99787691900828,11.10024,331.99466481060426,347.2983675185485,-4.500010522957486,7.52328,,-0.8021409131831525,168.99963125178763,22.001579333023614,24.814905,59.488486,15.654694281544195,139.2537144511047,192.74095035949955,-5.699691854084857,0.00415154403758705,0.30617894618087427
2025-10-08T17:37:12+03:00,,,-104.99938609898197,15.10488,312.9953843240661,338.89880624193063,3.30000771683549,8.22312,,1.1974817918234204,156.49769216203305,13.401482828109954,24.814656,59.488603,18.975509625410414,129.74494715790058,183.2504371661655,-5.2576260717879855,0.003711400147523484,0.30989034632839774
2025-10-08T17:37:14+03:00,,,-112.99787691900828,15.10488,322.9992274270503,337.2028511683434,2.499986747494321,7.29,,1.501149423242757,154.80173708844583,11.298727719979832,24.814586,59.488656,19.166229999755476,133.49286856581364,189.50635886123666,-5.0174466389994405,0.0038356386606265905,0.3137259849890243
2025-10-08T17:37:16+03:00,,,-108.99863150899512,13.9968,327.995419400591,336.49811308033253,-1.1000216708716675,7.270560000000001,,0.8021409131831525,155.90181605509702,15.00003507652495,24.814539,59.488694,17.749069434254853,131.78625358010217,196.20916582048883,-4.84476380276271,0.0026970953914390297,0.31642308038046335
2025-10-08T17:37:18+03:00,,,-106.99900880398854,12.59712,321.9965512855714,335.90223697339644,-3.8000279846461584,7.56216,,-1.0026761414789407,152.60157915514347,17.400728238123104,24.814459,59.488741,16.47950368312276,133.0285232354199,188.9680280501515,-5.160133353634743,0.0037338028982101357,0.3201568832786735
2025-10-08T17:37:22+03:00,,,-99.99746454748988,17.2044,319.99692858056477,335.30063128850907,0.9000021045914972,8.33976,,0.6016056848873644,151.5989030136645,14.598964619933378,24.814278,59.488834,20.38040108652273,123.76277748479288,196.2341510957719,-4.63486869426892,0.002597814418265493,0.322754697696939
2025-10-08T17:37:26+03:00,,,-97.00089527895568,15.99912,319.99692858056477,342.697516423648,1.8000042091829944,8.514719999999999,,0.20053522829578813,166.30100003672143,22.500052614787425,24.814103,59.488954,19.017901130634616,123.38478010000273,196.61214848056204,-4.685300919761556,0.002919079518385496,0.3256737772153245
2025-10-08T17:37:30+03:00,,,-82.99780676595836,16.19352,308.99613891405295,331.89726198543195,-4.6999727934581434,8.02872,,-4.497718691776963,155.79868365197345,28.20098267633912,24.81391,59.489044,17.17531075638563,110.64142227074692,198.35471664330603,-2.830270607775462,0.0035956942668611516,0.3292694714821856
2025-10-08T17:37:34+03:00,,,-78.00161479241758,18.60408,290.9995345689938,317.9973058755582,7.500017538262475,6.88176,,-1.3980170201192088,136.99993839373113,10.3017811564522,24.813692,59.489094,18.44559833785227,99.40510701254142,191.5944275564524,-1.1245752328739322,0.0008794069091358107,0.3301488783913214
2025-10-08T17:37:36+03:00,,,-93.99859643247017,18.60408,295.9957265425346,320.3005962119841,-0.2000195662801704,6.95952,,2.200157933302361,143.1019389118744,5.202456779787875,24.813577,59.489124,20.312653377678675,113.98431558728078,182.01141095525384,-2.828951272117229,0.003945601307517313,0.3340944796988387
2025-10-08T17:37:40+03:00,,,-69.00044783091235,14.502239999999999,305.99956964551876,247.90164921925327,-12.499991033251119,7.6593599999999995,,-3.2028340747813018,51.801114257777726,19.497753768301912,24.813351,59.489224,13.761136569310075,100.3076431642377,205.69192648128106,-1.3705158030087836,0.0016336389534032715,0.335728118652242
2025-10-08T17:37:42+03:00,,,-56.00003545939396,16.69896,288.9999118639872,192.89770088669425,-13.799974974623444,6.804,,-4.698253920072751,2.200157933302361,22.597455439959663,24.813234,59.489247,14.074058090749181,79.62775327594815,209.37215858803907,1.225010502211945,0.0038287578153302646,0.33955687646757227
2025-10-08T17:37:46+03:00,,,-27.99958801135063,20.19816,218.99592845490324,162.70282508329987,-10.300004987287297,5.7153599999999996,,-3.2028340747813018,-16.799122553235737,9.40223741809681,24.813068,59.489127,15.387518286863395,38.04174168006057,180.95418677484267,4.501200448473411,0.002094093050609338,0.3416509695181816
2025-10-08T17:37:48+03:00,,,-7.000684819805964,20.29536,154.76163004278666,143.800947421934,-12.799991734781615,2.39112,,0.0,-39.402307571146714,0.6016056848873644,24.813012,59.489152,17.924435880267897,7.932295351876064,146.8293346909106,2.368241366603497,0.002275645495480053,0.3439266150136616
2025-10-08T17:37:52+03:00,,,31.002746294528848,16.50456,138.99956109873773,132.10114924536262,-3.9999902551468165,4.257359999999999,,0.0,-45.80224614275801,-19.400350943129673,24.813155,59.489081,13.041085089593338,40.683104309291195,179.68266540802892,3.228469323353376,0.0017753066985757365,0.34570192171223735
2025-10-08T17:37:54+03:00,,,48.00240407606037,16.69896,130.99534070076012,134.1007719503692,0.9999832398418258,4.6655999999999995,,1.0026761414789407,-46.90232510940919,-18.90187766136586,24.813218,59.489064,14.012962661673924,62.32839582511738,193.3237365258775,2.166719509294639,0.002177241746404446,0.3478791634586418
2025-10-08T17:37:56+03:00,,,52.99859604960115,17.5932,113.99568291922859,145.69743772381705,4.599991658207815,5.0544,,1.701684651538545,-32.49816613982029,-19.400350943129673,24.813294,59.48904,15.1007842951972,68.50268988494228,182.49837280417086,1.852223018897015,0.002731322154495396,0.3506104856131372
2025-10-08T17:37:58+03:00,,,52.00164948607352,19.20672,122.99684988073382,155.2028075450374,3.9999902551468165,5.28768,,-0.8021409131831525,-20.798367963248886,-21.39997364813625,24.813367,59.48901,16.486671788777322,66.64136375571618,189.63821363645002,2.0964870166272855,0.0028660841964108378,0.353476569809548
2025-10-08T17:38:00+03:00,,,48.999350639587995,20.606399999999997,131.99801684223905,160.60006997516973,1.5000035076524951,5.22936,,-0.49847328176381617,-17.801798694714677,-20.299894681485068,24.813435,59.488975,17.623180568606738,61.940152186645875,193.93816902888494,2.4598573809976085,0.0029550124759963586,0.35643158228554433
2025-10-08T17:38:02+03:00,,,46.00278137105379,22.20048,131.99801684223905,165.20092107007028,2.9000258800546614,5.20992,,-0.09740282517223994,-14.501561794761136,-21.30257082296401,24.813501,59.488942,18.955751022520836,57.40628159808615,189.4042984403252,2.806471473216546,0.0028268646392332845,0.3592584469247776
2025-10-08T17:38:04+03:00,,,41.00085981956171,22.394879999999997,135.99726225225223,163.0007631367679,-0.600001403060998,6.53184,,0.49847328176381617,-20.20249185631283,-24.797613373262028,24.813573,59.488908,17.983352641595737,54.786803229823406,190.78406548207562,3.766392921736955,0.003000723835499641,0.36225917076027725
2025-10-08T17:38:06+03:00,,,41.00085981956171,20.29536,130.99534070076012,170.09971021843882,-0.09998113525032865,6.7068,,0.8995437383553924,-10.50231638474799,-31.5986224014649,24.813664,59.488871,15.856481205588903,57.11175946726813,188.10710016802824,3.6418065764079635,0.003557823609742205,0.36581699437001947
2025-10-08T17:38:08+03:00,,,41.00085981956171,19.59552,135.5503551720502,174.9010965416351,-2.199986045963822,6.74568,,-1.1000789666511805,-2.899166443361966,-28.401517904634908,24.813757,59.488832,15.164711398051248,57.96889272549994,193.51924789755014,3.5777711416176063,0.0036810334862154266,0.36949802785623487
2025-10-08T17:38:10+03:00,,,48.999350639587995,21.79224,138.99956109873773,160.10159669340592,-2.199986045963822,6.2208000000000006,,-0.40107045659157625,-22.597455439959663,-20.500429909780856,24.813848,59.488794,18.32267051064156,63.845938814876604,202.84549991361433,2.7420434395113635,0.0035957077333766746,0.37309373558961156
2025-10-08T17:38:12+03:00,,,46.00278137105379,24.90264,124.99647258574039,161.40221088835293,2.9000258800546614,6.76512,,-1.902219879834333,-20.09935945318928,-24.70021054808979,24.813938,59.488753,20.781309108486617,59.546303248713045,184.54277583445344,3.4288461171710445,0.003690099461414479,0.37678383505102603
2025-10-08T17:38:14+03:00,,,43.99742908809592,25.89408,129.99839413723248,165.29832389524248,2.3000244769936637,7.40664,,0.40107045659157625,-13.99735893504601,-23.19906112484703,24.814028,59.488703,21.199718653046553,58.042471501443714,188.0408656386762,3.9202641013488972,0.004071345016167246,0.38085518006719327
2025-10-08T17:38:16+03:00,,,39.00123711455514,24.61104,130.99534070076012,172.70093860833276,1.1000216708716675,7.56216,,1.3006141949469687,-6.600473799907084,-25.3992190581494,24.814106,59.488657,19.329285194819803,53.254849533253946,184.25019023401407,4.524113491796157,0.0036484247852070655,0.3845036048524003
2025-10-08T17:38:18+03:00,,,37.998560973076195,23.502959999999998,137.99688495725877,173.8010175749839,0.9000021045914972,6.27912,,-3.002298846485514,-5.700930061551691,-28.699455958102938,24.814181,59.488613,18.95325720607311,49.76712958396388,187.76401454122265,4.055657040795518,0.0034976023283855083,0.38800120718078585
2025-10-08T17:38:20+03:00,,,33.99931556306306,22.29768,137.99688495725877,176.20171073658207,1.4000223724021665,6.74568,,-1.902219879834333,-3.300236899953542,-37.50008769131237,24.814259,59.488566,17.125788814288835,46.72342571241015,184.72031066966892,4.624303555472656,0.003694189624592646,0.3916953968053785
2025-10-08T17:38:22+03:00,,,37.001614409548566,23.502959999999998,134.99458611077327,172.59780620520917,-4.500010522957486,7.1150400000000005,,0.40107045659157625,-11.997736230039438,-29.10052641469451,24.814344,59.488525,18.328004415636048,50.51290051538436,185.50748662615763,4.524485725214451,0.0035779941532925854,0.3952733909586711
2025-10-08T17:38:24+03:00,,,48.00240407606037,24.805439999999997,122.64734562570402,154.6986046853223,0.0,6.804,,-0.8995437383553924,-24.299140091498213,-22.500052614787425,24.814441,59.488479,20.87458106713011,62.02087737401523,184.66822299971926,3.1920952673694782,0.004050637898548193,0.3993240288572193
2025-10-08T17:38:26+03:00,,,45.00010522957485,24.1056,116.99798176571409,164.59931538518288,3.9999902551468165,7.2122399999999995,,-1.1974817918234204,-12.79987714322259,-36.89848200642502,24.814557,59.488446,19.67811431509148,60.02049058645521,177.01847235216928,3.603886029765969,0.004057858984076294,0.4033818878412956
2025-10-08T17:38:28+03:00,,,41.99780638308934,24.70824,114.99835906070751,187.70097368485767,5.79999446432981,6.6679200000000005,,-1.1974817918234204,10.89765726338826,-41.69986832962131,24.814678,59.488427,20.250427244481855,54.725477132177986,169.7238361928855,3.850688217692896,0.0038651812854891884,0.40724706912678477
2025-10-08T17:38:30+03:00,,,39.998183678082775,25.408079999999998,131.99801684223905,199.29763945830558,2.000023775463165,6.57072,,-0.40107045659157625,21.39997364813625,-36.199473496365414,24.81476,59.488385,20.807613946542602,51.709145387021096,183.70716222926015,4.071571354960668,0.0035546283696692217,0.410801697496454
2025-10-08T17:38:32+03:00,,,39.00123711455514,25.09704,138.05991031472317,183.19752541512943,-2.1000049107134933,6.6679200000000005,,0.49847328176381617,1.1000789666511805,-27.19830653486018,24.814835,59.488342,20.35249504350934,50.90008702635751,188.95999734108068,4.205287970177346,0.003452387684189209,0.4142540851806432
2025-10-08T17:38:34+03:00,,,46.00278137105379,23.79456,139.84753863553132,173.19941189009654,0.300000701530499,5.9292,,-0.20053522829578813,-8.697499330085895,-21.30257082296401,24.81491,59.4883,20.13300244553024,58.23395744723564,198.08149608276696,3.1214391847892884,0.003407622956781553,0.41766170813742476
2025-10-08T17:38:36+03:00,,,46.00278137105379,23.30856,135.99726225225223,170.20284262156233,2.400005612243992,5.326560000000001,,-1.1974817918234204,-8.800631733209444,-22.901123071379004,24.814954,59.488254,19.97949036310595,57.05981194208728,193.05707419433952,2.896387509570199,0.0030737623861612625,0.420735470523586
2025-10-08T17:38:38+03:00,,,41.00085981956171,24.008399999999998,134.99458611077327,174.2020880315755,2.1000049107134933,6.201359999999999,,0.09740282517223994,-1.3980170201192088,-26.098227568209,24.815019,59.488216,19.75179996218879,52.88788936259387,187.88247547336715,3.741755264002253,0.003025215181436285,0.4237606857050223
2025-10-08T17:38:42+03:00,,,39.00123711455514,24.4944,146.99805191876402,174.70056131333934,-0.5000202678106694,5.52096,,-1.7990874767107847,-3.300236899953542,-17.801798694714677,24.815148,59.488132,20.50047228404092,48.759179004569035,195.75723092333305,3.639556838059725,0.00222456879895109,0.4259852545039734
2025-10-08T17:38:44+03:00,,,37.998560973076195,24.202799999999996,143.9957530722785,171.60085964168155,2.7999874490248207,4.957199999999999,,-1.902219879834333,-8.19902604832208,-22.700587843083216,24.815223,59.488086,20.524559716982978,46.549754251566895,190.54550732384538,3.40918748937165,0.003589389087889339,0.42957464359186276
2025-10-08T17:38:46+03:00,,,41.00085981956171,26.10792,146.99805191876402,169.10276365491114,-0.8000209693411684,5.5404,,0.20053522829578813,-11.298727719979832,-16.002711218003892,24.815277,59.488046,22.225827800745556,50.413500282796946,197.41155220156097,3.5305779056909055,0.0029148703017037327,0.4324895138935665
2025-10-08T17:38:48+03:00,,,43.99742908809592,26.49672,143.9957530722785,168.59856079519605,3.8000279846461584,4.996079999999999,,-1.501149423242757,-10.50231638474799,-18.002333923010465,24.815329,59.488005,23.164125551745,52.613820053190025,196.6095731254685,3.0335408625949065,0.0029311567913895106,0.435420670684956
2025-10-08T17:38:50+03:00,,,39.998183678082775,24.4944,138.99956109873773,175.3995698233989,1.2999839413723246,5.6181600000000005,,2.1027551081301215,-4.102377813136695,-20.99890319154467,24.81536,59.48798,20.51091648175085,50.13851964226913,189.13808074100686,3.600868220210122,0.001775697457842963,0.43719636814279894
2025-10-08T17:38:52+03:00,,,41.00085981956171,22.997519999999998,154.9965427387903,170.39764827190683,-3.9999902551468165,5.07384,,-0.49847328176381617,-11.900333404867197,-26.699833253096365,24.815431,59.487927,19.45518925963765,50.852680583871745,205.84922332266206,3.203198977227558,0.0038527426039435303,0.44104911074674247
2025-10-08T17:38:54+03:00,,,41.99780638308934,20.8008,141.99613036727192,174.59742891021577,0.09998113525032865,4.93776,,-1.1974817918234204,-5.901465289847479,-33.30030705300345,24.815484,59.487897,17.4468804072727,52.91365993150356,194.90979029877548,2.9775572609936085,0.0024223508712130854,0.44347146161795553
2025-10-08T17:38:56+03:00,,,43.99742908809592,21.90888,137.99688495725877,182.29798167677404,0.9999832398418258,5.443199999999999,,0.29793805346802804,1.3980170201192088,-28.498920729807146,24.815559,59.48786,18.386166536990793,55.86457865392519,193.86146361118398,3.054456089649424,0.0031913823304771977,0.44666284394843275
2025-10-08T17:38:58+03:00,,,41.00085981956171,24.1056,138.99956109873773,182.29798167677404,0.8000209693411684,5.5404,,1.501149423242757,3.0997016716577535,-23.697534406610853,24.815574,59.487832,20.253114355981896,51.33993925640209,190.33950035513982,3.4610795065725872,0.0017441604986191154,0.4484070044470519
2025-10-08T17:39:02+03:00,,,33.99931556306306,24.805439999999997,146.99805191876402,189.40265833639623,-2.7000063137744914,5.46264,,0.8995437383553924,7.597420363434716,-28.997394011570965,24.815669,59.487753,20.505462923439506,42.5663212108544,189.56437312961842,4.023206126471882,0.001970085388465042,0.45037708983551694
2025-10-08T17:39:06+03:00,,,35.00199170454199,24.99984,154.9965427387903,191.70021909487085,1.4000223724021665,5.1127199999999995,,0.0,11.699798176571411,-26.797236078268604,24.815829,59.487658,21.01745919767055,43.02295920297465,198.01950194176496,3.737809161986327,0.0027391194766125163,0.4531162093121295
2025-10-08T17:39:08+03:00,,,37.001614409548566,25.310879999999997,157.2998330752162,190.69754295339192,2.000023775463165,5.443199999999999,,-0.09740282517223994,10.800254438216017,-20.700965138076644,24.815775,59.487623,21.21825231853328,45.88313290135923,203.18296597657545,3.789143098769884,0.0026723932588449224,0.4557886025709744
2025-10-08T17:39:12+03:00,,,35.00199170454199,23.79456,153.99959617526267,184.69867483837214,0.600001403060998,4.52952,,-1.0026761414789407,3.798710181717358,-17.801798694714677,24.815939,59.487523,20.251639507941995,42.37298646102539,196.37258263628806,3.3462878733944117,0.0027419970273199453,0.45853059959829434
2025-10-08T17:39:14+03:00,,,33.00236899953541,24.1056,152.99692003378374,177.30178970323325,-0.3999818367808277,4.78224,,0.29793805346802804,-4.102377813136695,-19.400350943129673,24.815876,59.487502,20.2630982089991,40.38800584730831,193.38492588109204,3.642507710131386,0.0022999760196046903,0.46083057561789903
2025-10-08T17:39:18+03:00,,,33.00236899953541,25.69968,160.99541085381,187.70097368485767,0.3999818367808277,4.84056,,0.0,5.901465289847479,-12.89727996839483,24.815975,59.487407,21.80017258755373,39.94875891043603,200.94416976424603,3.7108652578751533,0.0016147961820804399,0.46244537179997947
2025-10-08T17:39:22+03:00,,,26.997771306564392,24.3,155.99921888026924,184.80180724149574,4.099971390397145,4.58784,,-0.29793805346802804,5.001921551492087,-17.60126346641889,24.816084,59.487303,20.31914081486218,32.88082148800021,188.88004036826945,3.8528755252701834,0.0024179931983644366,0.4648633649983439
2025-10-08T17:39:24+03:00,,,26.997771306564392,23.9112,161.99808699528896,180.2009561465952,-1.899985344433323,4.45176,,0.29793805346802804,-1.1974817918234204,-11.699798176571411,24.816053,59.487283,20.046697635818738,32.78357233293639,194.78165932822535,3.742692062465752,0.0015297802430150336,0.46639314524135894
2025-10-08T17:39:28+03:00,,,24.99814860155782,21.597839999999998,161.99808699528896,165.60199152666183,-1.4000223724021665,4.43232,,-2.4006931615981495,-12.100868633162985,-13.899956109873772,24.816171,59.48719,17.68022905915945,31.079495166923294,193.07758216221225,3.796068819292638,0.0023290982437586556,0.4687222434851176
2025-10-08T17:39:30+03:00,,,28.000447448043335,21.50064,147.99499848229166,171.80139486997734,1.4000223724021665,4.41288,,-0.09740282517223994,-8.697499330085895,-13.298350424986406,24.816205,59.487157,17.725801602329664,34.712391063231394,182.70738954552306,3.627479618556306,0.0022385637276655795,0.47096080721278316
2025-10-08T17:39:32+03:00,,,33.00236899953541,21.50064,151.9999734702561,168.00268468825996,-1.7000230739326654,4.276800000000001,,1.902219879834333,-15.097437901697193,-13.99735893504601,24.816242,59.487123,18.06473245940348,40.411332518232626,192.41130598848872,3.2563987206611333,0.0023348707580180673,0.47329567797080124
2025-10-08T17:39:34+03:00,,,33.99931556306306,20.19816,145.99537577728506,166.10046480842567,-3.50002728311566,3.18816,,-0.6016056848873644,-16.30064927147192,-17.400728238123104,24.816202,59.487112,17.64532456575085,39.797989520499186,185.79336529778425,2.4494824067190857,0.0013883021692535817,0.4746839801400548
2025-10-08T17:39:36+03:00,,,31.999692858056477,20.10096,141.99613036727192,174.50002608504352,2.3000244769936637,3.47976,,-0.09740282517223994,-4.60085109490051,-24.001202038030186,24.816231,59.487089,17.248794298928768,38.136604651701276,180.1327350189732,2.736972708379574,0.0016415055050766733,0.4763254856451315
2025-10-08T17:39:40+03:00,,,20.00195662801704,23.69736,169.99657781531528,216.69836769642865,15.599979183806436,3.402,,-0.8995437383553924,38.39963142966778,0.0,24.81631,59.487022,20.533565008030997,23.25071755946277,193.24729537477805,3.1257108782707688,0.0013481933067208474,0.47767367895185237
2025-10-08T17:39:42+03:00,,,3.002298846485514,20.606399999999997,201.99627067337175,225.40159660446585,10.900006390348295,2.7799199999999997,,-0.8021409131831525,44.70216717610683,15.20057030482074,24.816278,59.486966,17.830890098753038,3.470162445985949,205.4664331193577,2.7748228913909068,0.003504842133959642,0.481178521085812
2025-10-08T17:39:44+03:00,,,-16.0018517813112,18.09864,232.9990169679006,216.6009648712564,6.399995867390808,3.3047999999999997,,-3.9018425848409057,34.102447966186595,28.097850273215574,24.816287,59.486988,14.94967653276916,19.49560488032776,213.50341208757283,3.1153262136139785,0.0013505941920703328,0.48252911527788234
2025-10-08T17:39:46+03:00,,,-31.00188685783615,17.2044,246.9963759029466,199.89924514319293,0.9999832398418258,3.4992,,-5.700930061551691,12.100868633162985,39.00123711455514,24.816233,59.486978,14.318941083679373,38.232866204328644,208.76350969861795,2.748628704528915,0.0017542054405423418,0.48428332071842467
2025-10-08T17:39:48+03:00,,,-35.00113226784929,20.606399999999997,260.9994644159439,163.60236882165526,-8.500000778104303,4.374,,-4.60085109490051,-23.19906112484703,34.60092124795042,24.816165,59.486973,17.20736386913124,43.38494399880534,217.61452041713858,3.178827229648165,0.0020969234945928494,0.4863802442130175
2025-10-08T17:39:50+03:00,,,-37.9977015363835,24.70824,236.99826237791373,157.79830635698005,-4.400029387707157,4.43232,,-0.49847328176381617,-19.19981571483389,18.300271976478495,24.816094,59.48696,21.390171889219765,45.32669154664103,191.6715708312727,3.1162023978876805,0.0023034202504926223,0.48868366446351014
2025-10-08T17:39:54+03:00,,,-20.998043754851974,25.50528,221.99822730138877,164.50191256001065,-11.100025956628462,5.28768,,-1.0026761414789407,-18.397674801650734,4.60085109490051,24.815919,59.486819,20.65582814353429,26.26120485455752,195.73702244683125,4.741918611045775,0.002534596218011869,0.491218260681522
2025-10-08T17:39:56+03:00,,,-1.998763268313877,23.69736,205.99551608338487,146.40217581182796,-12.40000989800079,4.68504,,0.29793805346802804,-35.901535442897384,-1.9996227050065731,24.815935,59.486785,19.015872556517962,2.4911152149821305,203.50440086840274,4.680612513393472,0.002101188968763474,0.4933194496502855
2025-10-08T17:39:58+03:00,,,22.998525896551243,23.21136,172.99887666180075,144.4025531068214,-4.899992359738313,3.47976,,-1.598552248414997,-36.49741154983344,-1.701684651538545,24.81588,59.486805,20.054327578801193,26.885832024002383,199.88470868580313,3.1036305821023995,0.002064623754172759,0.4953840734044583
2025-10-08T17:40:02+03:00,,,50.002026781066945,19.10952,126.99609529074696,143.39987696534246,0.2000195662801704,3.86856,,0.29793805346802804,-31.70175480458845,-15.49850835828877,24.815933,59.486753,16.885072300728798,60.11063329871196,187.10672858945892,1.9278073080312235,0.0020561710647875485,0.49744024446924584
2025-10-08T17:40:04+03:00,,,50.002026781066945,20.19816,117.99492832924174,171.60085964168155,12.899972870031945,4.02408,,-0.6016056848873644,-1.3980170201192088,-14.902632251352712,24.81598,59.486732,17.87940180813585,59.93041426312948,177.92534259237124,2.016270994301959,0.0019107021371908197,0.49935094660643664
2025-10-08T17:40:06+03:00,,,37.998560973076195,21.40344,133.99763954724563,203.40001727144224,19.199987602172424,3.5575200000000002,,0.40107045659157625,29.702132099581874,-7.098947081670899,24.816066,59.486686,18.728522915903426,44.71423088032745,178.71187042757307,2.5280617456294556,0.0038123054464698253,0.5031632520529065
2025-10-08T17:40:08+03:00,,,11.997736230039438,20.39256,157.9988415852758,224.30151763781467,16.499981288397933,1.78848,,1.3980170201192088,50.397367659707214,-1.3980170201192088,24.816057,59.486689,18.646854457911804,13.140162265233869,171.13900385050968,1.7416519664284564,0.0003285736124459405,0.5034918256653524
2025-10-08T17:40:10+03:00,,,-12.002606371298052,18.798479999999998,224.99479656992298,245.90202651424673,12.299971466970948,1.22472,,-0.20053522829578813,69.20184249590083,17.498131063295343,24.816051,59.486676,17.602377287359065,12.831645666414175,212.1631509035088,1.1941348710794764,0.000802569128903843,0.5042943947942563
2025-10-08T17:40:12+03:00,,,-35.99807883137692,18.195839999999997,264.998709825957,234.29963116284753,1.7000230739326654,2.99376,,-3.5007721282493303,54.201807419375875,23.19906112484703,24.816002,59.486674,15.871619237288604,42.36325915167188,222.63545067428512,2.2120520945198057,0.0015002559606917532,0.505794650754948
2025-10-08T17:40:14+03:00,,,-42.002676524347955,19.40112,254.77714276082315,207.3992626814554,-5.599974898049641,4.04352,,0.49847328176381617,22.098982158195852,25.198683829853607,24.81588,59.486677,16.618085064317174,51.373387176084805,203.40375558473835,2.524137159438879,0.0037276839121905612,0.5095223346671386
2025-10-08T17:40:16+03:00,,,-39.00037767786244,20.10096,252.9780552841124,200.59825365325253,0.600001403060998,4.393439999999999,,-2.899166443361966,24.99814860155782,22.001579333023614,24.815806,59.486665,16.914149407048107,48.40856390418065,204.56949137993175,2.9164288829961382,0.0023707946292891567,0.5118931292964277
2025-10-08T17:40:18+03:00,,,-39.997324241390075,20.898,252.99524401796634,203.60055249973803,-0.8000209693411684,5.598719999999999,,-1.1000789666511805,22.098982158195852,19.698288996597704,24.815717,59.48665,16.9943374100408,52.222376963900246,200.7728670540661,3.4297669730392837,0.002861925891605527,0.5147550551880332
2025-10-08T17:40:20+03:00,,,-35.99807883137692,20.9952,250.18202124387398,209.1983501581662,2.9000258800546614,5.42376,,-2.2975607584746007,32.40076331464805,20.20249185631283,24.815685,59.486661,16.91037676933859,46.86421049568074,203.31781074819324,3.708385973067806,0.0011793772611707052,0.5159344324492039
2025-10-08T17:40:24+03:00,,,-29.999210716357208,20.9952,251.9982974544387,186.1024214364427,-1.7000230739326654,6.24024,,-3.798710181717358,6.497341396783535,32.60129854294384,24.815468,59.486621,15.900076305764669,41.315699352146794,210.6825981022919,4.686939810446812,0.0019532201374269013,0.5178876525866308
2025-10-08T17:40:28+03:00,,,-33.00150956284272,24.90264,244.99675319794,192.39922760493045,1.8000042091829944,5.65704,,-4.60085109490051,14.10049133816956,27.897315044919782,24.81524,59.48656,20.39244478495262,41.691822579114614,203.30493061882538,4.224299119539311,0.003337008892082796,0.5212246614787136
2025-10-08T17:40:30+03:00,,,-31.00188685783615,24.61104,257.9971655694584,178.00079821329285,-2.499986747494321,6.37632,,-3.798710181717358,-6.697876625079324,35.7010002146016,24.815135,59.48654,19.42522068191158,40.735654641976936,217.26151092748145,4.831518716619361,0.0034225794249161403,0.5246472409036298
2025-10-08T17:40:32+03:00,,,-27.99958801135063,25.19424,256.9944894279795,161.49961371352515,-3.6999895536163168,6.29856,,-4.698253920072751,-21.49737647330849,37.50008769131237,24.81504,59.486512,19.854348217798723,36.564648000980156,220.42984142699933,5.058910162820366,0.003352401444985428,0.5279996423486152
2025-10-08T17:40:34+03:00,,,-27.99958801135063,26.39952,241.99445435145452,159.70052623681437,0.09998113525032865,5.832,,-3.5981749534215695,-18.70134243307007,31.002746294528848,24.81495,59.486477,21.42580418666723,35.34126933536268,206.65318501609184,4.757285780476063,0.0034598197695032465,0.5314594621181185
2025-10-08T17:40:36+03:00,,,-33.00150956284272,26.20512,231.99634082642166,169.29756930525565,0.300000701530499,5.5598399999999994,,-3.9018425848409057,-6.697876625079324,20.299894681485068,24.81486,59.486519,21.754125174381116,41.003210917155315,190.99312990926634,4.195860091426346,0.0037306466765090244,0.5351901087946275
2025-10-08T17:40:40+03:00,,,-27.99958801135063,22.70592,232.9990169679006,174.2020880315755,-0.5000202678106694,5.57928,,-3.3976397251257815,-8.697499330085895,26.401895199628335,24.814687,59.486454,17.97158782405548,36.38003926675697,196.61897770114362,4.491881028846882,0.0038545974785349512,0.5390447062731625
2025-10-08T17:40:44+03:00,,,-27.002641447823002,23.502959999999998,227.99709541640848,167.00000854678103,-1.200002806121996,5.3654399999999995,,-3.9018425848409057,-14.398429391637588,26.401895199628335,24.814538,59.486382,18.880250965918425,34.416063591726015,193.58103182468247,4.4262469321420355,0.0035978546075996756,0.5426425608807621
