time,dpt,mtw,awa,aws,cog,hdg,rot,sog,stw,pitch,yaw,roll,lng,lat,tws,twa,twd,vmg,dist,cum_dist
2024-09-04T17:29:02+03:00,22.0,290.65,-28.996534574878265,12.49992,101.55103960898711,86.00096504913657,0.0,3.2270399999999997,3.2076,0.49847328176381617,-94.19999109745865,14.398429391637588,24.803869,59.471971,9.803012484119996,38.17884370998763,63.37219589899948,2.536728335374152,0.0009484080984989483,0.0009484080984989483
2024-09-04T17:29:17+03:00,21.9,290.65,37.001614409548566,11.99448,4.881600414514614,1.9996227050065731,1.8000042091829944,3.2270399999999997,2.7993599999999996,-1.598552248414997,-178.00079821329285,-15.899578814880346,24.804179,59.472083,9.615488198882026,48.654488633817834,53.53608904833245,2.131776835352313,0.0007819965884324761,0.0017304046869314246
2024-09-04T17:29:25+03:00,,290.65,33.99931556306306,15.396479999999999,17.137167652362923,8.697499330085895,0.6999825383113268,4.35456,3.402,-1.1974817918234204,-170.7987187284984,-14.902632251352712,24.804218,59.472212,12.035257284378426,45.672084975319905,62.809252627682824,3.0428093045706195,0.002153043336858974,0.0038834480237903988
2024-09-04T17:29:27+03:00,,290.65,33.99931556306306,15.396479999999999,18.638317075605677,11.098192491684046,0.9000021045914972,4.29624,3.5964,-1.9996227050065731,-168.300622741728,-14.301026566465348,24.804238,59.472248,12.076081259036997,45.47414431807201,64.11246139367768,3.01265692558522,0.0022483883154847516,0.00613183633927515
2024-09-04T17:29:29+03:00,22.1,290.65,33.99931556306306,15.396479999999999,17.07987187284984,11.900333404867197,1.4000223724021665,4.548959999999999,,-1.501149423242757,-167.49848182854487,-15.401105533116528,24.804258,59.472286,11.900230155627893,46.34165104887353,63.421522921723366,3.14040487345267,0.0023643104618051624,0.008496146801080313
2024-09-04T17:29:32+03:00,22.1,290.65,33.00236899953541,14.30784,24.83199084096988,15.49850835828877,0.8000209693411684,4.45176,3.9074399999999994,-1.9996227050065731,-164.59931538518288,-15.601640761412316,24.804293,59.472337,10.848823007130171,45.917299622279586,70.74929046324947,3.097071345149507,0.00324641326262208,0.011742560063702393
2024-09-04T17:29:33+03:00,22.1,290.65,33.00236899953541,14.30784,25.301816232977153,16.002711218003892,2.000023775463165,4.74336,3.9074399999999994,-1.501149423242757,-163.40183359335947,-15.20057030482074,24.804308,59.472355,10.648018578393051,47.04448989386748,72.34630612684464,3.232269047213884,0.0011748774304298484,0.012917437494132242
2024-09-04T17:29:35+03:00,22.1,,33.00236899953541,14.30784,26.367517731920486,23.399596353142822,5.599974898049641,4.49064,,-1.701684651538545,-154.80173708844583,-15.097437901697193,24.804339,59.472388,10.821810388618248,46.06516868350323,72.43268641542372,3.115784482775653,0.0021978017962948487,0.015115239290427091
2024-09-04T17:30:04+03:00,20.5,290.65,-44.999245792882164,13.5108,122.04001036286535,106.30085973062164,0.2000195662801704,5.3654399999999995,3.7908,0.09740282517223994,-73.90009641597358,12.79987714322259,24.805327,59.472303,10.431203729839208,66.32720154111844,55.712808821746904,2.1542939893132256,0.0016396782354333333,0.016754917525860426
2024-09-04T17:30:06+03:00,20.5,290.65,-44.999245792882164,13.8996,121.66758779603032,108.70155289221978,1.200002806121996,5.307119999999999,,1.0026761414789407,-70.30192146255202,13.200947599814167,24.805411,59.47227,10.81854688778008,65.29535818111152,56.372229614918794,2.218061316382195,0.0032422402408842626,0.01999715776674469
2024-09-04T17:30:17+03:00,20.5,290.65,-57.99965816440055,11.10024,146.1672631158243,129.49992085546867,0.8000209693411684,5.6181600000000005,4.704479999999999,-0.20053522829578813,-50.397367659707214,5.798332886723932,24.805748,59.472081,9.417207059426914,88.39279765559861,57.7744654602257,0.15757418591051392,0.0018487358180652796,0.02184589358480997
2024-09-04T17:30:23+03:00,,290.65,-61.99890357441368,9.60336,143.17069384729012,126.10228113034287,0.0,5.1710400000000005,,0.6016056848873644,-54.40234264767167,7.901087994854052,24.805905,59.471958,8.505009488241887,94.466739863417,48.70395398387312,-0.4027225246811915,0.0028836170517045085,0.024729510636514476
2024-09-04T17:30:31+03:00,,,-48.00154463936767,10.692,112.68933914633031,89.50173717738589,0.0,4.41288,,0.40107045659157625,-91.50135988239246,13.699420881577984,24.806159,59.471831,8.405458789263067,70.9661091926792,41.72322995365111,1.439160981819612,0.0029405095243629294,0.027670020160877405
2024-09-04T17:30:55+03:00,20.3,290.65,37.001614409548566,12.908159999999999,6.342642792098213,0.0,0.0,3.92688,3.402,-2.498095986770389,179.5019476365356,-20.597832734953094,24.806837,59.471958,10.05380308096029,50.59734151105695,56.939984303155164,2.492651350780487,0.001145713955995371,0.028815734116872778
2024-09-04T17:30:56+03:00,20.3,290.65,39.998183678082775,13.39416,0.9224620501606254,358.60282481647965,0.0,3.9463199999999996,3.402,-2.8017636181897254,178.00079821329285,-19.297218540006124,24.806838,59.471975,10.676713186165419,53.74180634662444,54.66426839678507,2.333952183343277,0.0010222872300083487,0.029838021346881127
2024-09-04T17:30:58+03:00,20.9,290.65,43.99742908809592,13.608,358.76898257706756,352.9018947549279,0.0,4.1212800000000005,,-2.1027551081301215,171.80139486997734,-19.19981571483389,24.806833,59.472013,11.021549039068368,59.05212608753591,57.82110866460346,2.119401355263586,0.0022891892367726758,0.0321272105836538
2024-09-04T17:31:00+03:00,20.9,290.65,43.99742908809592,13.608,356.7579007161584,347.69943797514003,0.0,4.82112,,-2.200157933302361,166.50153526501725,-17.102790184655074,24.806822,59.472055,10.67853195741998,62.27424478787027,59.032145504028676,2.2429778442847925,0.002546766630534128,0.03467397721418793
2024-09-04T17:31:06+03:00,,290.65,58.000517601093236,11.60568,338.9675611773464,328.7975603137742,0.0,5.52096,,-2.6012283898939375,146.60271104012372,-14.10049133816956,24.806727,59.472177,9.862310621974821,86.34315626823417,65.31071744558056,0.35213036795893476,0.002875907614682031,0.037549884828869964
2024-09-04T17:31:08+03:00,,290.65,58.000517601093236,12.30552,335.4610594711457,325.4973234138207,0.0,5.2488,,-1.3980170201192088,144.4025531068214,-13.200947599814167,24.806693,59.472229,10.512971830417712,83.05035546056985,58.511414931715535,0.6350889424343243,0.0032934809192748517,0.040843365748144816
2024-09-04T17:31:10+03:00,20.3,290.65,65.0020618575919,12.30552,332.3327099097314,324.29984162199725,0.9999832398418258,5.13216,4.393439999999999,-2.8017636181897254,144.4025531068214,-14.501561794761136,24.806653,59.472271,11.152982895127778,89.65078674649226,61.98349665622368,0.03127991642899405,0.0028044164817796913,0.043647782229924506
2024-09-04T17:31:11+03:00,20.2,290.65,65.0020618575919,11.80008,332.4301127349036,324.5977796754653,0.5000202678106694,5.443199999999999,4.393439999999999,-1.7990874767107847,144.70049116028943,-15.00003507652495,24.806631,59.472294,10.70442884291612,92.44500471015944,64.87511744506304,-0.2322092640161942,0.0015370201400127673,0.04518480236993727
2024-09-04T17:31:12+03:00,20.2,290.65,65.0020618575919,11.80008,336.0225581103739,324.5977796754653,0.09998113525032865,5.404319999999999,4.393439999999999,-2.2975607584746007,144.4999559319936,-14.301026566465348,24.806608,59.47232,10.702840696334842,92.23705647841001,68.2596145887839,-0.21095266926039752,0.0017133246093063127,0.04689812697924359
2024-09-04T17:31:14+03:00,20.2,290.65,69.00130726760504,12.69432,331.06074360454096,324.20243879682505,0.0,5.42376,4.60728,-1.3006141949469687,143.4972797905147,-12.599341914926804,24.806569,59.472358,11.883514714043432,94.2215897989915,65.28233340353245,-0.3992646309796176,0.002575841613842661,0.04947396859308625
2024-09-04T17:31:15+03:00,20.2,290.65,69.99825383113267,12.49992,329.909098436328,323.6008331119376,0.6999825383113268,5.22936,4.60728,-1.7990874767107847,143.89835024710626,-11.098192491684046,24.806546,59.472378,11.784612288583139,94.64226278885094,64.55136122517894,-0.42323381334694904,0.0013922315419894855,0.050866200135075736
2024-09-04T17:31:16+03:00,20.2,290.65,65.0020618575919,12.79152,333.03744799774233,324.29984162199725,1.200002806121996,5.38488,4.60728,-1.902219879834333,144.59735875716584,-10.89765726338826,24.806522,59.472401,11.593267075687923,89.89802957740602,62.935477575148354,0.009583571495405965,0.0015646693943065268,0.052430869529382265
2024-09-04T17:31:18+03:00,,290.65,65.0020618575919,12.79152,341.83235015300045,325.60045581694425,0.09998113525032865,5.754239999999999,4.60728,-0.6990085100596044,145.69743772381705,-10.3017811564522,24.806487,59.472454,11.598492422287467,91.72294901024911,73.55529916324957,-0.17301043924242515,0.003360161044299997,0.05579103057368226
2024-09-04T17:31:24+03:00,,290.65,58.99746416462087,11.197439999999999,338.52065409714425,328.6027546634297,0.0,5.09328,,-0.8021409131831525,147.10118432188756,-9.797578296737077,24.806388,59.472594,9.621478340850517,85.98154002208263,64.50219411922689,0.3569262273648277,0.0030767091404200015,0.05886773971410226
2024-09-04T17:31:26+03:00,,,58.99746416462087,11.39184,335.66732427739277,326.40259673012736,0.0,4.62672,,-2.8017636181897254,146.49957863700018,-13.298350424986406,24.806345,59.472637,9.842991633980837,82.75722851242155,58.4245527898143,0.5833082434480916,0.002898953871201317,0.061766693585303574
2024-09-04T17:31:28+03:00,,,60.0001403060998,11.197439999999999,334.56724531074155,326.7979376087677,1.2999839413723246,4.859999999999999,4.29624,-2.2975607584746007,147.39912237535557,-14.301026566465348,24.806308,59.472682,9.725375826758732,85.6438721900504,60.21111750079194,0.3691439647062914,0.002931272410006393,0.06469796599530997
2024-09-04T17:31:30+03:00,19.5,290.65,58.000517601093236,11.29464,337.0424229857068,327.1990080653592,0.0,4.89888,4.29624,-1.0026761414789407,147.1985871470598,-12.702474318050351,24.806273,59.472724,9.639852126251597,83.52979861728402,60.57222160299085,0.5520374337599442,0.0027413762704238524,0.06743934226573382
2024-09-04T17:31:31+03:00,19.5,290.65,61.99976301110639,11.29464,339.1222597820317,326.9010700118912,0.0,4.704479999999999,4.29624,-1.701684651538545,146.60271104012372,-9.998113525032863,24.806255,59.472745,9.99047099174342,86.5679705933977,65.6902303754294,0.28163086740274124,0.0013767104336931547,0.06881605269942698
2024-09-04T17:31:33+03:00,19.5,,63.002439152585325,10.90584,333.27236069374595,324.50037685029304,0.0,5.07384,,-1.3980170201192088,144.2020178785256,-11.000789666511807,24.806217,59.472787,9.718165119668331,90.72581999849213,63.998180692238066,-0.06427342598912517,0.002778360400768338,0.07159441310019532
2024-09-04T17:31:35+03:00,19.3,,63.002439152585325,10.90584,334.1489861202961,324.70091207858883,0.6999825383113268,5.07384,,-1.501149423242757,143.800947421934,-13.298350424986406,24.806173,59.47283,9.718165119668331,90.72581999849213,64.87480611878823,-0.06427342598912517,0.002912904584486415,0.07450731768468173
2024-09-04T17:31:54+03:00,19.1,290.65,78.9994207926379,10.303199999999999,322.08822453279225,302.49879751726945,0.09998113525032865,4.4712,4.101839999999999,-1.501149423242757,122.49837659897,-5.500394833255903,24.805707,59.473213,10.419519880999697,103.91186036848802,66.00008490128027,-1.0750060466509042,0.0022518091436106464,0.07675912682829238
2024-09-04T17:31:56+03:00,19.1,290.65,80.00209693411685,10.303199999999999,317.4701847040378,303.7020088870442,0.9000021045914972,4.74336,4.101839999999999,-1.0026761414789407,123.99952602221278,-7.797955591730505,24.805678,59.473231,10.568156122786375,106.23488168793075,63.70506639196856,-1.3261281040668886,0.0013980458091585007,0.07815717263745088
2024-09-04T17:31:58+03:00,19.1,,78.9994207926379,9.992159999999998,313.791795659298,303.9999469405122,0.09998113525032865,4.78224,,-1.501149423242757,123.79899079391697,-10.702851613043778,24.805614,59.473258,10.22137721754802,106.33940525760146,60.131200916899445,-1.3453720369595854,0.002540063645518484,0.08069723628296936
2024-09-04T17:32:00+03:00,,,78.9994207926379,9.992159999999998,318.8911200359623,304.200482168808,0.0,5.151599999999999,,-1.3006141949469687,122.40097377379776,-10.399183981624443,24.805549,59.473284,10.331369850588404,108.30545952930156,67.19657956526385,-1.6180295821150448,0.0025260005891608855,0.08322323687213025
2024-09-04T17:32:11+03:00,19.1,290.15,-138.998701662045,5.50152,217.5005086096118,186.29722708678716,0.0,3.7713599999999996,3.5964,0.6990085100596044,2.6986312150661775,6.801009028202872,24.805137,59.473319,8.706722178256047,155.5086987907427,61.991809818869115,-3.432028942980831,0.0014226853876959024,0.08464592225982615
2024-09-04T17:32:13+03:00,,290.15,-138.998701662045,5.50152,199.36066481576992,169.10276365491114,0.0,4.1212800000000005,3.4992,0.8021409131831525,-22.001579333023614,10.198648753328653,24.805108,59.473276,9.026323559766729,156.42953299761032,42.9311318181596,-3.7774373520996547,0.0027320794963755623,0.08737800175620171
2024-09-04T17:32:15+03:00,19.2,290.15,-101.00014068896883,8.39808,181.55886612105527,152.80211438343926,0.0,3.92688,3.5964,0.49847328176381617,-31.002746294528848,11.000789666511807,24.805104,59.473228,9.926398521932144,123.85084266795278,57.7080234531025,-2.187400917274672,0.0028877538988776067,0.09026575565507931
2024-09-04T17:32:16+03:00,19.2,290.15,-93.00164986894255,8.39808,179.0894180240414,144.4025531068214,0.0,4.14072,3.4992,0.8021409131831525,-39.00123711455514,10.198648753328653,24.805105,59.473208,9.555897711224764,118.64202537713376,60.447392646907645,-1.9847949740416817,0.0012025419668552782,0.09146829762193459
2024-09-04T17:32:17+03:00,19.2,290.15,-93.00164986894255,8.39808,167.4698339387883,138.70162304526968,0.0,4.276800000000001,3.4992,0.09740282517223994,-42.50200924280447,8.898034558381685,24.805113,59.473186,9.621866923785056,119.3532077842905,48.116626154497794,-2.0964535246741125,0.0013447377577817338,0.09281303537971633
2024-09-04T17:32:25+03:00,19.4,290.15,-71.00007053591892,9.60336,144.04731927384026,126.10228113034287,0.0,4.1212800000000005,,0.40107045659157625,-55.399289211199296,10.50231638474799,24.80524,59.473019,9.134484287754393,96.25189443984384,47.79542483399642,-0.44880633069913517,0.0024291245726740973,0.09524215995239042
2024-09-04T17:32:26+03:00,19.4,290.15,-65.99814898442683,9.60336,140.68978659437363,123.30051751215316,0.0,4.45176,3.5964,-0.09740282517223994,-57.398911916205876,11.401860123103383,24.805264,59.472998,8.789918988112763,93.5576431962619,47.13214339811172,-0.2762437078289825,0.001459531478078394,0.09670169143046882
2024-09-04T17:32:27+03:00,19.4,290.15,-65.99814898442683,9.60336,139.7615949662617,124.40059647880433,2.400005612243992,4.80168,3.4992,0.6016056848873644,-54.597148298016144,11.499262948275621,24.805289,59.472982,8.818550860007434,95.82735135836529,43.934243607896406,-0.4875203953481882,0.0012278091767943234,0.09792950060726315
2024-09-04T17:32:29+03:00,,290.15,-65.99814898442683,11.39184,143.53165725822254,127.59770097563433,0.0,4.91832,3.4992,0.6016056848873644,-52.50012276783733,9.098569786677473,24.805334,59.472942,10.410702211581798,91.56598151724724,51.9656757409753,-0.13440849224948298,0.002769176432953124,0.10069867704021628
2024-09-04T17:32:31+03:00,,290.15,-63.001579715892625,11.702879999999999,143.89262066915495,125.70121067375132,0.0,5.22936,,0.29793805346802804,-54.597148298016144,11.401860123103383,24.805384,59.472901,10.427822019765037,89.54203401633167,54.35058665282328,0.041797904071010195,0.0028989258246053286,0.1035976028648216
2024-09-04T17:32:33+03:00,,290.15,-63.001579715892625,11.702879999999999,143.57176430388168,125.9017459020471,1.2999839413723246,5.50152,4.00464,0.0,-53.69760455966075,11.79720100174365,24.805433,59.472857,10.429198181039496,91.03734470146011,52.534419602421565,-0.09960002098600979,0.003038550789138144,0.10663615365395974
2024-09-04T17:32:35+03:00,19.4,290.15,-57.00271160087291,12.49992,144.7692460957051,125.9017459020471,0.0,5.346,4.00464,0.09740282517223994,-54.597148298016144,10.399183981624443,24.805487,59.472817,10.5850120273557,82.06395247111867,62.705293624586446,0.7381099023200038,0.002915290543830772,0.10955144419779052
2024-09-04T17:32:37+03:00,19.4,290.15,-59.00233430587948,12.59712,143.21080089294927,126.40021918381092,1.5999846429028237,5.52096,4.393439999999999,0.09740282517223994,-52.79806082130536,10.198648753328653,24.80554,59.472778,10.841279981205759,84.88477938047642,58.32602151247285,0.4922426761604675,0.002848466325960712,0.11239991052375123
2024-09-04T17:32:39+03:00,19.4,,-59.00233430587948,12.59712,142.16228812785985,129.0988503988771,0.0,5.307119999999999,4.510079999999999,0.29793805346802804,-50.901570519422336,5.998868115019719,24.805598,59.472746,10.862434035340788,83.76126356385284,58.40102456400702,0.5767324518199913,0.0026144779023285778,0.1150143884260798
2024-09-04T17:32:41+03:00,,,-57.99965816440055,13.802399999999999,146.1386152260678,127.50029815046209,0.0,5.26824,4.60728,-0.29793805346802804,-52.79806082130536,5.901465289847479,24.805653,59.472713,11.882524429834433,80.08514044817967,66.05347477788813,0.9071096955905108,0.0025989099139986523,0.11761329834007846
2024-09-04T17:32:43+03:00,,290.15,-48.99849120289531,11.80008,144.27077281394128,124.10265842533632,0.0,5.307119999999999,4.60728,-0.6016056848873644,-56.90043863444206,9.602772646392598,24.805708,59.472673,9.23224036595246,74.70949575537756,69.56127705856372,1.3995575349500737,0.002932669421746004,0.12054596776182445
2024-09-04T17:32:44+03:00,19.4,290.15,-50.00116734437425,10.692,140.01942597407057,123.19738510902961,0.300000701530499,5.07384,4.60728,0.0,-56.69990340614627,10.599719209920229,24.805745,59.472655,8.385857164283324,77.61442131737988,62.40500465669069,1.0882853664845336,0.0015642093182567202,0.12211017708008118
2024-09-04T17:32:46+03:00,19.4,,-50.00116734437425,10.692,141.9216458539049,123.50105274044896,0.0,4.87944,4.60728,0.29793805346802804,-57.100973862737845,9.998113525032863,24.805806,59.472625,8.429692630353644,76.32374671380671,65.59789914009818,1.1536726365398624,0.0025923547253210387,0.12470253180540222
2024-09-04T17:32:48+03:00,19.4,,-50.00116734437425,12.402719999999999,136.86242852289973,121.30089480714659,0.0,5.1710400000000005,,0.29793805346802804,-58.80265851427639,10.50231638474799,24.805882,59.472587,9.90549358713797,73.57377158953406,63.28865693336567,1.4622696616342288,0.0032559777979842414,0.12795850960338645
2024-09-04T17:32:54+03:00,19.4,,-50.00116734437425,13.19976,131.32192664398465,111.89865738904979,0.0,5.1127199999999995,,0.09740282517223994,-69.59718337454109,11.997736230039438,24.806105,59.472477,10.659103007985586,71.55931799059158,59.76260865339307,1.6172693564609972,0.002881756512458553,0.130840266115845
2024-09-04T17:32:56+03:00,,,-50.00116734437425,13.19976,132.03812388789822,111.30278128211373,0.8000209693411684,5.307119999999999,,0.09740282517223994,-67.70069307265807,8.697499330085895,24.806175,59.472443,10.599214360063456,72.55626918760817,59.48185470029006,1.5909101923485727,0.0029570778570528087,0.13379734397289783
2024-09-04T17:33:04+03:00,,290.15,-44.00229922935453,13.802399999999999,128.2107658164243,111.89865738904979,0.09998113525032865,5.346,,0.0,-67.2996226160665,9.998113525032863,24.806468,59.472332,10.62700884629341,64.45706931955513,63.75369649686917,2.3051271269944373,0.0030139740994335135,0.13681131807233135
2024-09-04T17:33:10+03:00,,290.15,-44.00229922935453,13.19976,132.4506535003924,115.59996474559487,1.899985344433323,5.0544,4.704479999999999,-0.09740282517223994,-62.80190392428953,9.602772646392598,24.80668,59.472234,10.188235745423704,64.16184284416441,68.288810656228,2.2028621154272265,0.0031073002426759153,0.13991861831500726
2024-09-04T17:33:12+03:00,,290.15,-44.999245792882164,13.00536,137.8078088848656,120.29821866566765,1.5999846429028237,5.20992,,0.09740282517223994,-58.69952611115284,10.3017811564522,24.806745,59.4722,10.022908152760424,66.56385281790713,71.24395606695848,2.072124868922836,0.002848707556038038,0.1427673258710453
2024-09-04T17:33:14+03:00,,,-44.999245792882164,13.00536,135.99726225225223,126.40021918381092,2.7000063137744914,5.57928,,0.49847328176381617,-52.29958753954155,9.499640243269049,24.806816,59.472162,9.881816459124856,68.52915252318255,67.46810972906968,2.042171449263262,0.003149024058439623,0.1459163499294849
2024-09-04T17:33:16+03:00,,290.15,-50.99811390790188,13.10256,143.53165725822254,130.59999982211983,2.400005612243992,5.5598399999999994,,0.29793805346802804,-48.598280182996426,10.50231638474799,24.80687,59.472123,10.53069493372516,75.22148473251403,68.31017252570851,1.4182217853997345,0.0028659393984058886,0.14878228932789078
2024-09-04T17:33:18+03:00,19.6,290.15,-52.00079004938082,12.79152,144.8380010311208,133.29863103718603,1.5999846429028237,5.3654399999999995,,0.49847328176381617,-46.799192706285645,10.89765726338826,24.806923,59.472084,10.387689887811458,76.01900023102591,68.81900080009488,1.2962909271607814,0.00284848520840789,0.15163077453629867
2024-09-04T17:33:20+03:00,,290.15,-56.00003545939396,12.49992,149.11226618279673,131.00107027871144,0.0,5.773680000000001,,0.0,-49.69835914964761,13.498885653282196,24.806979,59.472036,10.434028431546803,83.30644480256987,65.80582138022686,0.6729744913868825,0.0033537500949994874,0.15498452463129817
2024-09-04T17:33:22+03:00,,,-56.00003545939396,12.20832,148.14969708697697,130.19892936552827,0.0,5.890319999999999,,0.40107045659157625,-48.79881541129222,13.699420881577984,24.807031,59.47199,10.16439265144596,84.71365036253162,63.43604672444535,0.54269497084324,0.003188368994012628,0.15817289362531078
2024-09-04T17:33:23+03:00,19.6,290.15,-57.00271160087291,12.20832,144.99269963580613,131.2016055070072,1.5000035076524951,5.7348,4.89888,0.49847328176381617,-48.90194781441576,12.198271458335228,24.80706,59.47197,10.279772949744926,84.89983288163151,60.09286675417462,0.509807674514473,0.0014930415187351465,0.15966593514404592
2024-09-04T17:33:24+03:00,19.6,290.15,-57.00271160087291,12.20832,145.72035603562227,131.00107027871144,0.0,5.890319999999999,4.89888,0.40107045659157625,-49.10248304271155,11.499262948275621,24.807091,59.471948,10.267116276024641,85.76431100698925,59.95604502863303,0.43505550411711785,0.0016262002884132184,0.16129213543245915
2024-09-04T17:33:26+03:00,,,-57.00271160087291,12.20832,146.68865470939338,133.09809580889024,0.6999825383113268,5.98752,4.89888,-0.40107045659157625,-44.79957000127907,10.702851613043778,24.807144,59.471905,10.260395044239242,86.30561776463733,60.38303694475604,0.3858026408347595,0.0030494161635765287,0.1643415515960357
2024-09-04T17:33:28+03:00,19.6,290.15,-59.00233430587948,12.59712,147.39912237535557,143.60041219363822,4.599991658207815,5.67648,,-0.20053522829578813,-35.00199170454199,7.0015442564986605,24.807197,59.471865,10.828521963899204,85.70441616915755,61.69470620619802,0.4251789492624718,0.0028981587120116216,0.16723971030804732
2024-09-04T17:33:29+03:00,19.6,290.15,-61.99890357441368,12.59712,149.43885212602132,144.59735875716584,2.9000258800546614,5.69592,4.996079999999999,0.09740282517223994,-35.901535442897384,7.2020794847944485,24.807222,59.471841,11.124625334277626,88.87569551439282,60.5631566116285,0.11176281201518228,0.001632082905926679,0.168871793213974
2024-09-04T17:33:30+03:00,19.6,290.15,-61.99890357441368,12.59712,152.92816509836803,142.5977360521593,0.0,5.3654399999999995,5.09328,0.29793805346802804,-38.80070188625935,8.697499330085895,24.807244,59.471819,11.136012833637544,87.17542424508635,65.75274085328168,0.2643991237183413,0.0014831927732129706,0.17035498598718696
2024-09-04T17:33:48+03:00,19.2,,-78.99856135594521,9.89496,171.57794132987632,176.00117550828628,6.799977704171636,4.510079999999999,4.80168,0.09740282517223994,-1.501149423242757,2.2975607584746007,24.807697,59.471421,10.060733853593335,105.10543984529583,66.47250148458049,-1.1753095858505622,0.0022706536497061015,0.17262563963689306
2024-09-04T17:33:49+03:00,19.2,290.15,-84.99742947096492,9.408959999999999,178.4591644493975,181.7995083950102,6.199976301110638,4.52952,4.80168,-0.20053522829578813,4.102377813136695,1.1974817918234204,24.807695,59.471398,10.080300129153798,111.5892937397954,66.8698707096021,-1.6666405470130943,0.0013838254898371615,0.1740094651267302
2024-09-04T17:33:50+03:00,19.2,290.15,-89.99935102245702,8.90352,180.4072209528423,187.39730605343834,6.0000140306099805,4.78224,4.80168,0.09740282517223994,9.602772646392598,0.20053522829578813,24.807692,59.471375,10.106508954432396,118.24053791124149,62.166683041600805,-2.2628325210735927,0.0013855086641944509,0.17539497379092467
2024-09-04T17:33:51+03:00,19.2,290.15,-95.99821913747672,8.90352,185.51800448540925,192.69716565839846,5.79999446432981,4.82112,4.704479999999999,-0.20053522829578813,14.702097023056925,0.0,24.807687,59.47135,10.558738956957427,123.00527108419143,62.512733401217815,-2.626142110873384,0.0015104278744039457,0.17690540166532862
2024-09-04T17:33:52+03:00,19.2,290.15,-102.9997633939754,8.59248,194.06080521080983,198.5012281230737,5.299974196519141,4.97664,4.80168,-0.40107045659157625,21.10203559466822,-0.29793805346802804,24.807671,59.471325,10.855223810295398,129.53230363283188,64.52850157797795,-3.1676968762992597,0.001580108749654396,0.178485510414983
2024-09-04T17:33:53+03:00,19.2,290.15,-110.00130765047405,8.203679999999999,201.33736920897127,205.8007104330404,7.200016836731978,4.6655999999999995,4.704479999999999,-0.09740282517223994,28.997394011570965,-1.902219879834333,24.807642,59.471305,10.735526710568069,134.10452865478064,67.23284055419063,-3.2471155561603227,0.0014930518536497963,0.1799785622686328
2024-09-04T17:33:54+03:00,19.2,290.15,-110.00130765047405,8.203679999999999,206.36220907226863,214.80187739454564,8.899982614885129,4.548959999999999,4.704479999999999,-0.40107045659157625,38.39963142966778,-3.2028340747813018,24.807614,59.471289,10.654678026747098,133.6541250585819,72.70808401368672,-3.1401622472714332,0.0012867800554883372,0.18126534232412111
2024-09-04T17:33:56+03:00,,,-110.00130765047405,8.203679999999999,221.21900470001086,232.7984817396048,9.799984719476626,4.45176,4.704479999999999,-0.29793805346802804,56.298832949554686,-5.798332886723932,24.807561,59.471251,10.587814104837062,133.27355346118287,87.94545123882799,-3.051602929270597,0.0027992500755130087,0.18406459239963413
2024-09-04T17:34:04+03:00,19.2,290.15,136.99993839373113,6.804,261.2515658458015,254.5021230191604,2.199986045963822,4.101839999999999,,-0.40107045659157625,74.90277255745252,-2.8017636181897254,24.807269,59.471197,10.195197370244466,152.92555225667357,54.177118102475106,-3.6523434564000943,0.002137310253299036,0.18620190265293315
2024-09-04T17:34:05+03:00,19.2,290.15,131.99801684223905,6.6095999999999995,266.0472225910464,256.5991485493392,4.500010522957486,3.61584,4.00464,-0.8021409131831525,78.00247422911028,-3.5981749534215695,24.807237,59.471197,9.420367772378771,148.57191518018104,54.61913777122743,-3.0853793141132186,0.0009770561159131897,0.18717895876884635
2024-09-04T17:34:06+03:00,19.2,290.15,131.99801684223905,6.6095999999999995,264.28824215999487,261.2974024694119,3.9000091198964877,3.5575200000000002,4.00464,-0.8021409131831525,83.3023338340704,-4.60085109490051,24.807205,59.471197,9.370652932824825,148.38597837295353,52.674220532948425,-3.029579325201965,0.000977056115816078,0.18815601488466244
2024-09-04T17:34:07+03:00,19.2,290.15,131.99801684223905,6.6095999999999995,268.0812227637608,264.5976393693655,2.7000063137744914,3.6741599999999996,3.9074399999999994,-0.8021409131831525,85.599894592545,-5.099324376664327,24.807169,59.471197,9.470180779218877,148.75589785851025,56.83712062227107,-3.1412791858865705,0.0010991881303901968,0.18925520301505264
2024-09-04T17:34:08+03:00,19.2,290.15,131.99801684223905,5.90976,271.0090370968794,267.59993821585095,4.800011224487984,3.92688,3.9074399999999994,-1.1000789666511805,89.10066672079432,-3.798710181717358,24.807126,59.471197,9.022271033413396,150.87023499533515,61.87927209221459,-3.430206078266811,0.0013129191556035668,0.1905681221706562
2024-09-04T17:34:09+03:00,19.2,290.15,123.00257945868512,6.39576,272.7393696381745,273.1003330491069,6.199976301110638,3.3242399999999996,3.6935999999999996,-0.40107045659157625,95.79854334587364,-4.297183463481174,24.807091,59.471201,8.667012691064166,141.76612935758905,54.50549899576356,-2.6111612040059153,0.0010953678130025046,0.1916634899836587
2024-09-04T17:34:10+03:00,19.2,290.15,121.9999033172062,6.39576,283.2073085552146,277.3001136874159,0.9000021045914972,3.42144,3.6935999999999996,-0.49847328176381617,97.79816605088023,-6.302535746439056,24.80706,59.471206,8.70655346433091,141.4666865023021,64.67399505751666,-2.6764080134683974,0.0009930906788727652,0.19265658066253147
2024-09-04T17:34:12+03:00,19.4,290.15,101.99794668918915,6.6095999999999995,286.3700355843368,274.69888529752194,0.0,3.9074399999999994,3.5964,-0.8021409131831525,93.99945586916286,-3.0997016716577535,24.806988,59.471215,8.348197375533015,129.24532465451918,55.61536023885594,-2.4720111874344055,0.0022639572134684543,0.19492053787599992
2024-09-04T17:34:13+03:00,19.4,290.15,97.99870127917599,6.804,284.4277086588433,273.79934155916646,1.200002806121996,3.9074399999999994,3.5964,-0.29793805346802804,93.79892064086707,-0.8995437383553924,24.806951,59.471219,8.304305128915253,125.77069138284728,50.19840004169055,-2.2840655803722516,0.0011550217880278916,0.19607555966402782
2024-09-04T17:34:15+03:00,,290.15,97.99870127917599,7.698239999999999,283.6198381677088,283.20157897726335,10.200023852036967,3.5964,3.5964,-0.40107045659157625,106.902465415509,-4.199780638308934,24.806883,59.471223,8.9387934465739,121.47826461351056,45.09810278121938,-1.8779504383659626,0.0020901174721178486,0.19816567713614566
2024-09-04T17:34:17+03:00,,290.15,76.99979808763133,7.1928,296.6317096951298,304.09734976568444,10.500024553567467,3.6741599999999996,3.4992,-0.40107045659157625,128.10190383534945,-9.700175471564837,24.80682,59.471234,7.303824680094252,106.35040963940821,42.98211933453803,-1.0343166412750566,0.002034039231261174,0.20019971636740683
2024-09-04T17:34:19+03:00,19.6,,63.999385716112954,7.60104,324.5404838959522,324.9988501320569,10.500024553567467,3.36312,3.402,-0.49847328176381617,149.10080702689413,-9.40223741809681,24.806777,59.47126,6.831803970891951,90.25973579086507,54.800219686817286,-0.015245793818336939,0.002041102007283792,0.20224081837469063
2024-09-04T17:34:20+03:00,19.6,290.15,54.00127219108009,7.60104,332.6421071191021,334.0974199187343,7.699979808763134,3.3242399999999996,3.3047999999999997,0.0,157.39723590038847,-10.702851613043778,24.806766,59.471273,6.254865921961811,79.4669826262144,52.10908974531651,0.6076780779256526,0.0008505233489933973,0.20309134172368404
2024-09-04T17:34:22+03:00,19.7,290.15,54.00127219108009,9.89496,351.6127397158836,345.29874481354193,4.400029387707157,3.3242399999999996,3.2076,-0.8021409131831525,167.09741137195329,-9.40223741809681,24.806754,59.471305,8.384132951541801,72.71099859423859,64.32373831012217,0.9879361748327566,0.001958033044489287,0.20504937476817334
2024-09-04T17:34:24+03:00,19.7,,54.00127219108009,9.89496,358.2876980291577,347.69943797514003,0.0,3.92688,3.2076,-0.6016056848873644,167.40107900337262,-8.600096504913656,24.806761,59.47134,8.225185201626914,76.72253110783967,75.0102291369974,0.9018748455173414,0.002114599048844068,0.2071639738170174
2024-09-04T17:34:26+03:00,,,46.00278137105379,10.90584,358.442396633843,350.90227204992135,3.30000771683549,3.81024,3.2076,-0.40107045659157625,174.79796413851156,-6.497341396783535,24.806763,59.471378,8.702108534199455,64.36235739385468,62.80475402769764,1.6486075871296046,0.002284909380805646,0.20944888319782304
2024-09-04T17:34:28+03:00,19.8,,46.00278137105379,10.90584,5.700930061551691,355.1994555134026,0.9999832398418258,3.28536,3.2076,-0.8995437383553924,176.99812207181392,-7.2020794847944485,24.806765,59.471408,8.941742622113912,61.328798083254256,67.02972814480594,1.5762584457618436,0.0018042651764758034,0.21125314837429884
2024-09-04T17:34:30+03:00,,,37.998560973076195,11.508479999999999,3.277318588148309,358.4996924133561,2.7999874490248207,3.28536,3.09096,-1.1974817918234204,-176.70018401834588,-7.901087994854052,24.806776,59.471436,9.145979883642152,50.77496239680761,54.05228098495592,2.0775561521178147,0.0017162009016908205,0.21296934927598968
2024-09-04T17:34:32+03:00,,,37.998560973076195,11.508479999999999,10.422102293429676,9.20170218980102,10.900006390348295,3.3047999999999997,3.09096,-0.8021409131831525,-154.80173708844583,-4.497718691776963,24.806782,59.471466,9.133699066998076,50.86943113920353,61.2915334326332,2.085625437429712,0.001812513400333318,0.214781862676323
2024-09-04T17:34:40+03:00,,290.15,-50.00116734437425,9.29232,95.08234610196011,126.49762200898317,14.200014107183785,1.80792,2.7993599999999996,0.8995437383553924,-30.899613891405295,4.898789148368539,24.806889,59.471493,8.247359613934183,59.668595108843434,35.41375099311668,0.9130010305967223,0.003647896256740802,0.2184297589330638
2024-09-04T17:34:42+03:00,,290.15,-50.00116734437425,9.29232,148.9518380001601,159.00151772675477,13.900013405653285,1.98288,2.7021599999999997,0.8021409131831525,2.1027551081301215,1.3980170201192088,24.806912,59.471476,8.160402055114032,60.72893537208188,88.22290262807823,0.9695132715289703,0.0012398783755924263,0.2196696373086562
2024-09-04T17:34:46+03:00,,290.15,-116.99712232902141,10.4976,207.58260917589726,220.60021028126957,14.099975676153942,2.08008,,0.09740282517223994,58.99746416462087,-3.5981749534215695,24.806918,59.471429,11.590984389672279,126.19828371625573,81.38432545964153,-1.2284567561578614,0.002830996309217078,0.22250063361787328
2024-09-04T17:34:50+03:00,19.7,290.15,120.0002806121996,5.404319999999999,226.50740514906838,269.198490464266,11.59998892865962,1.67184,,1.701684651538545,103.6996313407277,-7.901087994854052,24.80687,59.471411,6.406009572352426,133.06282922526586,359.57023437433423,-1.141532243987904,0.0018216751607135105,0.2243223087785868
2024-09-04T17:34:52+03:00,19.7,290.15,99.99832398418258,6.804,226.50740514906838,288.50143858222344,6.699996568921307,1.7496,,1.3006141949469687,115.89790279906293,-8.502693679741416,24.806842,59.471405,7.313627198064507,113.62481725406515,340.13222240313354,-0.7011450457156887,0.0009278749073484648,0.22525018368593527
2024-09-04T17:34:54+03:00,19.7,290.15,99.00137742065495,7.40664,284.0380973581543,299.3016930204394,6.199976301110638,2.08008,1.3996799999999998,-1.3006141949469687,121.7993680889104,-7.0015442564986605,24.806808,59.471407,8.000372840219734,113.88140415403103,37.91950151218532,-0.8421096471646126,0.0010450530896971965,0.22629523677563246
2024-09-04T17:34:55+03:00,19.7,290.15,99.00137742065495,8.70912,296.058751899999,306.10270204864236,8.59998191335463,2.1967199999999996,1.3996799999999998,0.40107045659157625,129.0988503988771,-6.89841185337511,24.806791,59.471411,9.309184164345652,112.47910180566902,48.537853705668,-0.8399080474525682,0.0005720384657834461,0.2268672752414159
2024-09-04T17:34:57+03:00,19.7,,63.999385716112954,9.79776,318.78798763283874,322.2028160918185,4.500010522957486,2.2744799999999996,,-0.8021409131831525,144.4999559319936,-9.001166961505232,24.80676,59.471425,9.034981798952623,77.07651988367266,35.86450751651137,0.508686450306984,0.0012665030776694592,0.22813377831908535
2024-09-04T17:34:59+03:00,19.7,290.15,63.002439152585325,9.79776,322.77004430899797,330.6023773684363,4.599991658207815,1.86624,,-1.3980170201192088,153.1974552620795,-7.500017538262475,24.806739,59.47144,9.1037318229922,73.52704964048694,36.29709394948492,0.5291959584477416,0.0011063606026315905,0.22924013892171693
2024-09-04T17:35:01+03:00,19.7,290.15,60.0001403060998,10.5948,335.8907778174938,337.3002539935156,0.600001403060998,2.21616,,-0.8021409131831525,157.79830635698005,-7.797955591730505,24.806717,59.471457,9.678919351146288,71.43724572130691,47.32802353880072,0.7054993224418439,0.001222844294183502,0.23046298321590045
2024-09-04T17:35:03+03:00,19.8,290.15,60.0001403060998,10.4976,336.6298933732126,338.19979773187106,0.300000701530499,2.41056,,-0.6990085100596044,158.10197398839935,-9.29910501497326,24.806692,59.471476,9.523939203292825,72.66195350189057,49.29184687510315,0.7183681041165786,0.001373654382406387,0.23183663759830683
2024-09-04T17:35:06+03:00,19.8,290.15,46.00278137105379,10.4004,351.1199960120711,342.89805165194383,0.9000021045914972,3.34368,1.49688,-0.49847328176381617,163.60236882165526,-9.700175471564837,24.806655,59.471536,8.42832180515806,62.584915836914945,53.70491184898606,1.5395422936043488,0.003779262064889772,0.2356158996631966
2024-09-04T17:35:07+03:00,19.8,290.15,46.00278137105379,10.4004,354.7410892772979,343.90072779342273,1.7000230739326654,3.05208,1.80792,-1.1000789666511805,164.3987801568871,-11.298727719979832,24.806653,59.47155,8.566495934486452,60.85336027590078,55.59444955319867,1.4865048342285747,0.0008437207745788326,0.23645962043777544
2024-09-04T17:35:08+03:00,19.8,290.15,45.00010522957485,11.00304,350.47828328152457,345.29874481354193,0.6999825383113268,3.4992,1.80792,-1.1974817918234204,165.69939435183406,-12.501939089754565,24.806647,59.471568,8.880403651829134,61.17833079954346,51.65661408106803,1.686912034455136,0.0010973388577611386,0.23755695929553658
2024-09-04T17:35:09+03:00,19.9,290.15,43.99742908809592,11.197439999999999,348.0775901199264,346.5019561833167,1.5999846429028237,3.5964,2.09952,-1.3006141949469687,167.00000854678103,-13.097815196690618,24.806643,59.471584,8.965374325187412,60.17675684398178,48.254346963908176,1.7885830328785481,0.0009694472209658008,0.2385264065165024
2024-09-04T17:35:10+03:00,19.9,290.15,43.99742908809592,11.197439999999999,347.7280858648966,348.5015788883232,1.7000230739326654,3.6352800000000003,2.29392,-1.501149423242757,169.29756930525565,-13.802553284701533,24.806638,59.4716,8.946101883016693,60.3927885461284,48.120874411025056,1.7960148114839665,0.0009737649004079754,0.23950017141691038
2024-09-04T17:35:12+03:00,20.2,290.15,39.998183678082775,12.59712,349.76781561556237,350.99967487509366,1.5999846429028237,3.61584,2.50776,-1.3980170201192088,171.40032441338573,-15.20057030482074,24.80663,59.471632,10.09824228355236,53.304196787208085,43.07201240277044,2.1607045536306955,0.0019388944039972708,0.24143906582090766
2024-09-04T17:35:14+03:00,20.2,290.15,39.998183678082775,12.59712,355.46874567711404,352.9992975801002,1.5000035076524951,3.402,2.7993599999999996,-1.598552248414997,173.89842040015614,-16.100114043176134,24.806631,59.471645,10.227463239799636,52.34360124797608,47.81234692509014,2.078366011989693,0.0007819966046540907,0.24222106242556174
2024-09-04T17:35:16+03:00,20.2,,39.998183678082775,12.59712,355.81824993214383,355.4973935668706,1.7000230739326654,3.47976,3.09096,-1.3006141949469687,175.89804310516274,-15.29797312999298,24.806622,59.47167,10.180143871686818,52.69008433777741,48.50833426992125,2.1091732066769766,0.0015276116433254137,0.24374867406888714
2024-09-04T17:35:18+03:00,,290.15,37.001614409548566,13.00536,4.60085109490051,356.0989992517579,0.0,4.16016,3.2076,-1.3006141949469687,176.20171073658207,-12.89727996839483,24.806633,59.471703,10.001439853158482,51.4991283028792,56.09997939777971,2.5898100237684036,0.0020117876943107444,0.24576046176319788
2024-09-04T17:35:19+03:00,20.3,290.15,37.998560973076195,13.10256,4.291453885529866,356.4026668831773,0.5000202678106694,4.35456,3.2076,-0.8995437383553924,176.60278119317363,-12.89727996839483,24.806636,59.471723,10.035746464760182,53.49211542538802,57.78356931091789,2.590673191956533,0.0012056388977544589,0.24696610066095234
2024-09-04T17:35:21+03:00,20.3,290.15,41.00085981956171,13.10256,4.440422912263879,356.7006049366453,0.0,4.510079999999999,,-1.7990874767107847,176.79758684351813,-15.00003507652495,24.80664,59.471748,10.140121350664304,57.96686031726209,62.407283229525966,2.392190106177758,0.0015076477491705537,0.2484737484101229
2024-09-04T17:35:23+03:00,,,31.999692858056477,12.908159999999999,359.38204741785756,359.1012980982435,0.300000701530499,4.87944,3.5964,-2.6012283898939375,179.30141240823983,-19.19981571483389,24.806642,59.471808,9.143371610244653,48.426699980583265,47.8087473984408,3.237887400454665,0.0036069799267961686,0.2520807283369191
2024-09-04T17:35:25+03:00,20.7,,37.001614409548566,14.30784,1.5699043586584558,360.0008418365988,0.9000021045914972,5.09328,3.7908,-1.9996227050065731,-179.59935046170784,-20.500429909780856,24.806643,59.471848,10.689199823668176,53.666210686389036,55.23611504504749,3.017709112989212,0.0024045025153911644,0.25448523085231023
2024-09-04T17:35:27+03:00,20.7,,39.00123711455514,14.40504,4.910248304271155,0.49847328176381617,0.600001403060998,5.09328,4.00464,-2.1027551081301215,-179.39881523341205,-20.798367963248886,24.806648,59.471893,10.927578894731262,56.05868129861612,60.96892960288728,2.843799909447021,0.0027091519451947987,0.257194382797505
2024-09-04T17:35:29+03:00,20.9,,35.00199170454199,14.91048,10.851820639777792,2.6012283898939375,0.600001403060998,5.443199999999999,4.00464,-2.1027551081301215,-176.99812207181392,-19.698288996597704,24.806663,59.471942,10.908168014759088,51.63438457841653,62.48620521819432,3.3784709793826297,0.0029806733520170107,0.260175056149522
2024-09-04T17:35:31+03:00,20.9,290.15,31.002746294528848,15.70752,10.548153008358458,5.397262430132355,1.899985344433323,5.07384,4.393439999999999,-1.9996227050065731,-174.00155280327974,-21.89844692990006,24.80668,59.471988,11.655294390999108,43.96016109066437,54.508314099022826,3.6522648852907573,0.002813252217957424,0.26298830836747944
2024-09-04T17:35:33+03:00,,290.15,31.002746294528848,15.70752,16.27773095966669,6.102000518143266,0.6999825383113268,5.09328,4.393439999999999,-1.9996227050065731,-173.60048234668815,-21.30257082296401,24.806697,59.472034,11.641308860223344,44.02657752116471,60.3043084808314,3.6621574273414503,0.0028132520875600343,0.2658015604550395
2024-09-04T17:35:35+03:00,,290.15,31.002746294528848,15.99912,17.37780992631787,7.9984908200262925,0.0,5.07384,4.393439999999999,-2.6012283898939375,-171.89879769514957,-21.10203559466822,24.806721,59.472076,11.939648410015971,43.646393354868394,61.02420328118626,3.671497738595713,0.002628721904071241,0.26843028235911076
2024-09-04T17:35:37+03:00,21.2,290.15,31.002746294528848,15.99912,15.721961898389788,9.998113525032863,2.499986747494321,5.07384,4.510079999999999,-1.9996227050065731,-169.4007017083792,-21.199438419840458,24.806743,59.472119,11.939648410015971,43.646393354868394,59.36835525325818,3.671497738595713,0.002670489364143813,0.2711007717232546
2024-09-04T17:35:38+03:00,21.3,290.15,33.99931556306306,15.10488,20.529077799537397,9.998113525032863,0.0,5.0544,4.510079999999999,-2.899166443361966,-170.30024544673458,-20.500429909780856,24.806758,59.47214,11.274562488176285,48.517213230626766,69.04629103016416,3.3480093455413438,0.0013427782252371794,0.2724435499484918
2024-09-04T17:35:39+03:00,21.3,290.15,33.99931556306306,15.10488,19.388891787227056,9.499640243269049,0.0,5.151599999999999,4.510079999999999,-1.7990874767107847,-170.59818350020262,-17.801798694714677,24.806775,59.472163,11.210414191650417,48.889383634480026,68.27827542170708,3.3872535665366947,0.0014767034704739562,0.27392025341896575
2024-09-04T17:35:41+03:00,,290.15,35.99893826806962,15.610319999999998,17.612722622321506,9.900710699860626,0.0,4.996079999999999,4.60728,-1.701684651538545,-170.20284262156233,-15.20057030482074,24.806798,59.472207,11.935245147431488,50.242238743771736,67.85496136609325,3.1952087060032843,0.0027363819392895263,0.2766566353582553
2024-09-04T17:35:43+03:00,,290.15,35.99893826806962,15.610319999999998,18.747179056680537,8.697499330085895,0.0,5.1710400000000005,4.60728,-1.1974817918234204,-171.60085964168155,-13.802553284701533,24.806823,59.472253,11.824115692566465,50.89400244374286,69.6411815004234,3.2616698751558584,0.0028683802870408007,0.2795250156452961
2024-09-04T17:35:49+03:00,,290.15,26.997771306564392,14.79384,19.492024190350605,11.098192491684046,0.0,5.38488,,-1.598552248414997,-169.2001664800834,-15.601640761412316,24.806917,59.472394,10.290346005161577,40.73990490689644,60.23192909724705,4.080015792624296,0.002989239275012218,0.2825142549203083
2024-09-04T17:35:51+03:00,,290.15,33.99931556306306,13.39416,20.597832734953094,10.800254438216017,0.0,5.26824,,-0.6016056848873644,-169.89917499014302,-9.29910501497326,24.80695,59.472439,9.495109201135524,52.07394684851856,72.67177958347165,3.2380918093684286,0.002886409730820166,0.28540066465112846
2024-09-04T17:35:53+03:00,,290.15,33.99931556306306,13.39416,15.429753422873068,8.800631733209444,0.300000701530499,5.07384,,-1.7990874767107847,-170.90185113162195,-10.3017811564522,24.806985,59.472487,9.61581874828575,51.16021131968225,66.58996474255531,3.1820327089165357,0.0030767103158347007,0.28847737496696313
2024-09-04T17:35:55+03:00,,290.15,26.997771306564392,13.608,16.220435180153608,9.40223741809681,0.0,4.89888,4.60728,-1.9996227050065731,-170.7987187284984,-13.298350424986406,24.807015,59.472536,9.506749707208785,40.52608932280165,56.74652450295526,3.723688480848463,0.0030844182122798337,0.29156179317924297
2024-09-04T17:35:56+03:00,19.6,290.15,31.002746294528848,13.7052,16.392322518692854,7.2020794847944485,0.0,4.7628,4.60728,-2.1027551081301215,-173.10200906492432,-13.699420881577984,24.807039,59.47258,9.930588391248017,45.304970133686936,61.69729265237979,3.3498346111216066,0.0027443739034999208,0.2943061670827429
2024-09-04T17:35:57+03:00,19.6,290.15,31.002746294528848,13.7052,16.002711218003892,7.098947081670899,0.9999832398418258,4.91832,4.60728,-1.9996227050065731,-172.70093860833276,-13.401482828109954,24.80705,59.4726,9.82182824041548,45.94989643799542,61.952607655999316,3.4196446826958247,0.0012481865685151723,0.29555435365125804
2024-09-04T17:35:58+03:00,19.6,290.15,33.99931556306306,14.21064,14.301026566465348,8.10162322314984,0.5000202678106694,4.996079999999999,4.60728,-1.9996227050065731,-171.60085964168155,-14.598964619933378,24.80706,59.472623,10.449065767679327,49.506893098202,63.807919664667345,3.244237328643481,0.0014157904511406558,0.2969701441023987
2024-09-04T17:35:59+03:00,19.6,290.15,33.99931556306306,14.21064,13.917144843727696,7.9984908200262925,0.0,4.68504,4.510079999999999,-1.701684651538545,-171.89879769514957,-15.802175989708104,24.807072,59.472647,10.653667888986778,48.23466335585448,62.15180819958218,3.120617735226575,0.0014883839136976044,0.2984585280160963
2024-09-04T17:36:00+03:00,19.6,290.15,31.999692858056477,13.8996,11.682609442717485,7.797955591730505,0.0,4.80168,4.510079999999999,-1.902219879834333,-172.3972709769134,-15.29797312999298,24.80708,59.47267,10.151588262611988,46.515586349207325,58.19819579192481,3.3043107811553867,0.0014038887884472522,0.29986241680454356
2024-09-04T17:36:01+03:00,19.6,290.15,33.00236899953541,14.40504,12.857172922735671,7.700552766558264,0.2000195662801704,4.7628,4.510079999999999,-1.902219879834333,-172.20246532656893,-15.097437901697193,24.807084,59.472679,10.72907108595328,46.99452487432973,59.8516977970654,3.248554634213597,0.000554583508273199,0.30041700031281676
2024-09-04T17:36:02+03:00,19.6,290.15,33.99931556306306,14.30784,17.119978918509,8.697499330085895,2.000023775463165,4.82112,4.510079999999999,-1.902219879834333,-170.59818350020262,-14.902632251352712,24.807102,59.47271,10.657525395404756,48.65183642670999,65.77181534521898,3.1849907618692783,0.0019426939727322948,0.30235969428554904
2024-09-04T17:36:03+03:00,19.6,290.15,33.99931556306306,14.094,18.98782133063548,9.900710699860626,0.5000202678106694,4.68504,4.510079999999999,-1.7990874767107847,-170.00230739326656,-15.097437901697193,24.807115,59.472733,10.540648481314353,48.39057245339171,67.3783937840272,3.111097287231955,0.0014383262583031557,0.3037980205438522
2024-09-04T17:36:04+03:00,19.5,290.15,33.00236899953541,14.094,21.732289169312125,9.998113525032863,0.0,4.548959999999999,4.510079999999999,-1.501149423242757,-170.09971021843882,-13.097815196690618,24.807131,59.472755,10.573425065408161,46.554658215150454,68.28694738446258,3.1281482062522588,0.0014097161403282378,0.30520773668418044
2024-09-04T17:36:05+03:00,19.5,290.15,35.00199170454199,14.094,22.717776576937144,9.998113525032863,0.0,4.393439999999999,4.29624,-1.1000789666511805,-170.00230739326656,-11.201324894807593,24.807147,59.472774,10.793514626592623,48.50419074093011,71.22196731786725,2.910940742930574,0.0012421384720191803,0.30644987515619965
2024-09-04T17:36:06+03:00,19.5,290.15,35.00199170454199,13.802399999999999,21.210897575743076,9.797578296737077,0.0,4.548959999999999,4.19904,-1.3980170201192088,-170.30024544673458,-9.40223741809681,24.807163,59.472795,10.408568570028763,49.52023446219502,70.7311320379381,2.9530914163559916,0.0013534927802080405,0.30780336793640767
2024-09-04T17:36:07+03:00,19.5,290.15,33.99931556306306,13.802399999999999,14.610423775835992,9.29910501497326,0.0,4.19904,4.19904,-1.3980170201192088,-170.9992539567942,-8.800631733209444,24.807175,59.472815,10.584924637617211,46.8157336376656,61.42615741350159,2.87360001781073,0.001256745126358355,0.30906011306276604
2024-09-04T17:36:08+03:00,19.3,290.15,33.99931556306306,13.802399999999999,15.561533715753159,9.29910501497326,0.2000195662801704,4.23792,4.19904,-0.8021409131831525,-170.7987187284984,-9.499640243269049,24.807185,59.472835,10.558355290030974,46.96957529053432,62.53110900628748,2.8918999089154425,0.001240319505898384,0.3103004325686644
2024-09-04T17:36:09+03:00,19.3,290.15,33.00236899953541,13.8996,19.990497472114424,9.797578296737077,0.300000701530499,4.04352,4.19904,-1.3006141949469687,-169.80177216497077,-10.399183981624443,24.807199,59.472854,10.736821722379908,44.839231803516924,64.82972927563135,2.867211874399249,0.0012194164381340625,0.31151984900679847
2024-09-04T17:36:10+03:00,19.0,290.15,31.999692858056477,13.5108,23.210520280749652,12.89727996839483,5.79999446432981,3.9851999999999994,4.19904,-1.9996227050065731,-165.0003858417745,-9.602772646392598,24.807213,59.472872,10.348908887345512,43.77427133438718,66.98479161513683,2.8775971983988615,0.0011633131817138504,0.31268316218851233
2024-09-04T17:36:11+03:00,18.9,290.15,30.0000701530499,13.296959999999999,21.760937059068667,21.30257082296401,13.300012002592286,3.888,4.19904,-0.6990085100596044,-154.60120186015004,-8.19902604832208,24.807226,59.47289,10.118358783466238,41.07697629265161,62.837913351720275,2.9308812842043404,0.001152444679106284,0.31383560686761863
2024-09-04T17:36:12+03:00,18.9,290.15,28.997394011570965,14.094,28.407247482586214,33.798780334767265,15.40001691330578,3.57696,4.19904,-0.09740282517223994,-140.99918380374427,-5.2998596049601145,24.807238,59.472904,11.101696700353669,37.98336083702401,66.39060831961022,2.819322362218841,0.0009178062516916741,0.3147534131193103
2024-09-04T17:36:13+03:00,18.9,290.15,20.99890319154467,14.094,41.619654238303,46.30071942452182,14.399976377684442,3.61584,4.101839999999999,-0.29793805346802804,-129.7978589089367,-1.598552248414997,24.807258,59.472917,10.79633455232833,27.89194873375385,69.51160297205685,3.1957928403450446,0.0009916926703317105,0.31574510578964204
2024-09-04T17:36:14+03:00,18.9,290.15,20.99890319154467,14.094,52.67773968432788,56.60250058097403,10.300004987287297,3.38256,4.101839999999999,1.701684651538545,-119.59921015560805,0.6990085100596044,24.80728,59.472927,11.003055929922905,27.323672654207712,80.0014123385356,3.0051598606139125,0.0009013676344659285,0.31664647342410795
2024-09-04T17:36:17+03:00,18.9,290.15,1.0026761414789407,13.296959999999999,86.40776508367946,72.39894699273083,3.9999902551468165,3.47976,,2.1027551081301215,-105.29818358914271,11.298727719979832,24.80734,59.47293,9.817921660726384,1.3580381756976863,87.76580325937715,3.4787825880241225,0.001840740065217679,0.3184872134893256
2024-09-04T17:36:21+03:00,18.6,290.15,-27.99958801135063,12.49992,94.57241366429368,75.80231629580791,0.9999832398418258,3.71304,,1.501149423242757,-101.99794668918915,13.99735893504601,24.80747,59.472927,9.3847953619677,38.70393682868158,55.8684768356121,2.8976097976091766,0.003973181161806106,0.32246039465113174
2024-09-04T17:36:23+03:00,18.6,290.15,-31.99883342136378,12.402719999999999,91.04872322423913,78.59835033604632,1.7000230739326654,3.86856,,0.8021409131831525,-98.60030696406336,14.301026566465348,24.807535,59.472928,9.349457673459707,44.6643786303506,46.38434459388853,2.7514616319957574,0.0019854536503590443,0.3244458483014908
2024-09-04T17:36:25+03:00,18.6,290.15,-31.99883342136378,12.402719999999999,100.508256421849,81.49751677940831,0.09998113525032865,3.51864,,1.501149423242757,-99.20191264895072,16.39805209664416,24.807595,59.47292,9.601484920362681,43.1963768338824,57.3118795879666,2.5651304814519946,0.0018939473192535943,0.3263397956207444
2024-09-04T17:36:27+03:00,18.6,,-28.996534574878265,12.20832,100.45096064233594,80.39743781275712,0.0,3.96576,,1.0026761414789407,-99.70038593071456,16.99965778153153,24.80766,59.472908,8.948608657768373,41.402083373080444,59.0488772692555,2.974665111134138,0.002111558528002003,0.3284513541487464
2024-09-04T17:36:29+03:00,,290.15,-27.99958801135063,12.49992,101.96929879943261,80.30003498758487,0.09998113525032865,3.6547199999999997,,0.6016056848873644,-98.1992365074718,14.799499848229162,24.807725,59.472902,9.430378067502671,38.48237345464776,63.48692534478485,2.860913467398974,0.0020170484025495822,0.33046840255129595
2024-09-04T17:36:31+03:00,,290.15,-33.00150956284272,12.59712,100.41085359667677,82.59759574605948,1.7000230739326654,3.81024,3.7908,1.1974817918234204,-97.59763082258443,15.097437901697193,24.807793,59.472895,9.627961057087658,45.44920024708799,54.96165334958879,2.6730410008312355,0.0021183460432552584,0.33258674859455123
2024-09-04T17:36:32+03:00,18.5,290.15,-31.99883342136378,12.908159999999999,99.99832398418258,82.79813097435526,0.0,3.9851999999999994,3.7908,1.1000789666511805,-97.70076322570799,17.498131063295343,24.807828,59.472893,9.759682525682468,44.495126442597154,55.50319754158542,2.842683273634876,0.001075342186436382,0.33366209078098763
2024-09-04T17:36:33+03:00,18.5,290.15,-31.99883342136378,12.908159999999999,99.16753518124288,82.40279009571499,0.0,4.0824,3.9074399999999994,1.501149423242757,-98.49717456093981,19.400350943129673,24.807867,59.472891,9.690588232520799,44.89790518352757,54.26962999771531,2.891831908884542,0.0011967804742466816,0.33485887125523434
2024-09-04T17:36:35+03:00,,,-31.99883342136378,12.908159999999999,95.83865039153281,81.30271112906382,0.0,4.49064,3.9074399999999994,1.1000789666511805,-98.39977173576759,19.102412889661643,24.807952,59.47289,9.405819992777749,46.653479581903355,49.185170809629454,3.0824158491224756,0.002595871222616838,0.3374547424778512
2024-09-04T17:36:37+03:00,,,-27.99958801135063,13.296959999999999,97.20801952189548,82.00171963912342,0.9000021045914972,4.52952,3.7908,1.1000789666511805,-96.80121948735258,14.301026566465348,24.808037,59.472882,9.537686322568106,40.88210152999474,56.32591799190074,3.42457967342272,0.00263934921267208,0.34009409169052324
2024-09-04T17:36:39+03:00,18.5,,-33.00150956284272,13.608,98.52009287274505,83.1017986057746,0.300000701530499,4.45176,3.7908,0.8021409131831525,-96.80121948735258,12.501939089754565,24.80812,59.472876,10.167841381762242,46.79762352843744,51.72246934430761,3.0475740233755593,0.002559647472332563,0.3426537391628558
2024-09-04T17:36:41+03:00,18.5,290.15,-35.00113226784929,13.296959999999999,97.74087027136714,83.69767471271066,0.5000202678106694,4.80168,4.00464,0.40107045659157625,-95.99907857416943,12.501939089754565,24.808211,59.47287,9.760363657139852,51.391665685438795,46.34920458592835,2.9962160096769805,0.0028016746144979682,0.3454554137773538
2024-09-04T17:36:42+03:00,18.5,290.15,-33.00150956284272,13.19976,98.64041400972252,84.00134234412998,0.3999818367808277,4.64616,4.00464,0.49847328176381617,-95.79854334587364,13.097815196690618,24.808253,59.472866,9.641261297801524,48.21843532810905,50.42197868161347,3.095701903293821,0.0013046679996998466,0.34676008177705364
2024-09-04T17:36:43+03:00,18.5,290.15,-31.99883342136378,12.59712,99.62017183939624,84.00134234412998,0.5000202678106694,4.60728,4.101839999999999,0.6016056848873644,-95.7011405207014,13.200947599814167,24.808261,59.472865,9.026317052228537,47.69145827491718,51.928713564479054,3.101265081023592,0.00025153918384670403,0.3470116209609003
2024-09-04T17:36:44+03:00,18.5,290.15,-29.002264152829575,12.69432,99.71757466456847,84.20187757242579,0.0,4.510079999999999,4.19904,0.8021409131831525,-95.99907857416943,16.799122553235737,24.808331,59.472859,9.018903658601685,43.033796855569165,56.68377780899931,3.2966487781554066,0.002167420281076102,0.3491790412419764
2024-09-04T17:36:45+03:00,18.5,290.15,-25.99996530634406,12.69432,101.13850999649291,84.20187757242579,0.0,4.00464,4.19904,1.1000789666511805,-95.59800811757786,18.099736748182707,24.808369,59.472857,9.26284837434242,36.92487356368869,64.21363643280422,3.2014050284479754,0.0011664086173133969,0.3503454498592898
2024-09-04T17:36:46+03:00,18.5,290.15,-25.99996530634406,12.69432,102.94905662910631,85.19882413595342,0.3999818367808277,4.35456,4.19904,0.6990085100596044,-94.60106155405022,18.099736748182707,24.808414,59.472853,8.985573380596394,38.26544986583758,64.68360676326873,3.4189826229341493,0.0013947963868072247,0.351740246246097
2024-09-04T17:36:50+03:00,18.5,290.15,-33.99845612637036,12.402719999999999,106.95976119502208,86.9979116126642,0.0,5.3654399999999995,4.29624,1.1974817918234204,-93.1973149559797,16.30064927147192,24.808594,59.472821,8.501473573311415,54.663439046021324,52.29632214900076,3.103254020146023,0.0015714257597491752,0.3533116720058462
2024-09-04T17:36:52+03:00,,290.15,-33.99845612637036,12.402719999999999,106.10032450232583,86.00096504913657,0.0,5.46264,4.393439999999999,1.0026761414789407,-93.79892064086707,17.60126346641889,24.808695,59.472807,8.445627435846324,55.20137477421537,50.898949728110466,3.117495132462173,0.003196443926263848,0.35650811593211
2024-09-04T17:37:06+03:00,,290.15,-27.002641447823002,13.9968,101.63125370030542,86.40203550572814,0.300000701530499,5.01552,4.704479999999999,0.6990085100596044,-93.30044735910326,15.29797312999298,24.809345,59.472721,9.796391242457043,40.444198264356686,61.187055435948736,3.817001901179372,0.0028409364756780625,0.3593490524077881
2024-09-04T17:37:08+03:00,,290.15,-29.999210716357208,13.7052,100.89213814458665,86.69997355919618,0.300000701530499,5.443199999999999,,0.6990085100596044,-92.29777121762432,16.39805209664416,24.809446,59.472711,9.394076051542664,46.83966093990975,54.052477204676904,3.7233792633786886,0.0031417299264896734,0.3624907823342778
2024-09-04T17:37:09+03:00,17.8,290.15,-24.997289164865123,13.7052,102.90894958344717,87.39898206925578,0.600001403060998,5.28768,4.80168,0.8021409131831525,-91.59876270756472,16.501184499767707,24.809497,59.472705,9.18864805118433,39.07125747650457,63.8376921069426,4.10515746325395,0.0015983329922685896,0.36408911532654636
2024-09-04T17:37:10+03:00,17.8,290.15,-24.997289164865123,13.7052,103.39023413135705,88.0979905793154,0.9000021045914972,5.07384,4.80168,0.8021409131831525,-91.1002894258009,17.29759583499955,24.80954,59.4727,9.355636345246657,38.245806621872276,65.14442750948477,3.984802343657898,0.0013468209018044036,0.36543593622835074
2024-09-04T17:37:20+03:00,17.2,,-29.002264152829575,14.79384,104.46166520825169,83.69767471271066,0.0,5.346,,0.8021409131831525,-96.19961380246522,18.90187766136586,24.810022,59.472627,10.444942862317106,43.370694656133736,61.09097055211795,3.8861464164353374,0.003075241123053514,0.36851117735140426
2024-09-04T17:37:22+03:00,,,-29.002264152829575,14.79384,102.19848191748495,84.00134234412998,0.0,5.7348,4.80168,0.8021409131831525,-97.70076322570799,17.60126346641889,24.810131,59.472609,10.165820816338599,44.87568397424997,57.32279794323499,4.063904898997424,0.003499413153562331,0.3720105905049666
