time,dpt,mtw,awa,aws,cog,hdg,rot,sog,stw,pitch,yaw,roll,lng,lat,tws,twa,twd,vmg,dist,cum_dist
2026-06-03T18:22:15+03:00,27.48,287.04,-24.997289164865123,10.5948,104.99451595772337,91.30082465409667,-0.2000195662801704,3.9463199999999996,0.0,-0.29793805346802804,-88.8027286673263,7.9984908200262925,24.783957,59.475083,7.213545972531829,38.363761734196686,66.63075422352668,3.094254903882007,0.0010952479031498315,0.0010952479031498315
2026-06-03T18:22:16+03:00,27.48,287.02,-25.99996530634406,10.90584,105.9971920992023,91.30082465409667,0.09998113525032865,3.9463199999999996,0.0,-0.29793805346802804,-88.6021934390305,7.700552766558264,24.78399,59.47508,7.559516267383146,39.22899378758814,66.76819831161416,3.056916390654754,0.0010234836821183262,0.0021187315852681577
2026-06-03T18:22:17+03:00,27.48,287.03,-25.99996530634406,10.692,105.24088780962961,91.19769225097312,-0.09998113525032865,3.86856,0.0,-0.29793805346802804,-88.90013149249853,7.700552766558264,24.783974,59.475042,7.41158573079464,39.22713022441843,66.01375758521118,2.9967611584733445,0.002335741195745253,0.004454472781013411
2026-06-03T18:22:18+03:00,27.48,287.02,-25.99996530634406,10.90584,107.99681480420887,91.19769225097312,0.09998113525032865,3.92688,0.0,-0.20053522829578813,-88.8027286673263,7.700552766558264,24.784052,59.475073,7.5745849462072234,39.13599724953377,68.8608175546751,3.0458845462546185,0.0030236787257604267,0.007478151506773838
2026-06-03T18:22:19+03:00,27.48,287.01,-25.99996530634406,10.692,105.9971920992023,91.19769225097312,0.5000202678106694,3.81024,0.0,-0.3609634109324186,-88.69959626420275,6.789549872300254,24.784083,59.475069,7.456854242182161,38.94374611081719,67.0534459883851,2.9634654586138454,0.0009764771233804554,0.008454628630154294
2026-06-03T18:22:20+03:00,27.48,287.01,-27.002641447823002,10.5948,107.83065704362093,91.39822747926891,0.5000202678106694,3.9463199999999996,0.0,-0.20053522829578813,-88.69959626420275,7.500017538262475,24.784115,59.475066,7.30192945134632,41.20698524083764,66.62367180278329,2.968953074256758,0.0009934467228565277,0.009448075353010822
2026-06-03T18:22:21+03:00,27.48,287.01,-25.99996530634406,10.4976,105.9971920992023,91.39822747926891,0.09998113525032865,3.6935999999999996,0.0,-0.3380450991271857,-88.8027286673263,6.766631560495022,24.784104,59.475024,7.3581724381295235,38.71193356111408,67.28525853808821,2.882116689122668,0.0025467626836178097,0.011994838036628631
2026-06-03T18:22:22+03:00,27.6,287.0,-25.99996530634406,10.4976,109.1312712385679,91.30082465409667,0.2000195662801704,3.86856,0.0,-0.31512678732195276,-88.69959626420275,6.846845651813337,24.784178,59.47506,7.22248003452253,39.580000365704905,69.551270872863,2.981637279124077,0.0031283037937861755,0.015123141830414806
2026-06-03T18:22:23+03:00,27.63,287.0,-25.99996530634406,10.4004,105.9971920992023,91.19769225097312,0.300000701530499,3.7519199999999997,0.0,-0.34377467707849396,-88.69959626420275,6.801009028202872,24.784208,59.475057,7.218079766634373,39.17124018898221,66.82595191022008,2.9087196535431756,0.0009334680213168862,0.01605660985173169
2026-06-03T18:22:24+03:00,27.56,286.99,-25.99996530634406,10.4004,107.5384485681042,91.79929793586051,0.9999832398418258,3.7519199999999997,0.0,-0.29220847551671986,-87.80005252584735,6.508800552686152,24.784237,59.475055,7.218079766634373,39.17124018898221,68.36720837912199,2.9087196535431756,0.000893480247425012,0.016950090099156705
2026-06-03T18:22:25+03:00,27.48,286.99,-27.002641447823002,10.4004,105.9971920992023,92.60143884904365,0.300000701530499,3.6935999999999996,0.0,-0.27501974166279514,-87.30157924408354,6.508800552686152,24.784266,59.475053,7.304568782581759,40.27521400678208,65.72197809242022,2.818024946161238,0.0008934802991696545,0.017843570398326358
2026-06-03T18:22:26+03:00,27.48,287.0,-27.002641447823002,10.4004,106.99986824068124,96.86424484481698,-0.2000195662801704,3.6935999999999996,0.0,-0.29220847551671986,-87.89745535101959,6.566096332199234,24.784295,59.47505,7.304568782581759,40.27521400678208,66.72465423389916,2.818024946161238,0.0009035329817443351,0.01874710338007069
2026-06-03T18:22:27+03:00,27.48,286.98,-27.002641447823002,10.4004,105.9971920992023,96.41160818666363,-0.2000195662801704,3.61584,0.0,-0.26929016371148695,-88.69959626420275,6.371290681854754,24.784281,59.475003,7.364067198099961,39.88409760239395,66.11309449680834,2.7745900775329595,0.002857212187957067,0.02160431556802776
2026-06-03T18:22:28+03:00,27.41,286.99,-25.99996530634406,10.4004,107.49834152244506,96.29128704968616,0.0,3.6547199999999997,0.0,-0.31512678732195276,-88.90013149249853,6.543178020394001,24.784351,59.475045,7.293693603891473,38.68894125868724,68.80940026375782,2.852695613094457,0.003307609747571525,0.024911925315599284
2026-06-03T18:22:29+03:00,27.33,286.99,-27.99958801135063,10.4004,103.99756939419571,96.2683687378809,0.09998113525032865,3.6547199999999997,0.0,-0.26929016371148695,-88.8027286673263,6.503070974734843,24.78434,59.474991,7.375797906480023,41.45100564932207,62.54656374487364,2.739293269468754,0.0032631433356252316,0.028175068651224516
2026-06-03T18:22:30+03:00,27.33,286.99,-27.002641447823002,10.4004,102.99489325271679,96.15950675680607,0.09998113525032865,3.6547199999999997,0.0,-0.23491269600363757,-88.69959626420275,5.580608924574218,24.784411,59.475037,7.33427527056354,40.078862585070596,62.9160306676462,2.7964418176281725,0.0035133258514127947,0.03168839450263731
2026-06-03T18:22:31+03:00,27.48,286.99,-27.002641447823002,9.992159999999998,103.99756939419571,96.1136701331956,0.2000195662801704,3.5964,0.0,-0.22345354010102106,-88.6021934390305,4.520637003582196,24.784441,59.475034,6.981460214363486,40.52871959117937,63.46884980301634,2.733552910774526,0.0009334686332091199,0.032621863135846425
2026-06-03T18:22:32+03:00,27.48,286.99,-24.997289164865123,9.79776,106.99986824068124,95.6266560073344,-0.2000195662801704,3.47976,0.0,-0.18334649444186346,-88.90013149249853,3.85600596123044,24.784473,59.475028,6.804734952095921,37.47699413280526,69.52287410787598,2.761529571416169,0.0010413874244882175,0.033663250560334645
2026-06-03T18:22:33+03:00,27.48,286.98,-22.99766645985855,9.992159999999998,105.9971920992023,94.96775454293396,-0.3999818367808277,3.61584,0.0,-0.22918311805232927,-89.30120194909011,3.953408786402681,24.784503,59.475023,6.81180111283525,34.966991514504116,71.03020058469818,2.9631170589458145,0.0009639352606665054,0.034627185821001154
2026-06-03T18:22:34+03:00,27.48,286.97,-22.99766645985855,9.79776,103.99756939419571,95.15110103737581,0.300000701530499,3.46032,0.0,-0.21772396214971285,-89.19806954596656,4.199780638308934,24.784533,59.475018,6.749250021264778,34.55260445064923,69.44496494354648,2.849939663255231,0.0009639353896083698,0.035591121210609526
2026-06-03T18:22:35+03:00,27.48,286.98,-22.99766645985855,10.1088,103.52201442423714,95.03650947834966,-0.2000195662801704,3.46032,0.0,-0.22345354010102106,-89.30120194909011,4.692524342121443,24.784563,59.475013,7.054261341632806,34.046558373677414,69.47545605055973,2.8671619821347525,0.0009639355182579079,0.036555056728867434
2026-06-03T18:22:36+03:00,27.37,286.97,-22.99766645985855,9.89496,104.99451595772337,94.40625590370574,-0.300000701530499,3.36312,0.0,-0.22345354010102106,-89.90280763397747,4.89305957041723,24.784593,59.47501,6.924936373989212,33.93538021915256,71.0591357385708,2.7902720975571325,0.0009334692716058114,0.03748852600047325
2026-06-03T18:22:37+03:00,27.33,286.97,-24.000342601337486,9.70056,106.99986824068124,94.77867847054077,0.5000202678106694,3.36312,0.0,-0.20626480624709637,-89.50173717738589,4.761279277537141,24.784621,59.475005,6.767888585210663,35.66127385039616,71.33859439028508,2.732460191365867,0.0009061201968887399,0.038394646197361985
2026-06-03T18:22:38+03:00,27.33,286.96,-24.000342601337486,9.992159999999998,104.99451595772337,90.29814851261774,-0.09998113525032865,3.36312,0.0,-0.6016056848873644,-89.90280763397747,5.901465289847479,24.784648,59.475002,7.053716447574102,35.18252746959382,69.81198848812954,2.7487474083083487,0.000843791442672772,0.039238437640034755
2026-06-03T18:22:39+03:00,27.33,286.95,-24.000342601337486,10.1088,105.9971920992023,89.90280763397747,0.09998113525032865,3.38256,0.0,0.09740282517223994,-90.2007456874455,5.998868115019719,24.784678,59.474998,7.152262497775229,35.09105207008719,70.90614002911511,2.7677442251059188,0.0009469192232861288,0.040185356863320885
2026-06-03T18:22:40+03:00,27.33,286.95,-24.997289164865123,9.89496,102.1010790923127,90.09761328432195,0.3999818367808277,3.2464799999999996,0.0,-0.40107045659157625,-89.70227240568168,6.102000518143266,24.784708,59.474995,7.086642337717168,36.159486754283336,65.94159233802937,2.62113562517124,0.0009334696705084009,0.041118826533829284
2026-06-03T18:22:41+03:00,27.41,286.94,-24.997289164865123,9.70056,102.99489325271679,90.4012809157413,0.6999825383113268,3.28536,0.0,-0.09740282517223994,-89.30120194909011,6.302535746439056,24.784739,59.474992,6.864796191083385,36.665062327788945,66.32983092492785,2.6353183861367415,0.0009634423277490801,0.04208226886157836
2026-06-03T18:22:42+03:00,27.33,286.95,-24.997289164865123,9.992159999999998,103.99756939419571,90.8997541975051,0.600001403060998,3.3242399999999996,0.0,-0.29793805346802804,-88.99753431767077,6.399938571611295,24.784739,59.474934,7.1192733666965005,36.3773014686939,67.6202679255018,2.6764414467153053,0.003486247551861152,0.045568516413439515
2026-06-03T18:22:43+03:00,27.33,286.94,-25.99996530634406,10.1088,106.99986824068124,91.59876270756472,1.4000223724021665,3.26592,0.0,-0.29793805346802804,-87.80005252584735,6.399938571611295,24.784765,59.47493,7.314883702497175,37.28686641467428,69.71300182600696,2.5984063423704113,0.0008293843212121276,0.046397900734651644
2026-06-03T18:22:44+03:00,27.33,286.94,-25.99996530634406,9.89496,108.99949094568781,92.60143884904365,0.789936912146866,3.2464799999999996,0.0,-0.29793805346802804,-87.10104401578775,7.098947081670899,24.784791,59.474927,7.120709712579188,37.52887191407845,71.47061903160936,2.5746095319408555,0.0008139950367935655,0.04721189577144521
2026-06-03T18:22:45+03:00,27.33,286.94,-25.99996530634406,10.1088,109.99643750921543,93.3978501842755,1.200002806121996,3.26592,0.0,-0.29793805346802804,-86.29890310260458,7.597420363434716,24.784855,59.474971,7.314883702497175,37.28686641467428,72.70957109454115,2.5984063423704113,0.003288214368464613,0.05050011013990982
2026-06-03T18:22:46+03:00,27.33,286.94,-27.002641447823002,9.89496,108.99949094568781,93.90205304399062,-0.08204755626273388,3.28536,0.0,-0.09740282517223994,-86.0983678743088,7.500017538262475,24.784846,59.474918,7.125630013974763,39.08613621003158,69.91335473565623,2.550093107884363,0.0031975362854653275,0.053697646425375146
2026-06-03T18:22:47+03:00,27.33,286.93,-27.002641447823002,10.1088,109.99643750921543,93.3978501842755,-0.31736132272296297,3.26592,0.0,-0.29793805346802804,-86.7973763843684,7.797955591730505,24.784914,59.474961,7.350042581262619,38.6416337773984,71.35480373181703,2.550902095643691,0.003315140544102343,0.05701278696947749
2026-06-03T18:22:48+03:00,27.33,286.93,-27.002641447823002,10.206,109.99643750921543,93.1973149559797,0.13051978573080153,3.3242399999999996,0.0,-0.09740282517223994,-86.69997355919618,7.597420363434716,24.784905,59.47491,7.399711238911938,38.77177936650216,71.22465814271327,2.5917320801264307,0.0030777828584977597,0.06009056982797525
2026-06-03T18:22:49+03:00,27.33,286.92,-27.99958801135063,9.992159999999998,108.99949094568781,93.09991213080748,-0.6454942519943855,3.36312,0.0,-0.20053522829578813,-87.10104401578775,7.098947081670899,24.784976,59.474947,7.197985666857419,40.67036217555855,68.32912877012926,2.5508308414670338,0.003105578521884582,0.06319614834985983
2026-06-03T18:22:50+03:00,27.33,286.93,-27.99958801135063,10.1088,109.99643750921543,92.40090362074787,-0.7051964542470173,3.26592,0.0,-0.09740282517223994,-87.89745535101959,6.89841185337511,24.785006,59.474941,7.3860439141939525,39.980483483853334,70.01595402536209,2.502554799339618,0.0009843360946948801,0.06418048444455471
2026-06-03T18:22:51+03:00,27.33,286.92,-27.99958801135063,9.89496,106.6217160958949,91.79929793586051,-0.2000195662801704,3.2076,0.0,-0.29793805346802804,-88.20112298243895,6.697876625079324,24.785035,59.474935,7.2215538104327965,40.03537036941589,66.58634572647901,2.4558908744389565,0.0009559949950756493,0.06513647943963036
2026-06-03T18:22:52+03:00,27.33,286.92,-27.99958801135063,9.992159999999998,103.99756939419571,91.50135988239246,-0.5000202678106694,3.26592,0.0,-0.20053522829578813,-88.8027286673263,6.302535746439056,24.785022,59.474891,7.271985007767926,40.17125566519968,63.82631372899603,2.4955539668486617,0.002674353221509355,0.06781083266113971
2026-06-03T18:22:53+03:00,27.33,286.91,-27.002641447823002,10.206,105.9971920992023,91.30082465409667,0.09998113525032865,3.28536,0.0,-0.09740282517223994,-88.6021934390305,6.302535746439056,24.78505,59.474887,7.430063786730618,38.584027625470924,67.41316447373137,2.5681473868144797,0.0008879991551023551,0.06869883181624208
2026-06-03T18:22:54+03:00,27.33,286.9,-25.99996530634406,10.303199999999999,105.9971920992023,91.19769225097312,0.0,3.3047999999999997,0.0,-0.09740282517223994,-88.90013149249853,6.89841185337511,24.785077,59.474883,7.47460454067549,37.17575947745348,68.82143262174881,2.6332171786680156,0.0008586497123339926,0.06955748152857606
2026-06-03T18:22:55+03:00,27.26,286.89,-24.997289164865123,10.303199999999999,106.99986824068124,90.49868374091353,-0.8000209693411684,3.3047999999999997,0.0,-0.40107045659157625,-89.90280763397747,7.500017538262475,24.785109,59.474877,7.440207223393099,35.81588007862871,71.18398816205253,2.679867809836553,0.0010413915208758427,0.07059887304945191
2026-06-03T18:22:57+03:00,27.18,286.89,-24.997289164865123,10.4004,105.91124842993268,90.09761328432195,0.09998113525032865,3.402,0.0,-0.20053522829578813,-89.90280763397747,7.500017538262475,24.785135,59.474872,7.456960075316494,36.112736839303665,69.79851159062902,2.7483359291953953,0.0008487620018194511,0.07144763505127136
2026-06-03T18:22:58+03:00,27.18,286.9,-25.99996530634406,10.4004,103.99756939419571,90.0002104591497,0.09998113525032865,3.2464799999999996,0.0,-0.246371851906254,-90.09761328432195,6.428586461367836,24.785214,59.474908,7.616621880259058,36.76894215692721,67.2286272372685,2.6006121562523696,0.003240271108883756,0.07468790616015511
2026-06-03T18:22:59+03:00,27.18,286.89,-25.99996530634406,10.4004,105.9971920992023,89.50173717738589,-0.600001403060998,3.3047999999999997,0.0,-0.29793805346802804,-90.69921896920931,7.098947081670899,24.785243,59.474905,7.569984791904836,37.033168277883874,68.96402382131842,2.638178838420023,0.0009035367052860235,0.07559144286544113
2026-06-03T18:23:00+03:00,27.18,286.89,-27.002641447823002,10.4004,106.61025693999227,89.10066672079432,-0.600001403060998,3.28536,0.0,-0.246371851906254,-91.1002894258009,6.262428700779898,24.785224,59.474858,7.620605841903456,38.290595423391835,68.31966151660043,2.578607085058896,0.002883999499953792,0.07847544236539492
2026-06-03T18:23:01+03:00,27.18,286.88,-27.002641447823002,9.992159999999998,103.99756939419571,89.10066672079432,0.300000701530499,3.2076,0.0,-0.24064227395494575,-90.80235137233286,5.970220225263178,24.785256,59.474854,7.281364137894559,38.54023378787929,65.45733560631642,2.5088911435452297,0.0010061008422240234,0.07948154320761894
2026-06-03T18:23:02+03:00,27.18,286.88,-27.99958801135063,10.1088,105.41850472612018,93.42649807403203,-0.2000195662801704,3.12984,0.0,-0.21772396214971285,-91.1002894258009,5.838439932383089,24.785282,59.47485,7.490827331205465,39.31169598716485,66.10680873895532,2.421591321250422,0.0008293861200656967,0.08031092932768463
2026-06-03T18:23:03+03:00,27.18,286.88,-29.002264152829575,10.303199999999999,107.29780629414927,92.95667268202477,-0.2000195662801704,3.18816,0.0,-0.2119943841984046,-91.39822747926891,5.47747652145067,24.785312,59.474847,7.6721639261742975,40.62557888158537,66.6722274125639,2.4197519175547826,0.0009334736075273416,0.08124440293521197
2026-06-03T18:23:04+03:00,27.18,286.88,-27.99958801135063,9.89496,100.9952705477102,88.69959626420275,0.0,3.09096,0.0,-0.20053522829578813,-91.39822747926891,5.225375091593108,24.785342,59.474843,7.31124393143372,39.447375818143655,61.54789472956655,2.386865503489595,0.0009469232874057678,0.08219132622261774
2026-06-03T18:23:05+03:00,27.18,286.88,-29.002264152829575,10.1088,104.99451595772337,88.40165821073471,-0.2000195662801704,3.12984,0.0,-0.18334649444186346,-91.79929793586051,4.961814505832929,24.785373,59.47484,7.526014269010685,40.634669730446234,64.35984622727713,2.3751647923560966,0.0009634465105582356,0.08315477273317598
2026-06-03T18:23:06+03:00,27.18,286.88,-27.99958801135063,9.89496,103.99756939419571,88.00058775414314,0.09998113525032865,3.1104000000000003,0.0,-0.16615776058793874,-92.09723598932852,4.789927167293682,24.785401,59.474837,7.296242653512473,39.544370074604785,64.45319931959092,2.398528259323703,0.0008736441616204458,0.08402841689479643
2026-06-03T18:23:07+03:00,27.18,286.88,-27.002641447823002,9.70056,102.99489325271679,87.80005252584735,-0.2000195662801704,3.0326400000000002,0.0,-0.17188733853924698,-92.40090362074787,4.749820121634524,24.785431,59.474835,7.132685015566274,38.13306031052994,64.86183294218685,2.3854104967801346,0.0009237472103894577,0.08495216410518588
2026-06-03T18:23:08+03:00,27.18,286.88,-25.99996530634406,9.992159999999998,104.99451595772337,87.70264970067511,0.300000701530499,3.12984,0.0,-0.1546986046853223,-92.09723598932852,4.789927167293682,24.785458,59.474832,7.309009594320857,36.81958197698816,68.1749339807352,2.5055201609383597,0.0008437954946571138,0.085795959599843
2026-06-03T18:23:09+03:00,27.18,286.88,-25.99996530634406,9.79776,105.06900047109036,88.29852580761116,0.3999818367808277,2.97432,0.0,-0.1604281826366305,-91.50135988239246,4.927437038125079,24.785485,59.474829,7.242785354093939,36.370956252895155,68.69804421819521,2.3949061150979127,0.0008437955662591969,0.0866397551661022
2026-06-03T18:23:10+03:00,27.18,286.87,-25.99996530634406,9.992159999999998,102.99489325271679,88.40165821073471,0.2000195662801704,2.99376,0.0,-0.1432394487827058,-91.50135988239246,4.663876452364901,24.785513,59.474826,7.418393530432769,36.18970159398313,66.80519165873366,2.4161632709677727,0.0008736444340560962,0.08751339960015829
2026-06-03T18:23:11+03:00,27.18,286.87,-24.997289164865123,9.89496,102.99489325271679,88.00058775414314,-0.09998113525032865,3.07152,0.0,-0.12032113697747288,-92.20036839245208,4.824304635001531,24.785539,59.474824,7.228638315530677,35.34121531928298,67.65367793343381,2.5055055193878903,0.0008028244470609301,0.08831622404721921
2026-06-03T18:23:12+03:00,27.18,286.87,-24.000342601337486,9.60336,99.99832398418258,86.69997355919618,-0.8000209693411684,2.5855200000000003,0.0,-0.17188733853924698,-93.70151781569484,5.700930061551691,24.785589,59.47482,7.317340785568834,32.263440634594815,67.73488334958776,2.186322489595759,0.0015453050524320288,0.08986152909965124
2026-06-03T18:23:12+03:00,27.18,286.87,-24.000342601337486,9.70056,96.99602513769707,87.39898206925578,-0.300000701530499,2.6827199999999998,0.0,-0.14896902673401402,-92.80197407733944,5.271211715203573,24.785565,59.474822,7.331437186268942,32.559767501286586,64.43625763641049,2.261078261782487,0.0007425098035424354,0.09060403890319367
2026-06-03T18:23:14+03:00,27.18,286.86,-24.000342601337486,9.89496,102.43912419143989,86.40203550572814,0.2000195662801704,2.99376,0.0,-0.1546986046853223,-93.50098258739904,5.397262430132355,24.785611,59.474818,7.262837928126292,33.65214360423417,68.78698058720572,2.492057516083727,0.0014248000753792635,0.09202883897857293
2026-06-03T18:23:15+03:00,27.18,286.86,-24.000342601337486,9.70056,102.70841435515138,86.90050878749194,0.5000202678106694,2.916,0.0,-0.16615776058793874,-92.89937690251168,5.219645513641799,24.785666,59.474861,7.135926175584377,33.56785683294066,69.14055752221071,2.4297032422262967,0.003082176682717518,0.09511101566129045
2026-06-03T18:23:16+03:00,27.18,286.84,-24.997289164865123,9.992159999999998,101.99794668918915,86.9979116126642,0.0,3.12984,0.0,-0.14896902673401402,-92.89937690251168,5.219645513641799,24.785694,59.474857,7.276703915275598,35.46941767227668,66.52852901691247,2.5490210678723035,0.0008879998859353472,0.0959990155472258
2026-06-03T18:23:17+03:00,27.18,286.85,-24.997289164865123,9.70056,99.99832398418258,86.90050878749194,-0.09998113525032865,2.95488,0.0,-0.13178029288008933,-93.1973149559797,5.179538467982642,24.785688,59.474809,7.132617883811391,35.079630290729796,64.91869369345278,2.4181381355803797,0.0028909794980501837,0.09888999504527599
2026-06-03T18:23:18+03:00,27.18,286.85,-24.000342601337486,9.60336,100.9952705477102,86.9979116126642,0.0,2.8771199999999997,0.0,-0.1546986046853223,-93.00250930563523,5.179538467982642,24.785745,59.474848,7.072476246206728,33.52457913390748,67.47069141380273,2.39850812933009,0.0029195125848537067,0.10180950763012969
2026-06-03T18:23:19+03:00,27.18,286.85,-24.997289164865123,9.89496,95.60946727348046,86.29890310260458,-0.8000209693411684,2.8771199999999997,0.0,-0.16615776058793874,-93.99945586916286,5.4087215860349716,24.785771,59.474845,7.388070429694612,34.46911514125526,61.1403521322252,2.3719880289853172,0.0008139969157640539,0.10262350454589375
2026-06-03T18:23:20+03:00,27.18,286.85,-25.99996530634406,9.70056,99.99832398418258,85.50249176737275,-0.8000209693411684,2.76048,0.0,-0.13178029288008933,-95.00213201064179,4.692524342121443,24.78577,59.474799,7.320172341369332,35.51533250922182,64.48299147496076,2.2469205533552947,0.0027651234996318628,0.10538862804552561
2026-06-03T18:23:21+03:00,27.18,286.85,-27.002641447823002,9.89496,95.99907857416943,84.49981562589382,0.1170552775452272,2.6632800000000003,0.0,-0.08021409131831525,-95.7011405207014,3.2601298542943837,24.785825,59.474841,7.618590396894565,36.135177716737815,59.86390085743162,2.150939458623809,0.003031949317427926,0.10842057736295353
2026-06-03T18:23:22+03:00,27.18,286.84,-24.000342601337486,10.1088,98.99564784270365,88.07507226751014,-1.0730926545005188,2.76048,0.0,-0.05729577951308232,-96.19961380246522,2.8017636181897254,24.785819,59.474793,7.669615036879704,32.41848818647833,66.57715965622532,2.330272942239552,0.0028909795035470596,0.11131155686650059
2026-06-03T18:23:23+03:00,27.18,286.85,-22.000719896330917,9.89496,96.3199349394427,83.3023338340704,-0.5000202678106694,2.7993599999999996,0.0,-0.08021409131831525,-96.89862231252482,3.1741861850247606,24.785878,59.47484,7.374398266860252,30.1762980357054,66.1436369037373,2.4199986156243267,0.0033504471224227186,0.1146620039889233
2026-06-03T18:23:24+03:00,27.18,286.84,-20.998043754851974,9.79776,97.99870127917599,86.83175385207626,-0.15996981640052585,2.6827199999999998,0.0,-0.08594366926962349,-97.00175471564837,3.9190313186948313,24.785905,59.474838,7.356274944193481,28.50691155339186,69.49178972578413,2.3574658116883302,0.0008330221653704679,0.11549502615429377
2026-06-03T18:23:25+03:00,27.18,286.84,-20.998043754851974,9.70056,96.99602513769707,86.96926372290766,0.04778468011391066,2.64384,0.0,-0.08594366926962349,-96.80121948735258,4.297183463481174,24.785934,59.474838,7.294076988738992,28.460927785344182,68.53509735235289,2.32431158203406,0.000885361687902364,0.11638038784219613
2026-06-03T18:23:26+03:00,27.18,286.84,-22.000719896330917,9.60336,99.00137742065495,83.3023338340704,0.525516889693991,2.50776,0.0,-0.20053522829578813,-96.6006842590568,5.202456779787875,24.785961,59.474837,7.338597766691553,29.355637826883623,69.64573959377132,2.1857476666944105,0.0008264908803379458,0.11720687872253407
2026-06-03T18:23:27+03:00,27.18,286.84,-22.000719896330917,9.50616,96.72100539603427,83.49713948441487,0.5499248917665641,2.5855200000000003,0.0,-0.49847328176381617,-96.40014903076101,5.2998596049601145,24.785987,59.474837,7.174600563503057,29.759435563865765,66.96156983216851,2.2445340855084583,0.0007937725711999485,0.11800065129373402
2026-06-03T18:23:28+03:00,27.18,286.82,-22.000719896330917,9.50616,91.99983316415629,87.85734830536043,0.43447389604770326,2.7993599999999996,0.0,-0.29793805346802804,-96.19961380246522,5.397262430132355,24.785968,59.474783,6.98976834618639,30.629520806739208,61.37031235741708,2.408792275714198,0.0032972414847622527,0.12129789277849627
2026-06-03T18:23:29+03:00,27.18,286.83,-22.99766645985855,9.408959999999999,94.99640243269049,83.89820994100646,0.028819777095080407,2.8771199999999997,0.0,-0.09740282517223994,-95.90167574899719,5.202456779787875,24.786039,59.474831,6.853324147972877,32.43789286704296,62.558509565647526,2.428212659389268,0.003608704530178614,0.12490659730867489
2026-06-03T18:23:30+03:00,27.18,286.83,-22.99766645985855,9.408959999999999,96.23972084812438,84.20187757242579,-0.12209730614237845,2.5855200000000003,0.0,0.0,-95.7011405207014,5.202456779787875,24.786064,59.474827,7.101149533109499,31.175794211338626,65.06392663678575,2.2121270488062446,0.0008002168057816755,0.12570681411445656
2026-06-03T18:23:31+03:00,27.18,286.83,-22.99766645985855,9.408959999999999,89.9944808811984,84.09874516930223,0.18919066395219783,2.37168,0.0,-0.09740282517223994,-95.90167574899719,5.202456779787875,24.786039,59.474781,7.28494850439838,30.305129164461817,59.68935171673658,2.047590832622333,0.002868364812310914,0.12857517892676748
2026-06-03T18:23:32+03:00,27.18,286.82,-22.99766645985855,9.408959999999999,95.99907857416943,83.89820994100646,-0.20494700331829546,2.1384000000000003,0.0,-0.40107045659157625,-96.19961380246522,5.500394833255903,24.786112,59.474822,7.487276284474259,29.40429334160507,66.59478523256436,1.8629249477140237,0.0033226983977784497,0.13189787732454594
2026-06-03T18:23:33+03:00,27.18,286.82,-22.99766645985855,9.408959999999999,96.58922510315419,83.89820994100646,-0.2437935418281653,2.4299999999999997,0.0,0.0,-96.30274620558878,5.397262430132355,24.786079,59.474781,7.234657763962133,30.538192967594227,66.05103213555996,2.092936273419341,0.002662398785340309,0.13456027610988625
2026-06-03T18:23:34+03:00,27.18,286.82,-22.000719896330917,9.408959999999999,98.99564784270365,83.39973665924262,-0.1205503200955252,2.7993599999999996,0.0,-0.6990085100596044,-96.89862231252482,5.397262430132355,24.786157,59.474816,6.893683969193734,30.750726422996934,68.24492141970671,2.405769785292368,0.00317750460325333,0.13773778071313958
2026-06-03T18:23:35+03:00,27.18,286.82,-22.99766645985855,9.408959999999999,99.99832398418258,82.79813097435526,-0.5753642178703727,2.50776,0.0,-0.09167324722093173,-97.40282517223994,4.5263665815335035,24.786181,59.474812,7.16779270131464,30.85402459404517,69.1442993901374,2.152853545089279,0.0007711525670826329,0.1385089332802222
2026-06-03T18:23:36+03:00,27.18,286.82,-22.99766645985855,9.50616,98.99564784270365,82.79813097435526,0.09998113525032865,2.44944,0.0,-0.09167324722093173,-97.09915754082061,4.194051060357626,24.786206,59.474807,7.314274282364856,30.51565154179096,68.47999630091269,2.110169250062329,0.0008202829063052723,0.13932921618652747
2026-06-03T18:23:37+03:00,27.18,286.81,-22.99766645985855,9.195120000000001,95.99907857416943,83.19920143094684,0.535199876431702,2.37168,0.0,-0.07448451336700701,-96.49755185593325,4.262805995773324,24.786173,59.474773,7.072897635519846,30.52546301292344,65.47361556124599,2.042973496769245,0.002278502964835929,0.1416077191513634
2026-06-03T18:23:38+03:00,27.18,286.81,-22.99766645985855,9.29232,93.99945586916286,84.00134234412998,1.1000216708716675,2.2550399999999997,0.0,-0.06875493541569878,-95.59800811757786,4.004974987964455,24.786256,59.4748,7.270090334509685,29.95819451677383,64.04126135238903,1.9537440940742288,0.003009125424753384,0.14461684457611676
2026-06-03T18:23:39+03:00,27.18,286.81,-22.000719896330917,9.29232,97.99870127917599,84.99828890765764,0.9999832398418258,2.3327999999999998,0.0,-0.09167324722093173,-94.69846437922247,4.337290509140332,24.786279,59.474798,7.182757961496058,28.989078326861517,69.00962295231447,2.040528399126197,0.0007124004677961334,0.1453292450439129
2026-06-03T18:23:40+03:00,27.18,286.8,-22.99766645985855,9.00072,96.99602513769707,85.30195653907695,0.6999825383113268,2.3522399999999997,0.0,-0.06302535746439056,-94.49792915092668,4.274265151675942,24.786298,59.474794,6.896936400296391,30.655007480592246,66.34101765710483,2.0235213267928027,0.0006279193616890433,0.14595716440560194
2026-06-03T18:23:41+03:00,27.18,286.8,-24.000342601337486,9.097919999999998,97.99870127917599,85.3993593642492,0.2000195662801704,2.29392,0.0,-0.07448451336700701,-94.80159678234602,4.469070802020421,24.786316,59.47479,7.064213539702164,31.590085588785087,66.4086156903909,1.9540014093807063,0.000599830280058598,0.14655699468566055
2026-06-03T18:23:42+03:00,27.18,286.81,-24.000342601337486,9.29232,104.99451595772337,85.19882413595342,0.300000701530499,2.48832,0.0,-0.09167324722093173,-94.80159678234602,4.63522856260836,24.786337,59.474788,7.091726043127483,32.205396915100096,72.78911904262327,2.105474471773147,0.0006522981692740805,0.14720929285493464
2026-06-03T18:23:43+03:00,27.18,286.81,-24.997289164865123,9.408959999999999,102.99489325271679,85.19882413595342,-0.09998113525032865,2.48832,0.0,-0.08021409131831525,-94.80159678234602,4.961814505832929,24.786356,59.474785,7.230591972620378,33.35913135299876,69.63576189971803,2.0783451547595506,0.0006074474059683206,0.14781674026090297
2026-06-03T18:23:44+03:00,27.18,286.81,-27.002641447823002,9.097919999999998,101.99794668918915,85.69729741771722,0.5000202678106694,2.60496,0.0,-0.02864788975654116,-93.99945586916286,4.2169693721628585,24.786377,59.474782,6.879371401644687,36.9023874713248,65.09555921786435,2.08308137253508,0.0006660012936933686,0.14848274155459634
2026-06-03T18:23:45+03:00,27.18,286.81,-27.002641447823002,9.195120000000001,101.99794668918915,85.89783264601301,0.09998113525032865,2.39112,0.0,-0.022918311805232933,-93.99945586916286,3.460665082590172,24.786399,59.47478,7.147596519719495,35.73907607700005,66.2588706121891,1.9408370964106003,0.00068232833539722,0.14916506988999356
2026-06-03T18:23:46+03:00,27.18,286.81,-25.99996530634406,9.195120000000001,99.51130985832137,85.89783264601301,0.2000195662801704,2.29392,0.0,0.022918311805232933,-94.29739392263087,2.773115728433184,24.786421,59.474777,7.203887715997984,34.024058458344285,65.48725139997708,1.9012070775660754,0.0006954399415871618,0.14986050983158072
2026-06-03T18:23:47+03:00,27.18,286.81,-24.997289164865123,9.408959999999999,98.99564784270365,86.20150027743236,1.5000035076524951,2.31336,0.0,0.0,-93.50098258739904,2.2058875112536693,24.786368,59.474751,7.377352965540546,32.6119171644915,66.38373067821215,1.9486363976434349,0.0022495607029360777,0.1521100705345168
2026-06-03T18:23:48+03:00,27.18,286.81,-25.99996530634406,9.097919999999998,98.99564784270365,87.80005252584735,2.3000244769936637,2.21616,0.0,-0.017188733853924696,-91.50135988239246,2.0511889065683473,24.786386,59.474751,7.172149553990732,33.78486320907447,65.21078463362917,1.8419201772841807,0.0005495362559656899,0.1526596067904825
2026-06-03T18:23:49+03:00,27.18,286.81,-27.99958801135063,9.195120000000001,101.99794668918915,95.85010954743542,3.0000070153049903,2.08008,0.0,0.005729577951308233,-88.6021934390305,1.575633936609764,24.786492,59.474767,7.42302436660372,35.558963226513214,66.43898346267594,1.6921814492373628,0.0033760369290044673,0.15603564371948694
2026-06-03T18:23:50+03:00,27.18,286.8,-29.002264152829575,9.29232,106.99986824068124,94.10258827228641,3.9999902551468165,2.2356,0.0,0.017188733853924696,-84.29928039759803,1.1172677005051053,24.786428,59.474747,7.416695433637298,37.40589007353847,69.59397816714277,1.775853727766264,0.002294106583316084,0.15832975030280302
2026-06-03T18:23:51+03:00,27.18,286.8,-31.00188685783615,9.408959999999999,102.99489325271679,97.09915754082061,2.6000251785241626,2.46888,0.0,0.05156620156177409,-81.89858723599987,0.7276563998161455,24.786532,59.474755,7.402796054257506,40.89309393459931,62.101799318117486,1.8663063391012804,0.0032113046645079507,0.16154105496731097
2026-06-03T18:23:52+03:00,27.03,286.8,-31.00188685783615,9.097919999999998,104.99451595772337,104.49031309800824,1.899985344433323,2.1967199999999996,0.0,0.5213915935690492,-80.09949975928909,3.0825129378038287,24.786472,59.474742,7.303179369258515,39.91442379337059,65.08009216435278,1.6848922519984206,0.001991490011051686,0.16353254497836267
2026-06-03T18:23:53+03:00,27.03,286.8,-31.99883342136378,8.90352,100.9952705477102,105.71071320163689,1.4000223724021665,2.41056,0.0,0.40107045659157625,-79.6984293026975,2.939273489021123,24.786567,59.474746,6.977147879632408,42.54791524018543,58.447355307524774,1.7758887134155599,0.002910279365642015,0.16644282434400468
2026-06-03T18:23:54+03:00,27.03,286.79,-33.99845612637036,9.097919999999998,111.99606021422201,106.9712203509247,1.200002806121996,2.0606400000000002,0.0,0.41252961249419273,-79.40049124922947,3.523690440054563,24.786585,59.474742,7.478836407190435,42.86120239195222,69.1348578222698,1.5104566994914574,0.0005998309952832677,0.16704265533928794
2026-06-03T18:23:55+03:00,27.03,286.79,-35.99807883137692,8.90352,122.99684988073382,108.31194159153083,1.5999846429028237,2.48832,0.0,0.641712730546522,-78.00247422911028,3.747143980155584,24.786606,59.474737,7.043883941727375,47.98165120527631,75.01519867545751,1.6656031798361077,0.0007080718856939857,0.16775072722498194
2026-06-03T18:23:56+03:00,27.18,286.79,-37.9977015363835,8.80632,118.99760447072069,109.79017270296835,1.4000223724021665,2.2356,0.0,0.5729577951308232,-75.69918389268436,3.420558036931015,24.786624,59.474732,7.177773113311343,49.05233961724727,69.94526485347342,1.4651436722915305,0.0006263496074105061,0.16837707683239245
2026-06-03T18:23:57+03:00,27.11,286.79,-39.00037767786244,8.70912,121.9999033172062,105.40131599226623,1.5000035076524951,2.08008,0.0,0.7563042895726866,-73.99749924114583,3.3976397251257815,24.786642,59.474727,7.212393529594462,49.4575041951673,72.5423991220389,1.3520766623615295,0.0006263496787676368,0.16900342651116007
2026-06-03T18:23:58+03:00,27.03,286.8,-41.00000038286902,8.59248,127.99877143222591,106.30085973062164,1.2999839413723246,2.00232,0.0,0.5328507494716656,-73.49902595938201,3.3059664779048505,24.786588,59.47472,7.202124727537248,51.509362813176324,76.48940861904958,1.2462174188931876,0.001701455034813357,0.17070488154597344
2026-06-03T18:23:59+03:00,27.03,286.8,-41.00000038286902,8.59248,125.51213460135814,106.70193018721321,1.4000223724021665,1.80792,0.0,0.5385803274229739,-73.20108790591398,3.237211542489151,24.7866,59.474714,7.324697307588845,50.31904957681485,75.1930850245433,1.154378567881566,0.000514085443719378,0.1712189669896928
2026-06-03T18:24:00+03:00,27.03,286.79,-42.999623087875584,8.59248,126.99609529074696,107.29780629414927,1.5000035076524951,1.90512,0.0,0.6073352628386726,-72.39894699273083,3.20856365273261,24.78669,59.47471,7.315460235836295,53.23004905302841,73.76604623771856,1.1404116307106507,0.0027581836136406144,0.1739771506033334
2026-06-03T18:24:01+03:00,27.18,286.79,-42.999623087875584,8.59248,122.99684988073382,108.19735003250467,1.5000035076524951,2.11896,0.0,0.5156620156177408,-71.4020004292032,4.428963756361264,24.786624,59.474704,7.189495765962666,54.59529654151558,68.40155333921824,1.2276154180084802,0.0020469893513418856,0.1760241399546753
2026-06-03T18:24:02+03:00,27.18,286.78,-44.00229922935453,8.59248,126.99609529074696,109.49796422745162,1.2999839413723246,2.7799199999999997,0.0,0.544309905374282,-69.79771860283688,3.6382819990807276,24.786639,59.474697,6.869869941580293,60.328639990473604,66.66745530027336,1.376128259381736,0.0006218922036964146,0.1766460321583717
2026-06-03T18:24:03+03:00,27.18,286.78,-44.999245792882164,8.70912,123.99952602221278,111.19964887899017,1.5000035076524951,3.07152,0.0,0.5328507494716656,-68.10176352924965,4.291453885529866,24.786747,59.474689,6.888538407425927,63.37736378413027,60.62216223808251,1.3763859291962437,0.003332102760964127,0.17997813491933584
2026-06-03T18:24:04+03:00,27.11,286.78,-44.999245792882164,8.30088,131.99801684223905,112.70079830223293,1.4000223724021665,2.95488,0.0,0.3781521447863433,-66.80114933430268,4.807115901147607,24.786761,59.474682,6.553433468627359,63.59103204543669,68.40698479680236,1.3142578477936986,0.000599766634605791,0.18057790155394163
2026-06-03T18:24:05+03:00,27.03,286.78,-46.99886849788874,8.30088,138.35211879023987,113.60034204058832,1.4000223724021665,2.21616,0.0,0.37242256683503505,-66.19954364941532,4.136755280844544,24.786706,59.474673,6.980204307613862,60.425190359447384,77.92692843079249,1.0938069130808026,0.0017641333606498249,0.18234203491459144
2026-06-03T18:24:06+03:00,26.88,286.78,-46.99886849788874,8.39808,133.99763954724563,114.59728860411596,2.6000251785241626,2.7021599999999997,0.0,0.5042028597151245,-64.8015266292961,3.6497411549833445,24.786792,59.47467,6.846578962660348,63.77543630564939,70.22220324159623,1.1940587860030711,0.002631753271908591,0.18497378818650004
2026-06-03T18:24:07+03:00,27.03,286.78,-50.00116734437425,8.49528,128.99571799575352,117.10111416883765,3.9000091198964877,2.74104,0.0,0.6130648407899808,-61.50128972934256,3.787251025814742,24.786807,59.474662,7.053228373184711,67.32109012490325,61.67462787085027,1.0568530269898662,0.0006640364486074962,0.18563782463510753
2026-06-03T18:24:08+03:00,27.18,286.78,-50.99811390790188,8.203679999999999,146.20164058353217,121.10035957885079,4.2000098214269865,2.99376,0.0,0.5557690612768985,-57.100973862737845,4.004974987964455,24.786823,59.474652,6.7342171254353715,71.209114946506,74.99252563702616,0.9643352798379852,0.0007745350503009312,0.18641235968540845
2026-06-03T18:24:09+03:00,27.11,286.78,-54.00041275438739,8.30088,136.99993839373113,125.99914872721935,4.2000098214269865,2.54664,0.0,0.49847328176381617,-52.40271994266509,5.397262430132355,24.786836,59.47464,7.109108983931563,70.84695154952036,66.15298684421077,0.8355338880185246,0.0008232760867461652,0.18723563577215463
2026-06-03T18:24:10+03:00,27.03,286.78,-57.00271160087291,8.10648,145.99537577728506,128.60037711711328,2.3000244769936637,2.4299999999999997,0.0,0.20053522829578813,-50.7984381162988,5.2998596049601145,24.786813,59.474632,7.082659760901447,73.72598394239077,72.2693918348943,0.6809623098766318,0.0008510554854291861,0.18808669125758382
2026-06-03T18:24:11+03:00,26.88,286.78,-59.00233430587948,8.30088,158.73222756304327,129.5973236806409,1.4000223724021665,2.916,0.0,-0.6016056848873644,-50.397367659707214,5.001921551492087,24.786856,59.474614,7.244030998298486,79.18725086764984,79.54497669539343,0.547041258655038,0.0017011757500523103,0.1897878670076361
2026-06-03T18:24:12+03:00,26.88,286.77,-61.00195701088606,8.30088,160.99541085381,128.80091234540907,0.5000202678106694,2.95488,0.0,-0.8021409131831525,-51.497446626358396,4.698253920072751,24.786864,59.474601,7.338560365585791,81.62226017733474,79.37315067647526,0.43052209192728624,0.0008186814528587807,0.1906065484604949
2026-06-03T18:24:13+03:00,26.92,286.78,-61.00195701088606,8.49528,152.99692003378374,127.39716574733855,-0.09998113525032865,2.97432,0.0,-0.49847328176381617,-53.10172845272469,4.801386323196299,24.786845,59.474607,7.517834899280998,81.24706068197011,71.74985935181363,0.45261443848703875,0.0006830412144988613,0.19128958967499377
2026-06-03T18:24:14+03:00,27.03,286.78,-61.00195701088606,8.49528,151.9999734702561,126.30281635863868,-0.5000202678106694,3.42144,0.0,0.49847328176381617,-54.098675016252336,5.500394833255903,24.786883,59.474575,7.462890171140934,84.64179820287498,67.35817526738111,0.31950094326250533,0.0022462340265506477,0.1935358237015444
2026-06-03T18:24:15+03:00,27.03,286.78,-59.999280869407116,8.49528,149.99462118729824,125.99914872721935,-0.9000021045914972,3.6741599999999996,0.0,0.8995437383553924,-53.89813978795654,6.302535746439056,24.786866,59.474581,7.379399533307478,85.5421231401469,64.45249804715134,0.2855783239271422,0.0006320096683590082,0.1941678333699034
2026-06-03T18:24:16+03:00,27.03,286.78,-59.00233430587948,8.39808,149.99462118729824,127.09922769387053,0.2000195662801704,3.47976,0.0,0.40107045659157625,-52.40271994266509,6.399938571611295,24.786915,59.474546,7.248192267943412,83.30297880518847,66.69164238210976,0.4058064865182249,0.0025814277275779543,0.19674926109748136
2026-06-03T18:24:17+03:00,26.96,286.77,-59.00233430587948,8.59248,152.38958477094505,127.99877143222591,0.8000209693411684,3.1104000000000003,0.0,-0.20053522829578813,-51.89851708294997,5.700930061551691,24.786889,59.474556,7.481797974068958,79.87902930950476,72.51055546144029,0.5465814162561258,0.0009956803303466176,0.19774494142782797
2026-06-03T18:24:18+03:00,26.77,286.77,-59.999280869407116,8.59248,150.99729732877717,127.2997629221663,-0.09998113525032865,3.28536,0.0,-1.3006141949469687,-52.90119322442891,4.60085109490051,24.786942,59.474519,7.509613778481253,82.26312833243836,68.73416899633881,0.4422879334939633,0.002750331653071283,0.20049527308089926
2026-06-03T18:24:19+03:00,26.73,286.77,-59.00233430587948,8.70912,148.99767462377056,126.89869246557473,0.3999818367808277,3.18816,0.0,-0.6990085100596044,-53.302263681020484,4.199780638308934,24.786955,59.474505,7.5771967272440754,80.14356833139925,68.85410629237131,0.5457491103342229,0.0009304071784133407,0.2014256802593126
2026-06-03T18:24:20+03:00,26.92,286.77,-59.00233430587948,8.59248,148.99767462377056,126.40021918381092,0.09998113525032865,3.53808,0.0,-0.09740282517223994,-53.8007369627843,4.60085109490051,24.78697,59.47449,7.418599792458139,83.13246194716262,65.86521267660794,0.4230636345770697,0.0010112514254221616,0.20243693168473476
2026-06-03T18:24:21+03:00,27.03,286.75,-57.00271160087291,8.49528,151.9999734702561,125.70121067375132,-2.003748001131515,4.0824,0.0,0.40107045659157625,-54.7002807011397,5.998868115019719,24.786942,59.474508,7.145707077224383,85.63287295464235,66.36710051561374,0.31086237071384654,0.0013788923607207324,0.20381582404545548
2026-06-03T18:24:22+03:00,27.03,286.76,-54.99735931791503,8.49528,148.99767462377056,125.70121067375132,0.04176862326503702,3.7908,0.0,1.0026761414789407,-54.00127219108009,7.402614713090236,24.78696,59.474491,7.042351199643685,81.160207391575,67.83746723219556,0.5825403325307242,0.001160229956338961,0.20497605400179444
2026-06-03T18:24:23+03:00,27.03,286.78,-54.99735931791503,8.39808,149.99462118729824,125.99914872721935,0.03139808717316911,3.5964,0.0,-0.09740282517223994,-54.098675016252336,7.0015442564986605,24.787029,59.474445,6.9865777299045995,79.93627820643435,70.05834298086388,0.6284469084781091,0.003476007327741965,0.20845206132953642
2026-06-03T18:24:24+03:00,26.85,286.78,-56.00003545939396,8.49528,149.7081422897328,125.79861349892356,-0.09998113525032865,3.44088,0.0,-0.49847328176381617,-54.299210244548114,5.397262430132355,24.787001,59.474461,7.1636348720307526,79.46626364972923,70.24187864000356,0.629042566045112,0.001286727001674436,0.20973878833121085
2026-06-03T18:24:25+03:00,26.73,286.78,-57.00271160087291,8.90352,149.99462118729824,125.59807827062775,0.3999818367808277,3.71304,0.0,-0.8021409131831525,-54.40234264767167,4.60085109490051,24.787058,59.474414,7.553236255329608,81.35139287713936,68.64322831015888,0.5583450679185913,0.003318030270731804,0.21305681860194264
2026-06-03T18:24:26+03:00,26.73,286.77,-56.00003545939396,8.80632,144.99842921375745,125.79861349892356,1.3667908202845787,3.81024,0.0,-1.1000789666511805,-53.89813978795654,4.400315866604722,24.787073,59.4744,7.385303130810184,81.32291562690688,63.67551358685057,0.5748335985982632,0.0009580476914191234,0.21401486629336178
2026-06-03T18:24:27+03:00,26.85,286.77,-56.00003545939396,8.70912,144.99842921375745,125.70121067375132,0.2000195662801704,3.888,0.0,0.09740282517223994,-54.499745472843905,5.099324376664327,24.787056,59.474421,7.2866743182041995,82.25429454765201,62.74413466610544,0.5240116561642506,0.0013647998416774553,0.21537966613503923
2026-06-03T18:24:28+03:00,27.03,286.78,-54.00041275438739,8.59248,145.8693250623563,125.9017459020471,-0.24425190806426994,4.276800000000001,0.0,0.29793805346802804,-54.00127219108009,6.697876625079324,24.787111,59.474368,6.994420623441042,83.64927148161102,62.22005358074527,0.4730752416150003,0.0036011536277270307,0.21898081976276626
2026-06-03T18:24:29+03:00,27.03,286.78,-54.00041275438739,8.49528,144.99842921375745,126.30281635863868,0.0,3.5964,0.0,0.8021409131831525,-53.39966650619273,7.098947081670899,24.787094,59.474393,7.013394449204734,78.51079748909908,66.48763172465837,0.7163426847753859,0.0015897986035352748,0.22057061836630154
2026-06-03T18:24:30+03:00,26.96,286.78,-54.99735931791503,8.49528,144.99842921375745,126.69815723727893,0.2000195662801704,3.6352800000000003,0.0,-0.20053522829578813,-53.10172845272469,5.998868115019719,24.787153,59.474335,7.067921085280282,79.91436836091533,65.08406085284211,0.6366096213914882,0.0039240955292677415,0.22449471389556927
2026-06-03T18:24:31+03:00,26.81,286.78,-54.99735931791503,8.80632,146.99805191876402,127.20236009699407,0.6999825383113268,3.46032,0.0,-0.6016056848873644,-52.59752559300958,5.2998596049601145,24.787173,59.47432,7.3868773636020295,77.56118940626828,69.43686251249574,0.7453420243147533,0.001088920374323796,0.22558363426989306
2026-06-03T18:24:32+03:00,26.73,286.77,-54.99735931791503,8.80632,147.99499848229166,127.79823620393013,1.5000035076524951,3.5964,0.0,-0.6990085100596044,-51.801114257777726,4.497718691776963,24.787148,59.474354,7.3587660938781,78.5959017209551,69.39909676133657,0.7111070269441423,0.0021815390746232994,0.22776517334451635
2026-06-03T18:24:33+03:00,26.73,286.77,-57.00271160087291,9.00072,143.9957530722785,128.80091234540907,1.200002806121996,3.8491199999999997,0.0,-0.6016056848873644,-51.10210574771813,3.9018425848409057,24.787208,59.474292,7.621913060090326,82.06147643348308,61.93427663879541,0.5316038758600382,0.004152548923272517,0.23191772226778887
2026-06-03T18:24:34+03:00,26.73,286.77,-56.00003545939396,8.80632,147.80019283194716,128.49724471398974,-0.6999825383113268,4.31568,0.0,0.0,-51.89851708294997,5.2998596049601145,24.787226,59.474276,7.326108273851655,85.2336354500034,62.56655738194375,0.358602101101619,0.0011076599044928864,0.23302538217228175
2026-06-03T18:24:35+03:00,26.88,286.77,-54.99735931791503,8.70912,152.99692003378374,127.50029815046209,-0.9999832398418258,4.374,0.0,0.29793805346802804,-52.79806082130536,6.801009028202872,24.787248,59.474262,7.160899660690038,85.01958692763692,67.97733310614682,0.37972960672690526,0.001076693849535652,0.2341020760218174
2026-06-03T18:24:36+03:00,26.81,286.77,-54.00041275438739,8.30088,153.99959617526267,125.99914872721935,-1.7000230739326654,4.4712,0.0,0.09740282517223994,-54.99821875460771,7.098947081670899,24.78727,59.474247,6.727963688629189,86.52428076627184,67.47531540899082,0.27106893762310663,0.0011242976569473832,0.23522637367876478
2026-06-03T18:24:37+03:00,26.73,286.77,-54.00041275438739,8.39808,144.09888547540206,123.50105274044896,-2.3000244769936637,3.9074399999999994,0.0,-0.40107045659157625,-57.30150909103363,6.497341396783535,24.787292,59.47423,6.871672199628759,81.3897054209076,62.70918005449445,0.5849945457296122,0.0012228138265412325,0.23644918750530602
2026-06-03T18:24:38+03:00,26.73,286.77,-52.997736612908454,8.70912,149.99462118729824,121.70196526373815,-1.4000223724021665,4.23792,0.0,-0.6990085100596044,-58.90006133944863,5.998868115019719,24.787315,59.474215,7.027244405014742,81.7889150256405,68.20570616165773,0.605261524283868,0.0011427993950446293,0.23759198690035066
2026-06-03T18:24:39+03:00,26.66,286.76,-54.00041275438739,9.097919999999998,143.9957530722785,120.20081584049541,-1.1000216708716675,4.14072,0.0,0.0,-60.49861358786363,5.202456779787875,24.78734,59.474201,7.4586948498316135,80.68835025557603,63.307402816702464,0.6699870115561153,0.0011360885156741927,0.23872807541602487
2026-06-03T18:24:40+03:00,26.73,286.75,-50.99811390790188,8.90352,137.25776940154,118.99760447072069,-1.5000035076524951,4.16016,0.0,-0.8021409131831525,-61.39815732621903,5.099324376664327,24.787365,59.474186,7.068066541016703,78.21786417516752,59.03990522637248,0.849466573841342,0.0011813013181151463,0.23990937673414
2026-06-03T18:24:41+03:00,26.73,286.77,-50.99811390790188,9.097919999999998,139.99650766226534,118.00065790719304,-1.2999839413723246,4.276800000000001,0.0,0.20053522829578813,-62.29770106457441,5.798332886723932,24.787394,59.474172,7.217165839074669,78.41842371415045,61.578083948114894,0.8586228731639212,0.0012214874800353373,0.24113086421417534
2026-06-03T18:24:42+03:00,26.73,286.77,-50.00116734437425,9.29232,137.0400454393903,118.20119313548884,-0.300000701530499,3.9851999999999994,0.0,0.6990085100596044,-61.70182495763835,5.798332886723932,24.787425,59.474159,7.390742934920715,74.39898691150152,62.641058527888774,1.0717671384202654,0.0012273284142977007,0.24235819262847305
2026-06-03T18:24:43+03:00,26.73,286.77,-48.99849120289531,9.00072,137.99688495725877,117.80012267889725,-0.600001403060998,4.276800000000001,0.0,-0.8021409131831525,-61.99976301110639,5.001921551492087,24.787455,59.474147,6.985227963512296,76.51928765954817,61.4775972977106,0.9969991422557914,0.0011658276402264833,0.24352402026869954
2026-06-03T18:24:44+03:00,26.62,286.77,-50.00116734437425,9.195120000000001,138.99956109873773,117.8975255040695,-0.2000195662801704,4.101839999999999,0.0,-0.6990085100596044,-62.40083346769795,4.801386323196299,24.787477,59.474134,7.272453119520845,75.60048684601344,63.39907425272429,1.0200523681168183,0.0010303998070878742,0.24455442007578743
2026-06-03T18:24:45+03:00,26.58,286.77,-48.99849120289531,9.195120000000001,139.99650766226534,118.09806073236527,0.8000209693411684,3.9463199999999996,0.0,-0.40107045659157625,-61.70182495763835,4.102377813136695,24.787502,59.474122,7.246347541968664,73.2662335865316,66.73027407573375,1.1362439820634778,0.0010501557598257814,0.2456045758356132
2026-06-03T18:24:46+03:00,26.7,286.76,-48.00154463936767,9.29232,135.99726225225223,118.00065790719304,0.300000701530499,3.888,0.0,-0.2578310078088704,-61.70182495763835,3.4434763487362474,24.787525,59.47411,7.288057262690744,71.35855522926097,64.63870702299126,1.2427789509060956,0.0010066506955447015,0.2466112265311579
2026-06-03T18:24:47+03:00,26.77,286.76,-48.99849120289531,9.408959999999999,140.68978659437363,118.69966641725263,0.5000202678106694,4.257359999999999,0.0,-0.18334649444186346,-61.10021927275099,3.3575326794666243,24.787547,59.474097,7.354733461134414,74.90226793984729,65.78751865452634,1.1088987734134608,0.001030400286647769,0.2476416268178057
2026-06-03T18:24:48+03:00,26.77,286.76,-48.00154463936767,9.50616,136.99993839373113,119.30127210214,0.09998113525032865,3.9463199999999996,0.0,-0.23491269600363757,-60.49861358786363,3.850276383279132,24.787571,59.474084,7.465790248620764,71.13201700382461,65.86792138990651,1.276195267494921,0.0010712043346198022,0.24871283115242548
2026-06-03T18:24:49+03:00,26.73,286.76,-48.00154463936767,9.097919999999998,133.99763954724563,118.90020164554844,-0.9000021045914972,4.16016,0.0,-0.40107045659157625,-61.39815732621903,5.798332886723932,24.787593,59.474069,7.030576882950586,74.08929655869605,59.90834298854958,1.1404615908979814,0.0011242997711154855,0.24983713092354096
2026-06-03T18:24:50+03:00,26.7,286.76,-48.00154463936767,9.195120000000001,141.5721415988751,118.69966641725263,-0.2000195662801704,3.7519199999999997,0.0,-0.20053522829578813,-61.50128972934256,5.700930061551691,24.787613,59.474058,7.242884073675648,70.64337561182006,70.92876598705504,1.2435625256496667,0.0009000043886080749,0.25073713531214903
2026-06-03T18:24:51+03:00,26.58,286.76,-48.00154463936767,9.408959999999999,137.99688495725877,117.70271985372501,-0.300000701530499,3.6547199999999997,0.0,-0.19480565034447989,-62.60136869599375,4.549284893338736,24.787634,59.474046,7.4744861468164645,69.3092449298815,68.68764002737727,1.2912999278532706,0.000965050307735165,0.25170218561988417
2026-06-03T18:24:52+03:00,26.58,286.76,-48.00154463936767,9.50616,135.99726225225223,116.90057894054185,0.09998113525032865,3.6935999999999996,0.0,-0.1604281826366305,-63.1972448029298,3.724225668350351,24.787656,59.474035,7.55130462810032,69.31722770425402,66.6800345479982,1.304555727093422,0.0009424995643952438,0.2526446851842794
2026-06-03T18:24:53+03:00,26.62,286.75,-48.00154463936767,9.408959999999999,135.1607438713612,116.79744653741832,0.09998113525032865,3.96576,0.0,-0.13750987083139757,-63.300377206053355,3.231481964537843,24.787636,59.474027,7.370334380718008,71.57185047850001,63.588893392861195,1.2536369495494881,0.0007772201593222218,0.25342190534360165
2026-06-03T18:24:54+03:00,26.73,286.75,-46.99886849788874,9.50616,133.24133525767294,116.90057894054185,-0.09998113525032865,4.19904,0.0,-0.1546986046853223,-63.002439152585325,3.3632622574179325,24.787662,59.474013,7.3178925310073755,71.81113061829316,61.43020463937978,1.3107318703671678,0.0011568237259946081,0.2545787290695963
2026-06-03T18:24:55+03:00,26.73,286.75,-46.0019219343611,9.50616,138.99956109873773,117.10111416883765,-0.3999818367808277,4.41288,0.0,-0.1546986046853223,-62.698771521165995,3.5007721282493303,24.787725,59.473993,7.180627374152109,72.23904704094241,66.76051405779532,1.3461329740049446,0.002268196977241629,0.2568469260468379
2026-06-03T18:24:56+03:00,26.73,286.76,-46.0019219343611,9.097919999999998,139.99650766226534,116.90057894054185,-0.5000202678106694,4.33512,0.0,-0.1604281826366305,-63.300377206053355,4.125296124941927,24.787747,59.47398,6.838995985647503,73.13068171089967,66.86582595136568,1.2580075245261444,0.0010304018028945532,0.25787732784973244
2026-06-03T18:24:57+03:00,26.66,286.76,-46.0019219343611,9.29232,138.99956109873773,116.29897325565449,-0.5000202678106694,4.257359999999999,0.0,-0.13750987083139757,-63.999385716112954,4.27999472962725,24.787768,59.473967,7.036463603604304,71.8028254966541,67.19673560208363,1.3295227419614544,0.0010107657716935765,0.258888093621426
2026-06-03T18:24:58+03:00,26.58,286.76,-46.0019219343611,9.408959999999999,133.69970149377758,115.89790279906293,0.0,3.57696,0.0,-0.1432394487827058,-64.40045617270454,3.970597520256605,24.78779,59.473955,7.386926457780447,66.38749827919176,67.31220321458582,1.4327476433076136,0.0009855988625617773,0.2598736924839878
2026-06-03T18:24:59+03:00,26.43,286.74,-46.99886849788874,9.50616,133.02934087347455,115.30202669212686,0.2000195662801704,3.9851999999999994,0.0,-0.10886198107485642,-64.89892945446834,3.7700622919608167,24.787815,59.473943,7.3874366813308185,70.23529424861758,62.794046624856975,1.347628348223013,0.0010501586989186409,0.26092385118290645
2026-06-03T18:25:00+03:00,26.58,286.76,-46.99886849788874,9.195120000000001,133.99763954724563,114.79782383241175,-0.09998113525032865,4.0629599999999995,0.0,-0.12605071492878112,-65.20259708588767,3.5637974857137205,24.78782,59.473921,7.078042883687997,71.8212196466976,62.17641990054803,1.2675747437774851,0.0013311516139676819,0.26225500279687414
2026-06-03T18:25:01+03:00,26.58,286.77,-46.0019219343611,9.195120000000001,133.99763954724563,114.7004210072395,-0.600001403060998,4.52952,0.0,-0.13178029288008933,-65.29999991105991,3.5294200180058715,24.787848,59.473909,6.870551179702121,74.31255173133535,59.68508781591028,1.2247348452052051,0.001118499282012543,0.26337350207888666
2026-06-03T18:25:02+03:00,26.58,286.77,-44.999245792882164,9.00072,132.9949634057667,114.40248295377148,-0.600001403060998,4.276800000000001,0.0,-0.13178029288008933,-65.59793796452794,3.9247608966461396,24.787895,59.473907,6.698069147523496,71.83859785550186,61.15636555026484,1.3330567048562412,0.0014399629009615189,0.2648134649798482
2026-06-03T18:25:03+03:00,26.58,286.77,-44.999245792882164,9.097919999999998,134.99458611077327,114.40248295377148,-0.2000195662801704,4.374,0.0,-0.10313240312354818,-65.59793796452794,4.004974987964455,24.787906,59.473881,6.75467555250455,72.24976681829084,62.74481929248243,1.3334933977782042,0.0015984779543537922,0.266411942934202
2026-06-03T18:25:04+03:00,26.51,286.77,-44.999245792882164,9.29232,133.40176344030957,114.4998857789437,0.2000195662801704,3.71304,0.0,-0.10313240312354818,-65.59793796452794,3.850276383279132,24.787933,59.473866,7.165121734042144,66.49456441009569,66.90719903021387,1.480894272621446,0.0012216480547447349,0.26763359098894673
2026-06-03T18:25:05+03:00,26.43,286.76,-44.999245792882164,9.097919999999998,131.99801684223905,114.0014124971799,-0.2000195662801704,4.04352,0.0,-0.09167324722093173,-66.30267605253886,3.735684824252967,24.787961,59.473852,6.862649944888038,69.62104126660343,62.376975575635626,1.4080661424617857,0.001199548173203663,0.2688331391621504
2026-06-03T18:25:06+03:00,26.43,286.77,-44.999245792882164,9.097919999999998,129.71764481761838,113.60034204058832,0.09998113525032865,3.7713599999999996,0.0,-0.09167324722093173,-66.49748170288335,3.3632622574179325,24.787986,59.473841,6.9620997226351875,67.52097263551855,62.19667218209983,1.4419615007527748,0.0010098214023028878,0.2698429605644533
2026-06-03T18:25:07+03:00,26.43,286.77,-44.999245792882164,9.195120000000001,128.99571799575352,113.89828009405635,0.6999825383113268,3.71304,0.0,-0.08594366926962349,-65.90160559594727,3.168456607073453,24.788009,59.473832,7.07477188879557,66.78300981851153,62.21270817724199,1.463734012902141,0.0008864190400010002,0.27072937960445426
2026-06-03T18:25:08+03:00,26.47,286.77,-44.999245792882164,9.00072,127.86126156139451,114.59728860411596,0.0,4.0629599999999995,0.0,-0.10313240312354818,-65.29999991105991,3.5122312841519467,24.788034,59.473822,6.76777278351422,70.11816398779983,57.74309757359468,1.3817372942160697,0.0009715288198031472,0.2717009084242574
2026-06-03T18:25:09+03:00,26.43,286.77,-44.999245792882164,9.097919999999998,131.9006140170668,114.59728860411596,0.0,3.8296799999999998,0.0,-0.09740282517223994,-65.20259708588767,3.552338329811104,24.788058,59.473812,6.940010574004408,67.96587584550716,63.934738171559644,1.436737915890553,0.0009477313572211878,0.27264863978147863
2026-06-03T18:25:10+03:00,26.43,286.77,-44.00229922935453,8.90352,129.99839413723248,124.320382387486,1.2530014021715974,3.3242399999999996,0.0,-0.12605071492878112,-64.29732376958098,3.747143980155584,24.788084,59.473802,6.9096787775497495,63.52701032188796,66.47138381534452,1.4818659928457991,0.0009956942664224415,0.27364433404790106
2026-06-03T18:25:11+03:00,26.43,286.76,-46.0019219343611,9.195120000000001,128.99571799575352,123.96514855450492,-0.743298147623217,3.09096,0.0,-0.09740282517223994,-65.39740273623217,3.747143980155584,24.788107,59.473792,7.390455108183869,63.51143186632582,65.4842861294277,1.3786276412229312,0.0009243298549196732,0.27456866390282075
2026-06-03T18:25:12+03:00,26.43,286.77,-46.0019219343611,9.097919999999998,129.99839413723248,127.59770097563433,4.255930502231755,3.6935999999999996,0.0,-0.17188733853924698,-60.401210762691385,2.6356058576017865,24.788174,59.47378,7.051931922917652,68.13640332741771,61.86199080981477,1.3754899886291378,0.002168998890442915,0.2767376627932637
2026-06-03T18:25:12+03:00,26.43,286.77,-46.0019219343611,9.00072,131.99801684223905,123.97660771040755,2.2534430082495276,3.3242399999999996,0.0,-0.10886198107485642,-64.49785899787676,2.790304462287109,24.788132,59.473782,7.1060432204902355,65.66700187158975,66.3310149706493,1.3697171608239809,0.0012879108933285346,0.2780255736865922
2026-06-03T18:25:13+03:00,26.43,286.77,-50.00116734437425,8.90352,131.99801684223905,130.39373501587272,0.7761286292842132,3.888,0.0,-0.05729577951308232,-58.49899088285704,3.151267873219528,24.788182,59.473757,7.063121296799284,74.94235534328232,57.05566149895674,1.0100663246124826,0.002142053191539262,0.28016762687813146
2026-06-03T18:25:14+03:00,26.43,286.77,-52.00079004938082,9.00072,135.99726225225223,121.10035957885079,-0.8331952256792432,3.7519199999999997,0.0,0.0,-59.10059656774442,5.001921551492087,24.788214,59.473755,7.314974023789417,75.84070430672338,60.156557945528846,0.9177894425611572,0.000984350449272729,0.2811519773274042
