time,dpt,mtw,awa,aws,cog,hdg,rot,sog,stw,pitch,yaw,roll,lng,lat,tws,twa,twd,vmg,dist,cum_dist
2024-09-25T17:26:03+03:00,24.0,286.15,-97.99784184248331,15.99912,309.5519079753299,287.20082438727644,0.0,7.8732,7.1928,0.40107045659157625,106.59879778408965,19.698288996597704,24.798731,59.477741,18.78859756691852,122.51498585886023,187.0369221164697,-4.2320038904132575,0.001155803414698513,0.001155803414698513
2024-09-25T17:26:04+03:00,24.0,286.15,-93.99859643247017,15.99912,304.7906286977927,285.60227213886145,0.5000202678106694,7.970399999999999,7.095599999999999,0.0,105.29818358914271,18.79874525824231,24.798673,59.477777,18.365279467098873,119.65265326011263,185.1379754376801,-3.9432812756734847,0.0027959410200535397,0.003951744434752052
2024-09-25T17:26:05+03:00,24.0,286.15,-93.99859643247017,16.19352,304.2921554160289,285.80280736715724,0.0,7.44552,7.095599999999999,0.8995437383553924,105.89978927403007,16.701719728063498,24.798609,59.477803,18.28881971514144,117.95972308284215,186.33243233318674,-3.4908377533852972,0.0025018813555540225,0.006453625790306075
2024-09-25T17:26:06+03:00,24.0,286.15,-93.99859643247017,17.80704,300.56220016972725,285.60227213886145,0.0,7.44552,7.095599999999999,0.20053522829578813,105.40131599226623,15.097437901697193,24.798537,59.477831,19.774148809705004,116.06070283981741,184.50149732990985,-3.2709892320034495,0.0027683041042381186,0.009221929894544194
2024-09-25T17:26:07+03:00,24.0,286.15,-93.99859643247017,17.70984,304.3322624616881,285.20120168226987,0.300000701530499,7.42608,7.095599999999999,1.1000789666511805,105.29818358914271,15.20057030482074,24.798479,59.477846,19.675534837278995,116.11616514275559,188.21609731893253,-3.2689048490325257,0.0019869109921744664,0.011208840886718661
2024-09-25T17:26:08+03:00,24.0,286.15,-95.99821913747672,17.3016,302.9686229092767,284.5995959973825,0.0,7.542719999999999,7.095599999999999,-0.29793805346802804,104.30123702561507,16.501184499767707,24.798419,59.477864,19.583464542897108,118.52088646891892,184.44773644035777,-3.6014910853062068,0.0021273036274916234,0.013336144514210285
2024-09-25T17:26:09+03:00,24.0,286.15,-91.99897372746359,16.69896,301.14088754280937,284.7027284005061,0.5000202678106694,7.251119999999999,7.095599999999999,1.9996227050065731,103.99756939419571,18.59821002994652,24.798376,59.47788,18.435871650333475,115.1450360171436,185.99585152566578,-3.0810813243624025,0.0016272638723828072,0.014963408386593092
2024-09-25T17:26:10+03:00,24.2,286.15,-91.99897372746359,16.09632,303.04883700059503,286.1007454206253,4.099971390397145,7.42608,7.3094399999999995,0.0,108.09994720733242,16.99965778153153,24.798322,59.477899,17.96043302902175,116.40607247329608,186.64276452729894,-3.3026013632934363,0.0020054117688659144,0.016968820155459006
2024-09-25T17:26:13+03:00,24.2,286.15,-93.00164986894255,15.610319999999998,310.3425897326104,294.5977095224154,4.299990956677315,7.503839999999999,7.1928,-0.6016056848873644,116.09843802735871,15.00003507652495,24.798145,59.477961,17.67080733496822,118.09305217047822,192.2495375621322,-3.5335950911999263,0.002114921026302566,0.019083741181761572
2024-09-25T17:26:14+03:00,24.3,286.15,-93.99859643247017,15.610319999999998,315.13251689990403,299.39909584561167,2.400005612243992,7.23168,7.1928,1.1000789666511805,121.59883286061462,14.197894163341799,24.798099,59.477993,17.655685299760364,118.1153853483099,197.01713155159413,-3.4079200688349265,0.002381496952068588,0.02146523813383016
2024-09-25T17:26:15+03:00,24.3,286.15,-97.00089527895568,15.901919999999999,315.4820211549339,300.8028424436822,0.2000195662801704,7.7176800000000005,7.1928,0.20053522829578813,120.89982435055502,12.89727996839483,24.79808,59.478019,18.50271623313319,121.45730164306342,194.02471951187044,-4.0275717095244055,0.0016669605831500253,0.023132198716980187
2024-09-25T17:26:16+03:00,24.3,286.15,-97.99784184248331,15.99912,318.11762701253565,302.0003242355056,0.0,7.970399999999999,7.40664,1.0026761414789407,122.40097377379776,14.10049133816956,24.798034,59.478054,18.841022813084937,122.76424012333007,195.35338688920558,-4.313448840895849,0.0025293717086497555,0.025661570425629943
2024-09-25T17:26:17+03:00,24.3,286.15,-101.00014068896883,15.99912,318.11189743458436,302.0003242355056,0.300000701530499,8.184239999999999,7.40664,1.902219879834333,121.30089480714659,13.298350424986406,24.797983,59.478075,19.3112288452714,125.5837444129387,192.52815302164566,-4.762345902256777,0.00200428024993703,0.027665850675566973
2024-09-25T17:26:18+03:00,24.3,286.15,-104.00243953545433,16.09632,317.7795819134085,301.7997890072098,0.6999825383113268,8.203679999999999,7.40664,1.9996227050065731,120.99722717572726,13.097815196690618,24.797982,59.478075,19.755857633325594,127.76291152745975,190.01667038594874,-5.023896266932508,3.052678803526135e-05,0.027696377463602234
2024-09-25T17:26:20+03:00,24.4,286.15,-106.00206224046092,16.19352,321.2803540416578,303.9999469405122,0.300000701530499,7.8732,7.3094399999999995,-0.8021409131831525,124.49799930397657,11.201324894807593,24.797863,59.478183,19.862297488275885,128.39954839197873,192.88080564967908,-4.8903720699239654,0.0025890141772560195,0.030285391640858254
2024-09-25T17:26:21+03:00,24.4,286.15,-106.99900880398854,15.804720000000001,322.7585851530954,305.90216682034657,0.0,7.776,7.3094399999999995,-0.40107045659157625,126.19968395551511,12.198271458335228,24.797838,59.478233,19.54775661440934,129.35841661333566,193.40016853975973,-4.931302199549345,0.0031007688299870837,0.03338616047084534
2024-09-25T17:26:22+03:00,24.4,286.15,-106.00206224046092,15.901919999999999,324.35713740151033,305.10002590716334,0.09998113525032865,7.75656,7.503839999999999,1.3006141949469687,124.69853453227238,13.097815196690618,24.797801,59.478267,19.520254971553523,128.45736506759778,195.89977233391255,-4.824053727169927,0.0023350145389821084,0.035721175009827445
2024-09-25T17:26:23+03:00,24.4,286.15,-106.99900880398854,16.19352,322.58096823660475,305.00262308199115,3.6999895536163168,7.46496,7.503839999999999,0.0,125.30014021715974,13.899956109873772,24.797749,59.478299,19.71389936318782,128.2295123407757,194.35145589582905,-4.6194150268718195,0.002493879211206672,0.03821505422103412
2024-09-25T17:26:24+03:00,24.4,286.15,-106.99900880398854,16.19352,325.74942484367824,307.50071906876155,7.899999375043304,6.84288,7.40664,0.6016056848873644,129.49992085546867,12.398806686631014,24.797708,59.478328,19.335124285495013,126.78128918233182,198.96813566134642,-4.097257030781033,0.002145916286922626,0.04036097050795675
2024-09-25T17:26:25+03:00,24.4,286.15,-108.99863150899512,16.50456,328.700157488602,315.79714794225583,8.899982614885129,6.492959999999999,7.40664,-2.1027551081301215,139.49803438050154,6.497341396783535,24.797711,59.478312,19.604392416477992,127.24825799295752,201.45189949564445,-3.929992511722602,0.0009660739404543155,0.041327044448411066
2024-09-25T17:26:26+03:00,24.4,286.15,-112.00093035548062,16.79616,329.7773181434479,325.89839387041224,9.600022448975968,6.47352,7.3094399999999995,0.29793805346802804,149.59928030865794,-2.2975607584746007,24.797706,59.478311,20.136605566180048,129.34260777518236,200.43471036826557,-4.1039278847052225,0.0001640418579595838,0.04149108630637065
2024-09-25T17:26:27+03:00,24.5,286.15,-116.00017576549378,16.79616,339.8098091361886,332.20092961685134,3.099988150555319,6.37632,7.3094399999999995,-0.6016056848873644,153.3979904903753,-6.89841185337511,24.797695,59.47833,20.412400967425604,132.30575710830743,207.5040520278812,-4.291817007008739,0.0011903893834762688,0.04268147568984692
2024-09-25T17:26:28+03:00,24.5,286.15,-121.00209731698585,16.79616,356.9011401649411,333.90261426838987,0.0,6.6679200000000005,7.095599999999999,-0.6990085100596044,154.6986046853223,-2.4006931615981495,24.797685,59.478358,21.022440844075064,136.7777448444669,220.12339532047423,-4.85893115216003,0.0017104765566329566,0.04439195224647988
2024-09-25T17:26:29+03:00,24.5,286.15,-129.00058813701216,15.901919999999999,357.02719087986986,338.29720055704325,1.7000230739326654,6.492959999999999,7.095599999999999,-1.0026761414789407,160.30213192170172,5.998868115019719,24.797681,59.478384,20.615202279175286,143.16869422333642,213.85849665653345,-5.196990841631605,0.0015675636173243272,0.0459595158638042
2024-09-25T17:26:30+03:00,24.5,286.15,-144.99756977706474,13.802399999999999,353.38890888078913,343.70019256512694,2.7000063137744914,6.55128,7.095599999999999,0.20053522829578813,165.80252675495763,7.597420363434716,24.797668,59.478413,19.533615136043938,156.08931235183627,197.29959652895286,-5.98903844813006,0.001787726492379453,0.047747242356183654
2024-09-25T17:26:31+03:00,24.5,286.15,-149.0025447650292,11.80008,354.94162450559367,346.3988237801931,1.5999846429028237,6.648479999999999,6.9984,0.09740282517223994,166.5989380901895,5.998868115019719,24.797655,59.478449,17.830921543821276,160.07347859126932,194.86814591432434,-6.2504386230993525,0.0021999664326034767,0.04994720878878713
2024-09-25T17:26:32+03:00,24.6,286.15,-147.99986862355027,11.29464,357.7319289678808,349.2979902235551,6.399995867390808,6.53184,6.9984,0.6990085100596044,171.60085964168155,4.60085109490051,24.797651,59.478482,17.186121521328737,159.61896535332485,198.11296361455592,-6.12292929910597,0.0019873094446498786,0.05193451823343701
2024-09-25T17:26:33+03:00,24.6,286.15,-147.99986862355027,11.89728,1.5928226704636885,353.69830609015975,2.499986747494321,6.5124,6.9984,0.49847328176381617,174.29949085674772,-4.102377813136695,24.79765,59.478519,17.758651669332195,159.2055214597508,202.38730121071288,-6.088181566388215,0.0022241949995187213,0.054158713232955735
2024-09-25T17:26:34+03:00,24.6,286.15,-149.99949132855681,11.60568,12.009195385942055,352.9018947549279,0.0,6.5124,6.901199999999999,-1.501149423242757,172.00193009827314,-8.19902604832208,24.797674,59.478545,17.550280037587527,160.69201254959745,211.3171828363446,-6.146109191229688,0.0017260060589552226,0.05588471929191096
2024-09-25T17:26:35+03:00,24.6,286.15,-149.0025447650292,11.508479999999999,10.170000863572112,351.89921861344897,0.0,6.43464,6.901199999999999,-0.49847328176381617,172.00193009827314,1.3006141949469687,24.797688,59.478573,17.343718880489142,160.01769624806082,210.1523046155113,-6.04726316397489,0.0017364294517860403,0.057621148743697004
2024-09-25T17:26:36+03:00,24.6,286.15,-157.0010355850555,10.808639999999999,3.838817227376516,353.199832808396,0.600001403060998,6.14304,6.804,-1.7990874767107847,173.8010175749839,9.797578296737077,24.797687,59.478603,16.637420767746814,165.29567566376258,198.54314156361394,-5.9418468269534905,0.0018034898592226348,0.05942463860291964
2024-09-25T17:26:37+03:00,24.7,286.15,-166.0022025465607,10.692,2.2689128687180604,353.40036803669176,0.600001403060998,6.35688,6.7068,1.1974817918234204,173.4973499435646,9.998113525032863,24.797679,59.478635,16.930082911489947,171.2131254518433,191.05578741687475,-6.282271854084008,0.001938888026553726,0.061363526629473364
2024-09-25T17:26:38+03:00,24.7,286.15,-166.99914911008833,9.89496,3.3403439456126995,354.2025089498749,0.9000021045914972,6.648479999999999,6.492959999999999,0.6990085100596044,174.2020880315755,5.798332886723932,24.797678,59.478665,16.4411910424559,172.21864476558383,191.12169918002886,-6.587260474134627,0.0018034898582726068,0.06316701648774597
2024-09-25T17:26:39+03:00,24.7,286.15,-164.00257984155417,10.206,1.6100114043176132,353.199832808396,1.200002806121996,6.62904,6.492959999999999,-0.6990085100596044,172.79834143350496,0.8995437383553924,24.797686,59.478692,16.67868385124873,170.29117556968163,191.318835834636,-6.53409562395376,0.0016411794498659906,0.06480819593761196
2024-09-25T17:26:40+03:00,24.8,286.15,-161.99722755859628,10.303199999999999,2.5611213442347798,353.40036803669176,1.200002806121996,6.492959999999999,6.492959999999999,-0.6016056848873644,173.60048234668815,-1.0026761414789407,24.797683,59.478732,16.600015711852794,168.940550909977,193.6205704342578,-6.372377129869182,0.0024060521108578183,0.06721424804846977
2024-09-25T17:26:41+03:00,24.8,286.15,-164.00257984155417,9.50616,6.027516004776261,354.3973146002194,2.499986747494321,6.37632,6.492959999999999,-1.0026761414789407,175.10163176993086,2.498095986770389,24.797683,59.478762,15.733991344673207,170.41512966050902,195.61238634426724,-6.287306828156917,0.001803231492579297,0.06901747954104907
2024-09-25T17:26:42+03:00,24.8,286.15,-166.99914911008833,9.408959999999999,7.058840036011743,356.20213165488144,0.0,6.318,6.39576,-0.49847328176381617,177.10125447493746,6.302535746439056,24.797684,59.478789,15.629769325397502,172.21669230397706,194.84214773203468,-6.259794396503678,0.001623195408671483,0.07064067494972055
2024-09-25T17:26:43+03:00,24.8,286.15,-170.99839452010147,9.60336,5.099324376664327,357.5027458498285,0.0,6.2208000000000006,6.39576,0.20053522829578813,177.3991925284055,6.600473799907084,24.797667,59.478811,15.777595017223511,174.5352163560575,190.56410802060682,-6.192525973210813,0.0014205509244769553,0.07206122587419751
2024-09-25T17:26:44+03:00,24.8,286.15,-172.00107066158043,9.992159999999998,10.18718959742604,356.50006970834954,0.0,6.201359999999999,6.39576,0.29793805346802804,176.4022459648779,5.2998596049601145,24.797667,59.478837,16.15624753437595,175.06284620618263,195.1243433912434,-6.17835107908738,0.0015628006267491166,0.07362402650094663
2024-09-25T17:26:45+03:00,24.8,286.15,-170.99839452010147,9.89496,8.531341569497958,356.20213165488144,0.0,6.47352,6.39576,1.0026761414789407,175.50270222652244,1.501149423242757,24.797675,59.478861,16.32021212354072,174.55655705693061,193.97478451256734,-6.4443265183654495,0.0014631096801511162,0.07508713618109775
2024-09-25T17:26:46+03:00,24.8,286.15,-168.0018252515673,9.992159999999998,8.411020432520486,353.80143849328334,0.0,6.55128,6.492959999999999,-0.49847328176381617,172.99887666180075,2.2975607584746007,24.797697,59.47889,16.456770496101523,172.74877847484566,195.6622419576748,-6.498884558936674,0.0018680180300744086,0.07695515421117216
2024-09-25T17:26:47+03:00,24.8,286.15,-164.99952640508178,9.70056,8.021409131831525,354.0019737215791,0.0,6.47352,6.492959999999999,-0.40107045659157625,174.2020880315755,3.5981749534215695,24.797718,59.478919,16.04123122182391,170.99506117205362,197.0263479597779,-6.393732910904797,0.0018572618308362852,0.07881241604200845
2024-09-25T17:26:48+03:00,24.8,286.15,-166.99914911008833,9.60336,5.517583567109828,351.40074533168513,0.0,6.39576,6.492959999999999,-0.49847328176381617,168.5011579700238,1.598552248414997,24.797744,59.478946,15.90040907850257,172.19093706193047,193.32664650517935,-6.3364480296347105,0.0018065861805436644,0.08061900222255211
2024-09-25T17:26:49+03:00,24.8,286.15,-162.9999037000752,9.60336,4.108107391088002,342.80064882677146,0.0,6.82344,6.492959999999999,2.498095986770389,160.10159669340592,7.500017538262475,24.797778,59.478952,16.251559132562402,170.05114426974248,194.05696312134552,-6.720831601488609,0.0010987578565335204,0.08171776007908563
2024-09-25T17:26:50+03:00,24.8,286.15,-161.00028099506864,9.60336,1.9824339711526484,332.80253530173866,0.0,6.84288,6.492959999999999,0.40107045659157625,147.80019283194716,15.00003507652495,24.797776,59.478975,16.227093565883308,168.89125018075197,193.0911837904007,-6.714666681250175,0.0013838248866646526,0.08310158496575028
2024-09-25T17:26:51+03:00,24.9,286.15,-157.99798214858313,9.195120000000001,346.31860968887486,321.40067517863525,0.0,6.6679200000000005,6.39576,1.7990874767107847,136.79940316543534,22.700587843083216,24.797748,59.479003,15.579004008838673,167.22508701776678,179.09352267110808,-6.502864082468239,0.0018876178636042474,0.08498920282935453
2024-09-25T17:26:52+03:00,24.9,286.15,-149.0025447650292,9.195120000000001,339.0993414702265,307.39758666563796,0.0,6.82344,6.39576,2.6012283898939375,121.10035957885079,27.301438937983725,24.797701,59.479043,15.44907170482308,162.15022023786173,176.94912123236475,-6.4949830641705635,0.0027998425092999437,0.08778904533865448
2024-09-25T17:26:53+03:00,24.9,286.15,-136.0021323935108,10.692,327.68029261326916,287.6992976690403,0.0,6.78456,6.39576,5.099324376664327,98.49717456093981,28.097850273215574,24.797653,59.479079,16.270077720958913,152.83965710238041,174.84063551088875,-6.036443796043116,0.002613293767147343,0.09040233910580182
2024-09-25T17:26:54+03:00,24.9,286.15,-121.9990438805135,12.091679999999998,307.0423528326569,264.9013070007848,0.0,7.36776,6.492959999999999,2.6012283898939375,76.50132480586751,26.00082474303676,24.797567,59.479105,17.17293270956527,143.33554273973056,163.70681009292633,-5.9100208297384995,0.0030551842360067322,0.09345752334180855
2024-09-25T17:26:55+03:00,24.9,286.15,-106.99900880398854,13.9968,285.407466488517,247.50057876266172,0.0,7.15392,6.492959999999999,3.701307356545118,61.598692554514805,20.700965138076644,24.797508,59.4791,17.482482324476766,130.036090934691,155.371375553826,-4.601902246077586,0.0018259290943381534,0.0952834524361467
2024-09-25T17:26:56+03:00,25.1,286.15,-93.00164986894255,15.49368,274.532727536934,232.39741128301318,0.0,6.74568,6.492959999999999,2.200157933302361,46.799192706285645,17.400728238123104,24.797442,59.479092,17.219296068508804,116.03169244329858,158.50103509363538,-2.960464684773612,0.0020712973648357165,0.09735474980098242
2024-09-25T17:26:57+03:00,25.3,286.15,-80.99818406095179,16.79616,263.6522590073996,221.59715684479718,0.0,6.53184,6.39576,0.29793805346802804,37.998560973076195,16.30064927147192,24.797397,59.479079,17.042425261893943,103.24200567395587,160.41025333344373,-1.4962131581492208,0.0015803607983244994,0.09893511059930692
2024-09-25T17:26:58+03:00,25.3,286.15,-69.99739439443997,17.80704,253.60257928080495,213.1975955681793,0.0,6.1236,6.29856,2.498095986770389,30.200605381345692,15.29797312999298,24.797367,59.479056,16.732898609868293,90.11119102335319,163.49138825745177,-0.011883753550556006,0.0016582795314442433,0.10059339013075116
2024-09-25T17:27:00+03:00,25.3,286.15,-50.99811390790188,18.701279999999997,237.7087300438759,208.7972797015746,0.0,5.28768,6.201359999999999,0.6016056848873644,29.301061642990298,11.997736230039438,24.797311,59.479014,15.913200117546616,65.96289295697044,171.74583708690545,2.153821210333732,0.003048843466051183,0.10364223359680234
2024-09-25T17:27:01+03:00,25.3,286.15,-44.999245792882164,19.40112,237.76029624543773,210.90003480970472,4.999973494988642,5.1127199999999995,6.10416,-0.09740282517223994,32.49816613982029,14.902632251352712,24.797269,59.479,16.19450974444641,57.89839361925091,179.8619026261868,2.7170135737887526,0.0015335872415938928,0.10517582083839623
2024-09-25T17:27:02+03:00,25.3,286.15,-39.997324241390075,19.59552,233.38862826858957,217.99898189137562,8.500000778104303,4.62672,6.006959999999999,-1.0026761414789407,42.30147401450868,20.700965138076644,24.797243,59.478988,16.32426869360052,50.49365141100955,182.89497685758002,2.9433513848251556,0.001072465781644649,0.10624828662004088
2024-09-25T17:27:02+03:00,25.2,286.15,-35.99807883137692,18.99288,240.29849927786725,231.80153517607715,10.200023852036967,4.1212800000000005,5.79312,-1.9996227050065731,57.100973862737845,29.50159687128609,24.797182,59.478975,15.844866101013949,44.79176951562306,195.5067297622442,2.9247568110092126,0.002019391902340342,0.10826767852238121
2024-09-25T17:27:03+03:00,25.2,286.15,-33.00150956284272,18.00144,246.7786519407969,242.8997276677612,9.700003584226298,4.548959999999999,5.598719999999999,1.902219879834333,66.89855215947492,30.200605381345692,24.79712,59.478966,14.40115976837359,42.90822701505843,203.87042492573846,3.331863678386782,0.001968406248137726,0.11023608477051894
2024-09-25T17:27:04+03:00,25.2,286.15,-37.00075497285587,17.496,252.54833693776428,250.60028043431947,5.599974898049641,4.7628,5.50152,0.6016056848873644,72.89742027449465,29.10052641469451,24.797026,59.478948,13.989106087806396,48.824428952069695,203.72390798569458,3.135677950879521,0.003066642431628108,0.11330272720214704
2024-09-25T17:27:05+03:00,25.2,286.15,-42.999623087875584,17.5932,259.13735158176877,254.5021230191604,5.1000119260184835,5.03496,5.404319999999999,2.6012283898939375,75.80231629580791,28.29838550151136,24.796954,59.478942,14.328382459230792,56.865562216264976,202.2717893655038,2.7521362011661887,0.002227264617051603,0.11552999181919864
2024-09-25T17:27:06+03:00,25.8,286.15,-50.00116734437425,17.5932,267.3306480521395,257.4986922876946,2.7999874490248207,5.326560000000001,5.307119999999999,1.1974817918234204,78.59835033604632,26.602430427924123,24.796886,59.478941,14.745270797029058,66.06627508887418,201.26437296326532,2.1608770298583373,0.0020766384253678035,0.11760663024456644
2024-09-25T17:27:07+03:00,26.4,286.15,-54.99735931791503,17.5932,274.79055854474285,258.5987712543457,1.1000216708716675,5.48208,5.404319999999999,2.498095986770389,78.5009475108741,26.797236078268604,24.796834,59.47895,15.130326285755826,72.26219491459123,202.5283636301516,1.6701791701526914,0.0016770016548432374,0.11928363189940967
2024-09-25T17:27:08+03:00,26.4,286.15,-59.999280869407116,17.5932,277.8215052809849,259.6014473958247,0.0,5.96808,5.307119999999999,0.0,79.80156170582106,27.599376991451756,24.796799,59.478954,15.496411116859564,79.48227103234657,198.33923424863835,1.0894119159673465,0.0010951285752885123,0.12037876047469818
2024-09-25T17:27:09+03:00,26.4,286.15,-61.99890357441368,17.90424,279.2481701908606,255.60220198581158,0.0,6.5124,5.404319999999999,2.6012283898939375,73.09795550279043,28.29838550151136,24.79674,59.478964,15.92133337511339,83.16997279845833,196.07819739240227,0.7744828650673491,0.001898687687954838,0.12227744816265303
2024-09-25T17:27:10+03:00,26.6,286.15,-61.00195701088606,18.09864,279.31119554832503,247.30004353436593,0.0,6.72624,5.598719999999999,1.3006141949469687,63.1972448029298,28.89999118639872,24.796697,59.478992,15.961609489812798,82.62957564290198,196.68161990542305,0.8628668626524919,0.0021343631169010702,0.1244118112795541
2024-09-25T17:27:11+03:00,26.5,286.15,-59.00233430587948,18.99288,273.0888738932043,236.40238627097767,0.0,6.78456,5.79312,2.8017636181897254,51.801114257777726,25.10128100468137,24.796641,59.479008,16.553997967966648,79.57001878479551,193.51885510840881,1.2282346432579325,0.0019614134386493147,0.12637322471820342
2024-09-25T17:27:12+03:00,26.4,286.15,-54.00041275438739,19.809359999999998,260.39785873105654,227.802289766064,0.0,6.95952,5.90976,1.1000789666511805,45.00010522957485,18.90187766136586,24.796576,59.479004,16.696671637522634,73.70781419732765,186.6900445337289,1.952394543755332,0.001998700383013629,0.12837192510121706
2024-09-25T17:27:13+03:00,26.4,286.15,-52.00079004938082,20.5092,253.72862999573374,221.40235119445268,0.0,7.32888,6.201359999999999,2.4006931615981495,38.19909620137198,16.002711218003892,24.796516,59.478989,17.007749362596893,71.85138605477502,181.87724394095872,2.2828201000966684,0.0020414487921899785,0.13041337389340704
2024-09-25T17:27:14+03:00,26.2,286.15,-50.00116734437425,20.5092,247.20837028714502,216.2972972398371,0.0,7.36776,6.29856,0.49847328176381617,35.39733258318226,14.902632251352712,24.79645,59.478972,16.752810206409183,69.68967105398838,177.51869923315664,2.557384294178023,0.0022590288813402535,0.1326724027747473
2024-09-25T17:27:15+03:00,26.2,286.15,-46.0019219343611,20.7036,245.369175764775,210.99743763487695,0.0,6.84288,6.39576,1.7990874767107847,28.602053132930696,12.501939089754565,24.796394,59.478955,16.692611167610135,63.15297568288919,182.2162000818858,3.0903127628338676,0.001991576242880735,0.13466397901762803
2024-09-25T17:27:16+03:00,25.8,286.15,-42.002676524347955,20.898,240.8084317155337,204.901166694685,0.0,6.39576,6.39576,0.0,22.098982158195852,9.797578296737077,24.796369,59.478942,16.702847757119454,56.84933501504531,183.95909670048837,3.497473500442147,0.0010922382172108076,0.13575621723483883
2024-09-25T17:27:17+03:00,25.6,286.15,-39.00037767786244,21.209039999999998,230.0425547450255,200.39771842495674,0.0,6.0264,6.39576,-0.09740282517223994,20.299894681485068,6.302535746439056,24.796333,59.478914,16.955277074619925,51.92568502590569,178.11686971911982,3.7163786687128755,0.002010026057506304,0.13776624329234513
2024-09-25T17:27:18+03:00,25.4,286.15,-35.99807883137692,21.209039999999998,225.8485036846679,200.30031559978448,0.0,5.65704,6.29856,-1.501149423242757,19.89882422489349,5.798332886723932,24.796303,59.478891,16.961379803870543,47.30308846498647,178.54541521968142,3.836152271030344,0.0016582820025081533,0.13942452529485327
2024-09-25T17:27:19+03:00,25.4,286.15,-35.99807883137692,21.209039999999998,224.62237400308794,198.5012281230737,0.0,5.79312,6.29856,0.09740282517223994,17.498131063295343,5.202456779787875,24.796267,59.478867,16.869397696247873,47.642775032710176,176.97959897037776,3.9031197830589064,0.00181348207611786,0.14123800737097114
2024-09-25T17:27:20+03:00,25.3,286.15,-35.99807883137692,21.209039999999998,221.25911174567,195.99740255835198,0.0,5.69592,6.201359999999999,-0.8995437383553924,14.598964619933378,5.500394833255903,24.796236,59.478843,16.935038603743944,47.399765066966836,173.85934667870316,3.8554485649661627,0.0017252686660848148,0.14296327603705597
2024-09-25T17:27:21+03:00,25.3,286.15,-35.99807883137692,21.209039999999998,216.48064373427897,195.40152645141598,1.5999846429028237,5.3654399999999995,6.006959999999999,0.09740282517223994,16.197516868348373,4.898789148368539,24.796215,59.478826,17.160457901102795,46.58752024659029,169.89312348768868,3.6873758463154314,0.0012062676612263775,0.14416954369828236
2024-09-25T17:27:22+03:00,25.3,286.15,-35.99807883137692,21.209039999999998,217.97033400161908,198.5012281230737,3.50002728311566,5.1710400000000005,6.006959999999999,0.29793805346802804,20.397297506657306,3.9992454100131463,24.796194,59.478806,17.294635029157757,46.11967405552264,171.85065994609644,3.5843289563268437,0.001362394286792025,0.14553193798507438
2024-09-25T17:27:23+03:00,25.3,286.15,-35.99807883137692,21.209039999999998,218.06773682679133,202.99894681485068,2.199986045963822,4.60728,5.90976,-1.501149423242757,24.499675319793997,5.500394833255903,24.796169,59.47879,17.690075431735536,44.80343838190427,173.26429844488706,3.2689962343297885,0.0012277276089496252,0.146759665594024
2024-09-25T17:27:25+03:00,25.3,286.15,-14.999175639832256,20.9952,220.4684299883895,206.797656996568,1.4000223724021665,4.14072,5.50152,0.20053522829578813,27.702509394575305,11.79720100174365,24.796153,59.478785,17.029308320390168,18.607133486671955,201.86129650171753,3.9242791467536247,0.0005734770108580804,0.1473331426048821
2024-09-25T17:27:26+03:00,25.3,286.15,-12.999552934825683,20.606399999999997,220.29081307189895,208.60247405123013,0.6999825383113268,4.29624,5.307119999999999,-0.09740282517223994,29.301061642990298,15.401105533116528,24.79613,59.478766,16.448679181756457,16.367797882483273,203.92301518941568,4.122124168743467,0.0013406032502059886,0.14867374585508808
2024-09-25T17:27:27+03:00,25.3,286.15,-14.002229076304623,20.29536,226.03757975706108,208.0008683663428,0.2000195662801704,4.52952,5.09328,1.3980170201192088,26.997771306564392,15.20057030482074,24.796119,59.478754,15.938154367120145,17.9451908879864,208.09238886907468,4.309166491460849,0.0007956233385584684,0.14946936919364656
2024-09-25T17:27:28+03:00,25.3,286.15,-16.99879834483883,19.809359999999998,226.5303234608736,207.59979790975117,0.0,4.52952,4.996079999999999,0.29793805346802804,27.799912219747544,13.298350424986406,24.796089,59.478734,15.534274588441468,21.888887384646267,204.64143607622734,4.202980462546421,0.0015112372811447322,0.1509806064747913
2024-09-25T17:27:30+03:00,25.3,286.15,-16.0018517813112,19.69272,226.50740514906838,211.79957854806014,3.9000091198964877,4.1796,4.80168,0.09740282517223994,33.00236899953541,14.702097023056925,24.796039,59.478721,15.717355996902498,20.20577354689439,206.30163160217398,3.922379989653867,0.0017147035976726498,0.15269531007246395
2024-09-25T17:27:31+03:00,25.3,286.15,-16.99879834483883,19.69272,232.7984817396048,216.2972972398371,4.099971390397145,4.00464,4.704479999999999,1.501149423242757,38.19909620137198,16.59858732493995,24.796007,59.478708,15.906184264656082,21.21982962246409,211.5786521171407,3.7331197612080196,0.0012509198000763705,0.15394622987254034
2024-09-25T17:27:32+03:00,25.3,286.15,-18.998421049845405,19.40112,230.82177734640345,219.09906085802677,0.0,4.16016,4.704479999999999,0.29793805346802804,39.70024562461474,23.898069634906637,24.795974,59.478701,15.526751017597155,24.002353828098393,206.81942351830506,3.800425753352788,0.0010917044726128334,0.15503793434515317
2024-09-25T17:27:33+03:00,25.3,286.15,-18.998421049845405,18.895680000000002,229.09717438305967,220.10173699950576,0.0,4.45176,4.60728,1.701684651538545,40.10131608120632,27.301438937983725,24.795937,59.478696,14.75774932056632,24.634043751999627,204.46313063106004,4.046599110803336,0.001168771416895917,0.1562067057620491
2024-09-25T17:27:34+03:00,25.3,286.15,-18.998421049845405,18.29304,234.66059457377995,217.7010438379076,0.0,4.5684000000000005,4.60728,1.701684651538545,36.49741154983344,25.89769233991321,24.795901,59.478691,14.052411202439902,25.07357292305244,209.5870216507275,4.137893903181165,0.0011392988647467754,0.15734600462679588
2024-09-25T17:27:35+03:00,25.4,286.15,-20.998043754851974,18.00144,235.37106223974217,213.10019274300709,0.0,4.41288,4.60728,1.3006141949469687,30.60167583793727,24.499675319793997,24.795867,59.478687,13.97138221491048,27.496758988436625,207.87430325130555,3.9143876211242827,0.0010653762992145284,0.1584113809260104
2024-09-25T17:27:36+03:00,25.7,286.15,-24.000342601337486,18.195839999999997,233.65218885434973,209.79995584305354,0.0,4.704479999999999,4.60728,-0.20053522829578813,29.702132099581874,25.10128100468137,24.795832,59.47869,14.029204129834982,31.83962314027542,201.8125657140743,3.9965878206927195,0.0010835284227943265,0.15949490934880473
2024-09-25T17:27:37+03:00,25.8,286.15,-24.000342601337486,18.195839999999997,229.65867302228787,210.90003480970472,0.0,4.7628,4.60728,1.1974817918234204,31.300684347996874,24.499675319793997,24.795805,59.478677,13.979693507836487,31.965719066419837,197.69295395586803,4.04059283664646,0.0011357402819245819,0.16063064963072932
2024-09-25T17:27:38+03:00,25.9,286.15,-24.000342601337486,18.195839999999997,231.222847802995,209.8973586682258,0.0,4.859999999999999,4.60728,0.8021409131831525,29.197929239866756,23.30219352797058,24.79576,59.478664,13.897327700358682,32.17787353481259,199.04497426818241,4.113498600579602,0.0015803754679587579,0.16221102509868807
2024-09-25T17:27:39+03:00,25.9,286.15,-24.000342601337486,18.195839999999997,230.87907312591656,211.1005700380005,3.9000091198964877,4.84056,4.704479999999999,1.598552248414997,32.40076331464805,21.10203559466822,24.795729,59.478646,13.913785546325432,32.135241744478776,198.7438313814378,4.098961550869569,0.0014373942760976392,0.1636484193747857
2024-09-25T17:27:40+03:00,25.9,286.15,-24.000342601337486,19.10952,227.5902953818656,213.99973648136248,2.000023775463165,4.87944,4.80168,0.29793805346802804,35.39733258318226,20.597832734953094,24.79569,59.47863,14.785747289729763,31.714372390465968,195.87592299139962,4.150838459355691,0.0015304448831296698,0.16517886425791536
2024-09-25T17:27:41+03:00,25.9,286.15,-24.000342601337486,19.10952,231.36035767382643,219.00165803285458,0.5000202678106694,4.84056,4.80168,0.6990085100596044,40.399254134674344,22.597455439959663,24.795657,59.478617,14.818835794596389,31.635348105948026,199.7250095678784,4.121269744217298,0.0012749023616804255,0.1664537666195958
2024-09-25T17:27:42+03:00,25.8,286.15,-24.000342601337486,19.10952,236.5685440315656,220.50280745609732,1.899985344433323,4.957199999999999,4.80168,1.598552248414997,41.09826264473395,22.797990668255455,24.795604,59.478611,14.719655228952568,31.873486039768267,204.69505799179734,4.209734222830303,0.0016576026655316313,0.16811136928512743
2024-09-25T17:27:43+03:00,25.8,286.15,-24.000342601337486,19.10952,237.1300426707938,223.2014386711635,2.7000063137744914,4.91832,4.89888,0.8995437383553924,44.79957000127907,21.89844692990006,24.795572,59.478605,14.752687037726073,31.793751007825563,205.33629166296825,4.180326873995716,0.0010412903850006141,0.16915265967012805
2024-09-25T17:27:44+03:00,25.7,286.15,-25.99996530634406,19.20672,237.59986806280105,228.39816587300007,1.200002806121996,4.93776,4.89888,0.29793805346802804,50.20256200936274,26.29876279650479,24.795508,59.478595,14.926471276770405,34.33813869546336,203.2617293673377,4.077222014086226,0.0020440585166946255,0.17119671818682267
2024-09-25T17:27:45+03:00,25.7,286.15,-25.99996530634406,19.20672,245.13999264672273,228.90236873271516,0.0,5.404319999999999,4.996079999999999,1.3980170201192088,48.3003421295284,31.300684347996874,24.795437,59.478572,14.543603304090258,35.37499672943051,209.76499591729223,4.406577199242188,0.002570745763386004,0.17376746395020867
2024-09-25T17:27:46+03:00,25.7,286.15,-27.99958801135063,18.99288,246.93908012343348,223.0009034428677,0.0,5.52096,5.09328,1.598552248414997,39.70024562461474,36.49741154983344,24.795395,59.478552,14.354090045905783,38.40247183742164,208.53660828601184,4.326592278911353,0.001757547269375805,0.17552501121958447
2024-09-25T17:27:47+03:00,26.4,286.15,-25.99996530634406,19.10952,243.82791929587316,217.09943815302023,0.0,5.46264,5.09328,-0.6016056848873644,35.59786781147805,38.30222860449553,24.795355,59.478529,14.400233998300976,35.572331806623,208.25558748925016,4.443211814130066,0.0018445103820394833,0.17736952160162395
2024-09-25T17:27:48+03:00,27.8,286.15,-25.99996530634406,19.49832,238.68275829559832,213.30072797130285,0.0,5.326560000000001,5.20992,2.498095986770389,30.899613891405295,35.59786781147805,24.795333,59.478519,14.894999793831419,35.01911160772957,203.66364668786875,4.3622431799018795,0.0009012846423171165,0.17827080624394107
2024-09-25T17:27:49+03:00,28.8,286.15,-24.000342601337486,20.39256,239.89169924332435,206.4997189431,0.0,5.5598399999999994,5.20992,-0.40107045659157625,25.198683829853607,31.70175480458845,24.795289,59.478509,15.47948504727402,32.40083263956248,207.49086660376187,4.694284879483542,0.0014715216008875226,0.17974232784482858
2024-09-25T17:27:50+03:00,28.8,286.15,-25.99996530634406,20.9952,235.84088763174947,205.60017520474463,0.0,5.46264,5.20992,2.498095986770389,24.499675319793997,29.702132099581874,24.79525,59.478494,16.262681910115226,34.46749068969629,201.37339694205318,4.50365951847401,0.0014934094985082677,0.18123573734333684
2024-09-25T17:27:51+03:00,28.8,286.15,-24.000342601337486,22.00608,232.48908453023412,203.80108772803382,1.200002806121996,5.5598399999999994,5.20992,-1.1974817918234204,24.900745776385577,25.198683829853607,24.795203,59.478484,17.07732065830779,31.60994286362967,200.87914166660445,4.734959848501173,0.001555563179228706,0.18279130052256554
2024-09-25T17:27:52+03:00,28.0,286.15,-24.000342601337486,21.597839999999998,224.5994556912827,205.89811325821262,0.0,5.598719999999999,5.307119999999999,3.9018425848409057,25.301816232977153,21.89844692990006,24.795162,59.478467,16.639730773749307,31.866258567871796,192.73319712341092,4.7548962466982605,0.001615735172835207,0.18440703569540073
2024-09-25T17:27:53+03:00,26.8,286.15,-24.000342601337486,21.90888,220.18768066877536,207.80033313804697,4.2000098214269865,5.3654399999999995,5.50152,-2.200157933302361,30.899613891405295,18.90187766136586,24.795143,59.478451,17.146765782340946,31.31248148944303,188.87519917933233,4.5839402503601505,0.0011230827128790798,0.18553011840827982
2024-09-25T17:27:54+03:00,26.5,286.15,-27.002641447823002,20.9952,220.98982158195852,214.69874499142207,3.2000265815851607,4.996079999999999,5.598719999999999,2.899166443361966,36.4000087246612,18.90187766136586,24.795117,59.478418,16.69855351345524,34.80999854198316,186.17982303997536,4.102029499785238,0.0021364526036497826,0.1876665710119296
2024-09-25T17:27:55+03:00,26.0,286.15,-24.997289164865123,21.597839999999998,230.3920590000553,217.99898189137562,2.199986045963822,4.93776,5.598719999999999,-0.6990085100596044,38.600166657963555,18.300271976478495,24.795084,59.478402,17.249278356938564,31.945144303615365,198.44691469643993,4.189961226833182,0.0013927363093413454,0.18905930732127094
2024-09-25T17:27:56+03:00,25.7,286.15,-25.99996530634406,20.8008,235.66900029321022,216.8015000995522,0.8000209693411684,5.307119999999999,5.598719999999999,1.7990874767107847,36.60054395295699,22.001579333023614,24.795042,59.478385,16.198727906294533,34.25742601512013,201.4115742780901,4.38642382863329,0.0016394977076352737,0.1906988050289062
2024-09-25T17:27:57+03:00,25.7,286.15,-24.000342601337486,21.306240000000003,236.16747357497403,217.2025705561438,0.0,5.326560000000001,5.598719999999999,-0.09740282517223994,37.099017234720804,26.00082474303676,24.794999,59.478367,16.582339947285174,31.507684043328112,204.6597895316459,4.54126570361766,0.0017010632108753262,0.19239986823978153
2024-09-25T17:27:58+03:00,25.7,286.15,-22.000719896330917,20.606399999999997,235.2220932130082,214.60134216624982,0.0,5.28768,5.598719999999999,2.200157933302361,33.1971746498799,25.50235146127294,24.794964,59.478359,15.828212461440684,29.189994322320217,206.032098890688,4.616183027903102,0.0011716515732940482,0.19357151981307558
2024-09-25T17:27:59+03:00,25.7,286.15,-22.000719896330917,20.39256,235.07885376422547,212.0001137763559,0.0,5.443199999999999,5.50152,0.6016056848873644,31.100149119701083,23.30219352797058,24.794933,59.478344,15.480623617685286,29.56976905948639,205.50908470473908,4.734252738814453,0.0013070721395076039,0.19487859195258317
2024-09-25T17:28:00+03:00,25.7,286.15,-22.000719896330917,20.5092,233.38862826858957,208.69987687640236,0.0,5.404319999999999,5.50152,1.9996227050065731,27.398841763155968,18.90187766136586,24.794894,59.478322,15.630101592934668,29.44311587001539,203.94551239857418,4.7063204707077695,0.0017793360851555459,0.1966579280377387
2024-09-25T17:28:01+03:00,25.7,286.15,-22.99766645985855,20.606399999999997,230.95928721723482,205.69757802991683,0.0,5.42376,5.50152,-0.8995437383553924,24.900745776385577,17.498131063295343,24.794863,59.4783,15.756853055721097,30.726390552691583,200.23289666454323,4.662356426223861,0.0016260967242522394,0.19828402476199095
2024-09-25T17:28:01+03:00,25.7,286.15,-22.99766645985855,20.606399999999997,229.52116315145645,205.89811325821262,0.5000202678106694,5.0544,5.50152,0.8995437383553924,26.499298024800574,15.20057030482074,24.794848,59.47828,16.0754689934201,30.05374264108977,199.46742051036668,4.374866397339986,0.0012864083481976942,0.19957043311018863
2024-09-25T17:28:02+03:00,25.7,286.15,-22.000719896330917,20.5092,225.29846420134228,206.9981922248638,0.9000021045914972,5.307119999999999,5.50152,0.40107045659157625,27.501974166279513,11.900333404867197,24.794829,59.478265,15.714820279543101,29.26891272560374,196.02955147573854,4.629584778537837,0.0010720622321086204,0.20064249534229725
2024-09-25T17:28:03+03:00,25.6,286.15,-22.000719896330917,20.5092,225.53910647529727,208.40193882293434,0.5000202678106694,5.1127199999999995,5.50152,0.8995437383553924,28.498920729807146,10.702851613043778,24.794807,59.478243,15.88468648365776,28.926088849359104,196.61301762593817,4.4748794476919524,0.001483134937880112,0.20212563028017735
2024-09-25T17:28:04+03:00,25.6,286.15,-22.000719896330917,20.8008,227.14911787961486,209.7025530178813,1.1000216708716675,5.22936,5.50152,-0.49847328176381617,30.899613891405295,12.501939089754565,24.794773,59.478231,16.072084537143187,29.001866603651962,198.1472512759629,4.57361871515687,0.0012639270142227837,0.20338955729440014
2024-09-25T17:28:05+03:00,25.6,286.15,-22.000719896330917,20.9952,230.38059984415273,210.60209675623668,0.300000701530499,5.19048,5.404319999999999,1.598552248414997,30.097472978222147,13.699420881577984,24.794738,59.478228,16.299095163957453,28.852306417608588,201.52829342654414,4.5461676171315855,0.0010835427385256105,0.20447310003292576
2024-09-25T17:28:06+03:00,25.6,286.15,-20.00109719132434,20.8008,231.19992949118975,210.49896435311317,0.2000195662801704,5.22936,5.404319999999999,1.9996227050065731,29.902667327877666,13.602018056405743,24.794691,59.478221,15.987214373099425,26.424765482228594,204.77516400896116,4.682993788802682,0.0014951753160814846,0.20596827534900725
2024-09-25T17:28:08+03:00,25.5,286.15,-20.00109719132434,20.7036,227.49862213464465,212.4011842329475,2.9000258800546614,5.443199999999999,5.307119999999999,-1.1000789666511805,34.400386019654626,15.802175989708104,24.79461,59.478182,15.699484836582767,26.811758459542716,200.68686367510193,4.858019360943241,0.003407246450823405,0.20937552179983066
2024-09-25T17:28:09+03:00,25.5,286.15,-20.00109719132434,20.39256,235.5085721105736,215.79882395807326,0.3999818367808277,5.46264,5.20992,2.200157933302361,35.59786781147805,16.701719728063498,24.794542,59.478168,15.3733574244225,26.981910730491848,208.52666138008175,4.868030611425668,0.002239898553702812,0.21161542035353348
2024-09-25T17:28:10+03:00,25.5,286.15,-20.998043754851974,20.39256,232.78129300575088,214.2002717096583,0.300000701530499,5.26824,5.20992,0.0,34.199850791358834,17.200193009827313,24.794507,59.478153,15.588897375225603,27.95357903812487,204.827713967626,4.6535821549272525,0.0013980214750799237,0.2130134418286134
2024-09-25T17:28:11+03:00,25.5,286.15,-22.000719896330917,20.5092,234.67205372968255,213.90233365619022,0.0,4.78224,5.20992,1.3006141949469687,33.500842281299235,19.297218540006124,24.794471,59.478142,16.174727109855436,28.359853580117743,206.3122001495648,4.2082833057863045,0.0012825299033995532,0.21429597173201295
2024-09-25T17:28:12+03:00,25.5,286.15,-22.000719896330917,20.7036,238.94058930340722,215.1972182731859,2.7000063137744914,4.548959999999999,5.20992,0.09740282517223994,35.99893826806962,19.497753768301912,24.794417,59.478132,16.573741495620546,27.90234108489969,211.03824821850753,4.020127523708443,0.0017546110211189348,0.21605058275313188
2024-09-25T17:28:13+03:00,25.6,286.15,-22.000719896330917,20.19816,237.94937231783086,217.39737620648825,3.6999895536163168,5.0544,5.09328,1.3980170201192088,39.29917516802316,19.102412889661643,24.794372,59.478121,15.626962832597526,28.960171642879317,208.98920067495155,4.422380155851472,0.001524541372633845,0.21757512412576574
2024-09-25T17:28:14+03:00,25.6,286.15,-24.000342601337486,20.003759999999996,240.1323415172793,221.49975401962493,2.3000244769936637,5.1127199999999995,5.20992,0.0,42.89735012144474,22.402649789615186,24.794336,59.47811,15.473448498921432,31.723996130965475,208.4083453863138,4.348833419383113,0.0012825307954676681,0.2188576549212334
2024-09-25T17:28:15+03:00,25.6,286.15,-24.997289164865123,19.90656,245.71868001980485,225.40159660446585,2.400005612243992,5.326560000000001,5.20992,1.1974817918234204,46.701789881113406,27.799912219747544,24.794296,59.478099,15.246021901184038,33.48728666419984,212.231393355605,4.442395093834171,0.0013885886752888655,0.22024624359652228
2024-09-25T17:28:16+03:00,25.6,286.15,-24.997289164865123,19.59552,246.95053927933614,225.6995346579339,0.3999818367808277,5.46264,5.20992,2.899166443361966,45.29804328304288,30.802211066233056,24.794269,59.478085,14.825392356847143,33.95493415931986,212.99560512001628,4.5311350462939926,0.0011779130249226512,0.22142415662144493
2024-09-25T17:28:17+03:00,25.7,286.15,-25.99996530634406,19.10952,249.80959867703896,224.70258809440625,0.0,5.52096,5.20992,0.40107045659157625,44.501631947811035,35.50046498630581,24.794228,59.478075,14.352837670173633,35.707764785389145,214.10183389164982,4.48304401818292,0.0013884493614501664,0.2228126059828951
2024-09-25T17:28:18+03:00,26.0,286.15,-24.997289164865123,19.49832,247.5406858083209,224.89739374475073,0.0,5.52096,5.20992,1.9996227050065731,44.39849954468749,34.89885930141844,24.79419,59.478068,14.681080247273263,34.141126401421786,213.3995594068991,4.569465053460297,0.0012339675279541174,0.22404657351084922
2024-09-25T17:28:19+03:00,26.7,286.15,-24.997289164865123,19.49832,247.50057876266172,222.39929775798035,0.0,5.3654399999999995,5.20992,1.1974817918234204,40.69719218814238,33.39770987817568,24.794149,59.478062,14.810054775913446,33.80345202835127,213.69712673431044,4.458417472500479,0.001302522558635264,0.2253490960694845
2024-09-25T17:28:20+03:00,27.2,286.15,-27.002641447823002,19.809359999999998,246.49790262118276,217.79844666307986,0.0,5.7348,5.307119999999999,1.1000789666511805,36.30260589948897,33.70137750959502,24.794094,59.47805,14.928560041699953,37.04731833281596,209.4505842883668,4.577163077658677,0.0018273526418227566,0.22717644871130727
2024-09-25T17:28:21+03:00,27.4,286.15,-25.99996530634406,20.5092,242.9914009149821,214.80187739454564,0.0,5.754239999999999,5.404319999999999,0.8021409131831525,33.798780334767265,32.40076331464805,24.794052,59.478027,15.543371405940915,35.339641679867555,207.65175923511455,4.693949857738252,0.0018854952405212469,0.22906194395182852
2024-09-25T17:28:22+03:00,27.7,286.15,-24.997289164865123,21.306240000000003,239.14112453170299,212.29805182982392,0.5000202678106694,5.79312,5.50152,2.8017636181897254,31.5986224014649,24.900745776385577,24.794,59.478011,16.241328210458608,33.66643161912137,205.47469291258162,4.821492415334273,0.0018560002294279606,0.2309179441812565
2024-09-25T17:28:23+03:00,27.7,286.15,-27.99958801135063,21.69504,234.32254947465276,213.50126319959867,2.7000063137744914,5.94864,5.598719999999999,0.8021409131831525,34.80145647624621,19.102412889661643,24.793944,59.478,16.678155428997712,37.6389073233278,196.68364215132496,4.710580103031118,0.0018329124854844358,0.23275085666674092
2024-09-25T17:28:24+03:00,27.7,286.15,-29.999210716357208,22.103279999999998,232.448977484575,219.00165803285458,4.299990956677315,5.67648,5.598719999999999,0.40107045659157625,41.29879787302974,16.799122553235737,24.793893,59.477978,17.420025851972177,39.37597393427967,193.07300355029534,4.387917164523423,0.002042671406074428,0.23479352807281534
2024-09-25T17:28:25+03:00,27.4,286.15,-29.999210716357208,22.00608,234.79237486666008,223.99785000639537,3.099988150555319,5.346,5.598719999999999,1.0026761414789407,45.80224614275801,16.99965778153153,24.793841,59.477958,17.58065399117239,38.744289724916484,196.0480851417436,4.169595917270468,0.001991232650686775,0.2367847607235021
2024-09-25T17:28:26+03:00,26.7,286.15,-29.999210716357208,21.69504,238.2186624815424,226.19800793969773,2.000023775463165,5.1710400000000005,5.598719999999999,1.3006141949469687,47.200263162877214,21.39997364813625,24.793795,59.47794,17.40980060656591,38.53956258546205,199.67909989608034,4.0446743745733444,0.0017727026556358125,0.2385574633791379
2024-09-25T17:28:27+03:00,26.3,286.15,-29.999210716357208,20.9952,241.55900642715508,227.20068408117663,0.0,5.26824,5.69592,1.3980170201192088,46.90232510940919,24.499675319793997,24.79376,59.477929,16.642505974668428,39.10587221262011,202.45313421453497,4.088058175632912,0.0012564767457187453,0.23981394012485666
2024-09-25T17:28:28+03:00,26.3,286.15,-31.00188685783615,20.39256,246.44060684166965,225.9974727114019,0.0,5.754239999999999,5.69592,0.6990085100596044,44.90270240440262,26.401895199628335,24.793752,59.477916,15.741836725646307,41.85409624801608,204.58651059365357,4.2860246942865246,0.0008186743033113215,0.24063261442816797
2024-09-25T17:28:29+03:00,26.3,286.15,-29.999210716357208,20.19816,241.0777218792452,223.90044718122311,0.0,5.94864,5.69592,1.598552248414997,43.69949103462789,26.401895199628335,24.793722,59.477895,15.337590573197934,41.18078767291192,199.89693420633327,4.47715905211814,0.001559490365637291,0.24219210479380526
2024-09-25T17:28:30+03:00,26.3,286.15,-29.999210716357208,20.19816,240.91729369660854,222.59983298627614,0.0,6.08472,5.79312,1.7990874767107847,41.69986832962131,25.3992190581494,24.793681,59.47788,15.235435375067553,41.51774808203973,199.3995456145688,4.555936716666513,0.0015425390365306135,0.24373464383033588
2024-09-25T17:28:31+03:00,26.6,286.15,-29.999210716357208,20.10096,238.71140618535486,221.40235119445268,0.0,5.773680000000001,5.79312,0.40107045659157625,40.69719218814238,24.900745776385577,24.793643,59.477867,15.374218737771,40.82170890347217,197.8896972818827,4.369217476147639,0.001398657979572348,0.24513330180990822
2024-09-25T17:28:32+03:00,26.7,286.15,-29.999210716357208,20.003759999999996,238.65983998379312,220.10173699950576,0.5000202678106694,5.69592,5.79312,1.701684651538545,40.10131608120632,24.098604863202425,24.793596,59.477857,15.337626861896316,40.699996839778095,197.95984314401503,4.318272733101905,0.0015555877422899894,0.2466888895521982
2024-09-25T17:28:33+03:00,26.8,286.15,-31.00188685783615,19.90656,240.2583922322081,218.49745517313943,0.0,5.96808,5.90976,1.9996227050065731,37.798025744780404,24.098604863202425,24.793542,59.477846,15.107065583634474,42.74230942625755,197.51608280595056,4.383039209892229,0.0017761130200912932,0.24846500257228948
2024-09-25T17:28:34+03:00,26.9,286.15,-31.00188685783615,19.809359999999998,238.04104556505186,219.90120177120997,0.8000209693411684,5.90976,5.79312,-0.6016056848873644,41.09826264473395,23.600131581438607,24.793481,59.477831,15.05474308391132,42.66693937316788,195.37410619188398,4.34548070000777,0.0020689376066007317,0.2505339401788902
2024-09-25T17:28:35+03:00,26.9,286.15,-29.999210716357208,19.809359999999998,240.3787133691856,222.30189493280812,1.1000216708716675,6.0652800000000004,5.79312,2.200157933302361,42.30147401450868,21.199438419840458,24.793428,59.47782,14.869162446769556,41.76725838632095,198.61145498286464,4.52383013314936,0.0017478182102657691,0.25228175838915595
2024-09-25T17:28:36+03:00,26.9,286.15,-29.999210716357208,19.809359999999998,240.87145707299806,224.89739374475073,2.3000244769936637,6.318,5.90976,-0.6990085100596044,46.10018419622604,20.500429909780856,24.793382,59.477807,14.681634633305412,42.42422141516437,198.4472356578337,4.663759435651332,0.001607011263583329,0.25388876965273927
2024-09-25T17:28:37+03:00,26.9,286.15,-29.999210716357208,19.809359999999998,243.24923192279098,227.40121930947245,1.5999846429028237,6.201359999999999,5.90976,2.1027551081301215,48.00240407606037,23.600131581438607,24.793339,59.477791,14.767944440385431,42.118934758326105,201.13029716446488,4.5998850860432645,0.0016272661598661618,0.2555160358126054
2024-09-25T17:28:38+03:00,26.9,286.15,-29.999210716357208,19.809359999999998,245.70722086390225,225.9974727114019,0.0,6.1624799999999995,6.006959999999999,1.1000789666511805,45.29804328304288,26.602430427924123,24.793317,59.477779,14.796806821340102,42.01796503965477,203.68925582424748,4.5783219780817594,0.0009855470536945935,0.2565015828663
2024-09-25T17:28:39+03:00,26.9,286.15,-29.999210716357208,19.809359999999998,244.6472489429102,224.39892046298692,0.0,6.14304,6.10416,1.598552248414997,43.4989558063321,26.29876279650479,24.79327,59.477772,14.811255193457777,41.96762782663478,202.67962111627543,4.567490094358546,0.0014951936164178032,0.2579967764827178
2024-09-25T17:28:40+03:00,26.9,286.15,-29.999210716357208,19.809359999999998,246.21142372361734,223.99785000639537,0.0,6.337439999999999,6.10416,0.6990085100596044,43.80262343775143,25.697157111617422,24.793213,59.477762,14.667290467328993,42.475451459602596,203.73597226401475,4.674284882692793,0.0018409352678562594,0.2598377117505741
2024-09-25T17:28:42+03:00,26.9,286.15,-35.00113226784929,17.70984,243.82791929587316,220.19913982467796,0.0,6.901199999999999,6.10416,1.3980170201192088,39.20177234285093,25.10128100468137,24.793142,59.477744,12.68998169553208,53.1771465566967,190.65077273917646,4.136185475729294,0.0024224600245790467,0.2622601717751531
2024-09-25T17:28:43+03:00,26.7,286.15,-35.00113226784929,17.70984,240.3901725250882,216.89890292472444,0.0,6.62904,6.10416,1.7990874767107847,36.199473496365414,23.600131581438607,24.793063,59.477735,12.854945133887732,52.206067263489416,188.18410526159877,4.062430684103154,0.0024715696348993088,0.2647317414100524
2024-09-25T17:28:44+03:00,26.7,286.15,-35.00113226784929,17.90424,238.10980050046751,218.4000523479672,0.3999818367808277,6.337439999999999,6.201359999999999,-0.29793805346802804,39.29917516802316,22.001579333023614,24.792992,59.477727,13.22248091098895,50.95830865007366,187.15149185039385,3.9918629300043134,0.002220124978818302,0.2669518663888707
2024-09-25T17:28:45+03:00,26.9,286.15,-33.99845612637036,18.29304,242.6991924394654,220.89814833473758,0.8000209693411684,6.35688,6.201359999999999,1.3980170201192088,41.60246550444908,19.89882422489349,24.792935,59.47772,13.499248520766399,49.26542238254751,193.4337700569179,4.148219003061507,0.001790192906533492,0.2687420592954042
2024-09-25T17:28:46+03:00,26.9,286.15,-33.99845612637036,18.29304,243.61019533372345,221.0986835630334,1.1000216708716675,6.492959999999999,6.201359999999999,1.501149423242757,41.40193027615329,22.597455439959663,24.792906,59.477711,13.410845140577774,49.70596269670489,193.90423263701857,4.199064798484033,0.001037487221632286,0.26977954651703645
2024-09-25T17:28:47+03:00,26.9,286.15,-37.00075497285587,18.40968,243.0888037401544,221.70028924792078,1.4000223724021665,6.6095999999999995,6.201359999999999,0.8995437383553924,42.398876839680916,24.20173726632597,24.792862,59.477696,13.720354594981686,53.85401289092103,189.23479084923338,3.8986374072829806,0.0016177390377242235,0.27139728555476067
2024-09-25T17:28:48+03:00,26.9,286.15,-35.99807883137692,17.70984,241.2381500618818,223.0009034428677,0.0,6.318,6.29856,1.1974817918234204,43.20101775286407,29.799534924754116,24.792857,59.477695,13.13423309464626,52.4213504359755,188.8167996259063,3.8530315821163232,0.00016404444780816952,0.2715613300025688
2024-09-25T17:28:49+03:00,26.9,286.15,-35.99807883137692,16.893359999999998,242.97994175907954,220.30227222780155,0.0,6.318,6.29856,1.501149423242757,38.502763832791324,29.902667327877666,24.792762,59.477668,12.353223195107201,53.49209707056012,189.48784468851943,3.7587908562296284,0.003323294703211437,0.27488462470578023
2024-09-25T17:28:50+03:00,27.0,286.15,-35.00113226784929,16.893359999999998,243.19766572122924,215.1972182731859,0.0,6.492959999999999,6.201359999999999,0.6990085100596044,33.1971746498799,28.000447448043335,24.792707,59.477657,12.159131368977933,52.83738591925011,190.36027980197912,3.9222623716069935,0.0018044904519295833,0.27668911515770983
2024-09-25T17:28:51+03:00,27.3,286.15,-33.99845612637036,17.398799999999998,238.68848787354963,211.39850809146856,0.0,6.39576,6.201359999999999,0.8021409131831525,30.802211066233056,26.797236078268604,24.792666,59.477651,12.613977866038214,50.46888539939107,188.21960247415856,4.070883069091428,0.001302537191683742,0.27799165234939355
2024-09-25T17:28:52+03:00,27.4,286.15,-35.99807883137692,17.496,232.39168170506193,211.39850809146856,0.0,6.18192,6.201359999999999,1.701684651538545,31.19755194487332,26.00082474303676,24.792608,59.477646,13.012192590401051,52.21269597037521,180.1789857346867,3.7878599021286723,0.0017959017351841075,0.27978755408457767
2024-09-25T17:28:53+03:00,27.5,286.15,-37.00075497285587,17.5932,231.148363289628,210.80263198453247,0.0,6.55128,6.201359999999999,1.1000789666511805,29.799534924754116,23.800666809734395,24.792566,59.477629,12.97472750063124,54.691398923372844,176.45696436625516,3.786509692831045,0.0016395201473975198,0.2814270742319752
2024-09-25T17:28:54+03:00,27.5,286.15,-37.00075497285587,17.90424,229.77899415926532,204.901166694685,0.0,6.92064,6.201359999999999,2.4006931615981495,21.49737647330849,21.801044104727822,24.792511,59.477607,13.059215083364066,55.59917979958128,174.17981435968403,3.910014986449303,0.002137215374343579,0.2835642896063188
2024-09-25T17:28:55+03:00,27.4,286.15,-35.99807883137692,18.00144,228.90236873271516,193.49930657158166,0.0,6.6679200000000005,6.201359999999999,1.501149423242757,9.001166961505232,18.999280486538098,24.792472,59.477581,13.201975245067622,53.26711891544022,175.63524981727494,3.987984094090851,0.0019646330278789204,0.2855289226341977
2024-09-25T17:28:56+03:00,27.3,286.15,-35.00113226784929,18.40968,223.6311570175116,183.19752541512943,0.0,6.47352,6.201359999999999,0.40107045659157625,-1.3980170201192088,15.29797312999298,24.79243,59.477555,13.622770777127679,50.81840701427345,172.81275000323816,4.089842466296379,0.002021445007484154,0.28755036764168185
2024-09-25T17:28:57+03:00,26.9,286.15,-31.99883342136378,18.798479999999998,203.15937499748728,170.9992539567942,0.0,6.006959999999999,6.201359999999999,0.6016056848873644,-13.802553284701533,9.998113525032863,24.792393,59.477523,14.069040020853432,45.07514249940661,158.08423249808067,4.241987889134739,0.0022305691742074696,0.28978093681588935
2024-09-25T17:28:58+03:00,26.7,286.15,-29.999210716357208,18.701279999999997,194.3186362186187,160.19899951857818,0.0,6.08472,6.10416,2.1027551081301215,-24.402272494621762,5.901465289847479,24.792389,59.477485,13.771946385878199,42.76138546362367,151.55725075499504,4.467326021203138,0.0022873549165530775,0.2920682917324424
2024-09-25T17:28:59+03:00,26.6,286.15,-24.997289164865123,18.798479999999998,185.39768334843177,149.59928030865794,0.0,5.69592,6.10416,1.1974817918234204,-34.102447966186595,1.7990874767107847,24.792369,59.477454,13.84690999445553,35.0076458473124,150.39003750111937,4.665388498992978,0.00196081623028558,0.294029107962728
2024-09-25T17:29:00+03:00,26.6,286.15,-18.00147448631777,18.40968,176.52829667980666,142.09926277039548,0.0,5.42376,5.90976,-0.20053522829578813,-40.80032459126592,1.902219879834333,24.792363,59.477398,13.357008997746656,25.21050943225677,151.3177872475499,4.907141105506102,0.0033710119200051772,0.2974001198827332
2024-09-25T17:29:01+03:00,26.6,286.15,-9.000307524812538,18.195839999999997,169.52102284535667,135.20085091702038,0.0,5.07384,5.79312,-0.20053522829578813,-48.09980690123261,1.501149423242757,24.792366,59.477367,13.208343283810096,12.445551303081828,157.07547154227484,4.954611106203529,0.0018655884636359,0.29926570834636906
2024-09-25T17:29:02+03:00,26.6,286.15,1.0026761414789407,18.09864,157.58058239483032,128.80091234540907,0.0,4.97664,5.69592,0.20053522829578813,-52.99859604960115,-2.200157933302361,24.792376,59.477352,13.123050992847215,1.3829032797894172,158.96348567461973,4.9751904823925726,0.000951894626650266,0.3002176029730193
2024-09-25T17:29:03+03:00,26.6,286.15,5.998868115019719,17.398799999999998,151.78797908605767,125.0022021636917,0.0,5.07384,5.50152,-0.6016056848873644,-56.201430124382455,-5.001921551492087,24.792386,59.477337,12.364120456402388,8.456870640811815,160.2448497268695,5.018671359259889,0.0009518946708787151,0.301169497643898
2024-09-25T17:29:04+03:00,26.6,286.15,11.997736230039438,17.009999999999998,147.96062101458378,123.99952602221278,0.0,5.0544,5.307119999999999,-0.8995437383553924,-56.49936817785048,-8.697499330085895,24.792434,59.47732,12.111667683124379,16.974335637485495,164.93495665206927,4.834208204734722,0.001786419999984531,0.3029559176438825
2024-09-25T17:29:05+03:00,26.6,286.15,16.002711218003892,16.60176,147.46214773281997,122.6989118272658,0.0,4.97664,5.20992,-1.3006141949469687,-58.09792042626548,-12.301403861458775,24.792465,59.477303,11.897342727218604,22.624661339616182,170.08680907243615,4.593661288290556,0.0013927385711664927,0.30434865621504903
2024-09-25T17:29:06+03:00,26.6,286.15,20.99890319154467,16.407359999999997,139.469386490745,119.30127210214,0.0,4.78224,5.20992,-0.49847328176381617,-63.002439152585325,-15.601640761412316,24.792494,59.477294,12.065049542037487,29.164795608494188,168.63418209923918,4.175955595917263,0.0010374965469420845,0.3053861527619911
2024-09-25T17:29:07+03:00,26.6,286.15,20.99890319154467,16.407359999999997,131.01825901256535,114.59728860411596,0.0,5.01552,4.996079999999999,-2.498095986770389,-67.00168456259847,-16.99965778153153,24.792518,59.477285,11.86188916371087,29.71391910468671,160.73217811725206,4.356034917405568,0.0009107351686526744,0.3062968879306438
2024-09-25T17:29:08+03:00,26.6,286.15,24.001202038030186,15.70752,128.4113010447201,109.2000261739836,0.0,5.46264,4.996079999999999,-3.798710181717358,-72.50207939585438,-17.69866629159113,24.792563,59.477274,10.945109083517002,35.71420081182785,164.12550185654794,4.435329752762751,0.0015245724095872654,0.30782146034023106
