time,dpt,mtw,awa,aws,cog,hdg,rot,sog,stw,pitch,yaw,roll,lng,lat,tws,twa,twd,vmg,dist,cum_dist
2026-07-01T18:20:40+03:00,22.68,293.37,58.99784145961429,14.696639999999999,345.9977533236015,345.82586598506225,0.6107730096094575,6.27912,0.0,0.08021409131831525,,-14.822418160034395,24.799616,59.47254,12.66314190411812,84.1500003934337,70.14775371703519,0.6399958459794434,0.0035895348404223182,0.0035895348404223182
2026-07-01T18:20:42+03:00,22.68,293.37,58.00089489608667,15.007679999999999,342.99545447711597,346.0550491031146,0.10800254438216017,6.27912,0.0,-0.10313240312354818,,-12.754040519612124,24.799585,59.472598,12.836915306052745,82.50906540904383,65.50451988615981,0.8186046231573677,0.0036124444955306645,0.007201979335952983
2026-07-01T18:20:44+03:00,22.68,293.36,54.00164948607352,15.007679999999999,349.9969987336147,345.63106033471786,0.2003633409572489,6.454079999999999,0.0,-0.06302535746439056,,-13.630665946162285,24.799561,59.47266,12.37026509287592,78.96930232677497,68.9663010603897,1.2348907496562227,0.0037980351178019405,0.011000014453754923
2026-07-01T18:20:46+03:00,22.68,293.37,52.998973344594575,15.007679999999999,348.9943225921357,345.1039391631974,-1.0133331564683739,6.940079999999999,0.0,-0.13178029288008933,,-15.217759038674664,24.799539,59.472722,12.166704689311716,80.09918034983383,69.09350294196952,1.1932995137372282,0.003786727882164387,0.01478674233591931
2026-07-01T18:20:48+03:00,22.68,293.37,56.99821875460771,15.10488,348.9943225921357,345.80867725120834,2.0439696383496986,6.62904,0.0,-0.14896902673401402,,-16.632964792647797,24.79952,59.472783,12.768163793654592,82.81001467046721,71.80433726260287,0.8296894594090889,0.003712176872852912,0.01849891920877222
2026-07-01T18:20:50+03:00,22.68,293.37,58.00089489608667,15.29928,351.9966214386213,346.4618491376575,-1.2212022445418367,6.37632,0.0,-0.3323155211758775,,-15.20057030482074,24.799501,59.472842,13.089593968574194,82.4014214876215,74.3980429262428,0.8431522615162687,0.0035934872930053555,0.022092406501777576
2026-07-01T18:20:52+03:00,22.68,293.36,58.00089489608667,14.40504,351.9966214386213,343.37360662190235,1.324277351885872,6.53184,0.0,-0.26356058576017866,,-15.20057030482074,24.799477,59.472904,12.26584262945058,84.84787648816358,76.84449792678487,0.5865617487625224,0.003798034096090489,0.025890440597868065
2026-07-01T18:20:54+03:00,22.68,293.37,54.00164948607352,14.21064,345.9977533236015,346.8629195942491,-0.622919714866231,6.4152,0.0,-0.27501974166279514,,-14.2666490987575,24.79945,59.472963,11.658966613305246,80.43527374775331,66.43302707135479,1.0659604964932263,0.0036409046290764207,0.029531345226944485
2026-07-01T18:20:56+03:00,22.68,293.37,52.002026781066945,14.79384,355.9958668486344,347.32701540830504,0.5480914268221455,6.14304,0.0,-0.37242256683503505,,-12.530586979511105,24.799439,59.473019,12.029053361786428,75.73253441149753,71.72840126013193,1.5139444321945184,0.0033827450733838024,0.03291409030032829
2026-07-01T18:20:58+03:00,22.68,293.37,50.999350639587995,15.396479999999999,348.9943225921357,348.8109760976939,2.1167925741108267,6.68736,0.0,-0.246371851906254,,-13.011871527420995,24.79942,59.473077,12.336070699705752,75.91512071150031,64.90944330363601,1.6274295636786074,0.0035341806031882897,0.03644827090351658
2026-07-01T18:21:00+03:00,22.65,293.37,50.00240407606037,15.396479999999999,353.99624414362785,350.077212824933,1.2706485022616267,6.53184,0.0,-0.22345354010102106,,-13.470237763525654,24.799404,59.473138,12.265239909352315,74.07981165457974,68.07605579820756,1.7916711330415422,0.003698969231441557,0.040147240134958136
2026-07-01T18:21:06+03:00,22.68,293.37,47.00010522957485,15.99912,351.9966214386213,351.22312841519465,-2.13581477290917,6.92064,0.0,-0.22918311805232927,,-13.756716661091067,24.799338,59.473341,12.362848337617514,71.1677332597045,63.16435469832578,2.233974009767425,0.0037867256985524463,0.043933965833510585
2026-07-01T18:21:08+03:00,22.68,293.37,48.00278137105379,15.901919999999999,353.99624414362785,349.1490211968211,1.9098975142890864,7.23168,0.0,-0.17188733853924698,,-15.017223810378876,24.799322,59.473407,12.299582482530065,73.91283243378008,67.90907657740792,2.0038946398975472,0.003997072050604321,0.04793103788411491
2026-07-01T18:21:10+03:00,22.68,293.37,45.99742908809592,15.901919999999999,353.99624414362785,352.56384965580077,2.0778887398214434,6.454079999999999,0.0,-0.32658594322456924,,-12.650908116488576,24.79931,59.47347,12.326023720855487,68.12314962753325,62.11939377116107,2.404873283368676,0.003804468093052472,0.05173550597716738
2026-07-01T18:21:12+03:00,22.68,293.37,45.000482524568284,16.69896,1.9996227050065731,352.11121299764744,-0.7667321214440677,6.43464,0.0,-0.2578310078088704,,-10.576800898114994,24.799319,59.473527,12.973101001658705,65.53226641039349,67.53188911540006,2.665103877011389,0.003437140860175999,0.05517264683734338
2026-07-01T18:21:14+03:00,22.65,293.37,45.000482524568284,16.60176,357.99548955364094,354.334289242755,4.373730624910652,6.78456,0.0,-0.26356058576017866,,-12.782688409368667,24.799322,59.473581,12.742024398897405,67.11790669279463,65.11339624643557,2.6380813918281576,0.003247108740481911,0.05841975557782529
2026-07-01T18:21:16+03:00,22.68,293.37,43.00085981956171,17.009999999999998,358.9981656951199,3.959138364353988,3.930203995699882,6.0652800000000004,0.0,-0.12032113697747288,,-13.785364550847607,24.799328,59.473628,13.237133628531925,61.21069512038777,60.20886081550765,2.9209787402654497,0.0028309955541825508,0.06125075113200784
2026-07-01T18:21:18+03:00,22.68,293.37,41.00123711455514,17.2044,9.998113525032863,12.037843275698597,5.6079390114019585,5.79312,0.0,-0.22918311805232927,,-12.427454576387557,24.799354,59.47367,13.383382639840487,57.49961655165632,67.49773007668918,3.112673805394885,0.002646382641667295,0.06389713377367513
2026-07-01T18:21:20+03:00,22.61,293.38,35.99931556306306,17.496,10.995060088560496,23.19906112484703,5.729463359749206,6.201359999999999,0.0,-0.6073352628386726,,-7.087487925768284,24.799383,59.473717,13.00039604277145,52.28200362914801,63.2770637177085,3.7938403013629864,0.0029605569625987074,0.06685769073627384
2026-07-01T18:21:22+03:00,22.61,293.37,30.997394011570965,18.00144,24.99814860155782,24.671562658333247,-3.2442589233692605,5.90976,0.0,-0.7849521793292279,,-0.8021409131831525,24.799428,59.473765,13.28886839643971,44.237238217004005,69.23538681856182,4.234090977537824,0.0031955843165521365,0.07005327505282598
2026-07-01T18:21:24+03:00,22.68,293.37,26.99814860155782,17.3016,36.99588483159726,21.010362347447288,-3.511142664341198,4.97664,0.0,-0.8995437383553924,,-0.21772396214971285,24.799479,59.473802,13.06413507521133,36.95647089212508,73.95235572372235,3.9767956703154432,0.002714877488406711,0.07276815254123269
2026-07-01T18:21:26+03:00,22.68,293.36,28.997771306564392,16.60176,30.99701671657754,5.9874089591171025,-10.192919175377344,4.91832,0.0,-0.7620338675239948,,-0.7047380880109125,24.799518,59.473843,12.528965906764888,39.96815363155454,70.96517034813209,3.769408324885128,0.0027369877089484405,0.07550514025018112
2026-07-01T18:21:28+03:00,22.53,293.37,37.00199170454199,15.29928,19.996227050065727,345.19561241041833,-9.581401320634217,4.52952,0.0,-0.22918311805232927,,-8.39383169866656,24.799552,59.47388,11.995795172413494,50.13728433396949,70.13351138403522,2.9031970898302433,0.002454310312770995,0.07795945056295212
2026-07-01T18:21:30+03:00,22.53,293.37,52.002026781066945,13.7052,352.9992975801002,332.18374088299737,-3.111275419119396,4.45176,0.0,0.05156620156177409,,-17.251759211389086,24.799545,59.473921,11.512092694298454,69.74421772223054,62.74351530233071,1.541251564012127,0.0024736656401307924,0.08043311620308291
2026-07-01T18:21:32+03:00,22.68,293.36,63.99976301110639,13.19976,330.99771824707665,331.67953802328225,1.3000985329313508,5.69592,0.0,0.05156620156177409,,-19.606615749376772,24.799498,59.47397,11.864187114003478,89.56283257014958,60.560550817226215,0.043459510761450694,0.003276232584283022,0.08370934878736594
2026-07-01T18:21:34+03:00,22.68,293.37,71.99825383113267,14.094,333.9942875156107,331.1466872738106,-0.37511546847215,6.35688,0.0,-0.02864788975654116,,-15.01149423242757,24.799446,59.474021,13.552620072424537,98.49137043538435,72.48565795099506,-0.9386597582578297,0.003452198684684349,0.0871615474720503
2026-07-01T18:21:36+03:00,22.68,293.37,75.00055267761819,14.91048,339.9988852085818,328.66578002089415,-1.698075017429221,6.25968,0.0,-0.31512678732195276,,-12.868632078638289,24.799402,59.474074,14.601167140654345,99.46345853594848,79.46234374453024,-1.029207509639442,0.0034573545997538292,0.09061890207180412
2026-07-01T18:21:38+03:00,22.68,293.37,75.99749924114583,14.696639999999999,332.9973409520831,329.61116038285996,1.0400902855009835,6.318,0.0,-0.24064227395494575,,-12.08940947726037,24.79935,59.474126,14.524942662606431,100.96162150989122,73.95896246197435,-1.2013767239251154,0.0035056800672064303,0.09412458213901055
2026-07-01T18:21:40+03:00,22.76,293.37,75.99749924114583,14.59944,336.99658636209637,332.6478366970533,2.530811876872359,6.39576,0.0,-0.20053522829578813,,-11.648231975009637,24.799302,59.474179,14.452086578713367,101.42692240083515,78.42350876293153,-1.267114749941101,0.0035066084557547512,0.0976311905947653
2026-07-01T18:21:42+03:00,22.68,293.36,73.00092997261162,14.59944,336.99658636209637,337.69559487215594,-1.8402831421806913,6.1236,0.0,-0.320856365273261,,-10.553882586309763,24.799266,59.474231,14.084323860297669,97.56971940441731,74.56630576651366,-0.8066772488881851,0.0033132133386895675,0.10094440393345487
2026-07-01T18:21:44+03:00,22.68,293.37,71.99825383113267,14.59944,344.9950771821226,335.23187635309336,-3.215553737833206,5.96808,0.0,-0.2119943841984046,,-10.089786772253797,24.799239,59.474283,13.960905703066128,95.98708280796575,80.98215999008835,-0.6224960970435856,0.003232472859031318,0.10417687679248619
2026-07-01T18:21:46+03:00,22.83,293.37,71.99825383113267,13.9968,338.9962090671029,334.89956083191754,2.4697918716909264,6.37632,0.0,-0.2864788975654116,,-12.358699640971857,24.799206,59.474337,13.468643178773599,98.75761676730235,77.75382583440523,-0.9708251689650085,0.0033985842240068127,0.107575461016493
2026-07-01T18:21:48+03:00,22.83,293.37,67.0020618575919,13.608,336.99658636209637,335.5756510301719,-1.2355261894201073,6.006959999999999,0.0,-0.31512678732195276,,-15.567263293704467,24.79916,59.474392,12.545429608199555,93.15442745408362,70.15101381618001,-0.330547010142616,0.003591857123130309,0.11116731813962331
2026-07-01T18:21:50+03:00,22.83,293.36,67.0020618575919,13.608,340.99583177210945,336.01682853242266,1.460182940890903,6.24024,0.0,-0.3781521447863433,,-15.33235059770083,24.799127,59.474444,12.560426321567304,94.2170086667906,75.21284043890006,-0.4588713926583643,0.0032839649015972377,0.11445128304122056
2026-07-01T18:21:52+03:00,22.83,293.36,67.0020618575919,13.802399999999999,344.9950771821226,335.63867638763617,0.28808317939177797,6.648479999999999,0.0,-0.27501974166279514,,-15.42402384492176,24.799104,59.474502,12.767291920235799,95.64527667797086,80.64035386009346,-0.654006489052297,0.0035562612649958692,0.11800754430621642
2026-07-01T18:21:54+03:00,22.83,293.36,67.0020618575919,14.40504,342.99545447711597,336.83042860150834,0.45326691172799427,6.006959999999999,0.0,-0.22345354010102106,,-15.22921819457728,24.799073,59.474559,13.265525225466591,91.63691943593177,74.63237391304773,-0.17159330181479332,0.0035544568364585007,0.12156200114267492
2026-07-01T18:21:56+03:00,22.83,293.36,67.0020618575919,14.696639999999999,340.99583177210945,336.6585412629691,0.8641922423958206,6.318,0.0,-0.5042028597151245,,-16.01989995185782,24.799033,59.474616,13.54079383509687,92.43821141660051,73.43404318870995,-0.2687801942649338,0.00363727339142519,0.1251992745341001
2026-07-01T18:21:58+03:00,22.83,293.36,63.002816447578745,14.79384,341.9985079135884,338.64670481207304,-2.4043027957074736,6.27912,0.0,-0.813600069085769,,-16.925173268164517,24.798991,59.474672,13.188963067338257,88.10342323878743,70.10193115237587,0.2078103923561039,0.003601992635587874,0.12880126716968798
2026-07-01T18:22:00+03:00,22.91,293.36,65.00243915258532,14.696639999999999,347.9973760286081,330.4705970755562,-0.771831445820732,6.55128,0.0,-0.18907607239317165,,-14.862525205693554,24.79896,59.474729,13.324302217478111,91.46554047859874,79.46291650720684,-0.16755368718802893,0.003554455568425774,0.13235572273811375
2026-07-01T18:22:02+03:00,22.83,293.35,65.00243915258532,14.59944,338.9962090671029,330.1669294441369,-1.1955910310994888,6.78456,0.0,-0.12032113697747288,,-14.736474490764774,24.798919,59.474784,13.246139511764673,92.66169807580629,71.65790714290915,-0.31506606274680876,0.0035349600123812173,0.13589068275049496
2026-07-01T18:22:04+03:00,22.98,293.35,63.99976301110639,14.79384,331.99466481060426,330.8831266880504,1.1548537318656873,6.4152,0.0,-0.3552338329811104,,-15.721961898389788,24.79886,59.474837,13.296772996705016,89.69816355856855,61.692828369172844,0.03379537200187576,0.0036596802613851264,0.1395503630118801
2026-07-01T18:22:06+03:00,22.98,293.35,63.99976301110639,14.79384,334.99696365708974,333.96563962585424,2.695594538751984,6.318,0.0,-0.3781521447863433,,-15.183381570966816,24.798812,59.474888,13.297640287665383,89.2793582696317,64.27632192672144,0.07946299793576213,0.003397752430728005,0.1429481154426081
2026-07-01T18:22:08+03:00,22.98,293.34,65.00243915258532,14.79384,335.9996397985687,335.35792706802215,-1.505389310926725,6.62904,0.0,-0.5213915935690492,,-14.604694197884685,24.798764,59.474947,13.413350680966087,91.61256805076712,67.61220784933585,-0.18654719412036336,0.003837199453963472,0.14678531489657157
2026-07-01T18:22:10+03:00,22.98,293.34,65.99938571611295,14.91048,338.9962090671029,332.65929585295595,2.136445026483814,7.095599999999999,0.0,-0.20053522829578813,,-14.341133612124507,24.798726,59.475007,13.660284831828584,94.32769653076801,73.32390559787086,-0.5354393190324074,0.003788464561810798,0.15057377945838238
2026-07-01T18:22:14+03:00,22.98,293.34,62.0001403060998,14.79384,339.9988852085818,334.2062818998092,-0.023147494923285262,6.37632,0.0,0.03437746770784939,,-17.022576093336756,24.79864,59.475129,13.074586779096288,87.50601052815941,67.50489573674122,0.27746290883473923,0.0035570345088722895,0.15413081396725467
2026-07-01T18:22:16+03:00,22.98,293.33,62.0001403060998,15.396479999999999,343.998130618595,335.86212992773727,-0.5647644986604524,6.337439999999999,0.0,-0.13178029288008933,,-15.830823879464644,24.798619,59.475187,13.62345314955133,86.25118108207626,70.24931170067123,0.4143580483906821,0.0035447079096883414,0.157675521876943
2026-07-01T18:22:18+03:00,23.13,293.32,63.002816447578745,15.49368,342.99545447711597,334.6360002461573,-1.2503085005344825,6.14304,0.0,-0.09167324722093173,,-15.355268909506064,24.798592,59.475241,13.833991235923598,86.31026977786743,69.30572425498337,0.39532575229576533,0.0033488483173472797,0.16102437019429028
2026-07-01T18:22:20+03:00,23.13,293.33,62.0001403060998,15.396479999999999,339.9988852085818,334.1719044321013,-0.6470985338207517,6.337439999999999,0.0,-0.12605071492878112,,-16.506914077719017,24.798554,59.475292,13.62345314955133,86.25118108207626,66.25006629065803,0.4143580483906821,0.003277669298528936,0.1643020394928192
2026-07-01T18:22:22+03:00,23.13,293.32,60.99746416462087,15.396479999999999,340.99583177210945,335.019881968895,1.5699616544379686,6.0652800000000004,0.0,-0.06302535746439056,,-16.75328592962527,24.798512,59.475348,13.538282821169451,84.06577792224905,65.06160969435848,0.6270689344544728,0.003601983501312775,0.16790402299413199
2026-07-01T18:22:24+03:00,23.13,293.32,58.99784145961429,15.70752,345.9977533236015,339.5978147519903,2.1398827732545986,6.08472,0.0,-0.24064227395494575,,-15.572992871655774,24.798488,59.475401,13.612252359506089,81.52664476544533,67.52439808904683,0.8965802325900545,0.0032688825474209778,0.17117290554155296
2026-07-01T18:22:26+03:00,23.13,293.31,56.99821875460771,15.70752,345.9977533236015,340.9901021941581,-2.0967963470607605,6.68736,0.0,-0.2864788975654116,,-13.710880037480601,24.798458,59.475464,13.304950847895908,81.92916785786466,67.92692118146613,0.9388867347760627,0.003895969297007932,0.1750688748385609
2026-07-01T18:22:28+03:00,23.13,293.31,58.00089489608667,15.610319999999998,347.9973760286081,337.4033863966392,1.3244492392244112,6.8623199999999995,0.0,-0.246371851906254,,-16.100114043176134,24.798424,59.475529,13.31327418834398,83.92181436084948,71.91919038945753,0.7266200948115712,0.00404253441909029,0.17911140925765118
2026-07-01T18:22:30+03:00,23.13,293.31,56.00127219108009,15.804720000000001,341.9985079135884,340.5718430037126,-0.8114228294642718,6.5124,0.0,-0.37242256683503505,,-16.317838005325846,24.798381,59.475589,13.307614487113684,79.93724250996635,61.93575042355474,1.1378905366581087,0.0038379534810929466,0.18294936273874413
2026-07-01T18:22:36+03:00,23.25,293.31,58.99784145961429,16.407359999999997,342.99545447711597,337.3919272407366,1.2954575747907913,7.03728,0.0,-0.8078704911344607,,-21.079117282862985,24.798272,59.475786,14.134406261464312,84.25991565694902,67.255370134065,0.7038396816612056,0.003770207392348645,0.18671957013109278
2026-07-01T18:22:40+03:00,23.13,293.31,63.99976301110639,16.31016,341.9985079135884,328.8204786255794,-4.083584797456403,7.36776,0.0,-0.05156620156177409,,-10.69712203509247,24.798179,59.475915,14.66106293866639,90.85118251248466,72.84969042607304,-0.10945095512389783,0.003904882028939351,0.19062445216003213
2026-07-01T18:22:42+03:00,23.28,293.3,69.00168456259847,16.50456,340.99583177210945,325.1191712690343,-0.5464871449957792,7.251119999999999,0.0,-0.49847328176381617,,-15.286513974090362,24.798129,59.475978,15.466393754694389,94.9586594383489,75.95449121045834,-0.626764601482003,0.004082861105557733,0.19470731326558985
2026-07-01T18:22:44+03:00,23.28,293.3,65.00243915258532,15.007679999999999,328.99809554207,329.08976878929093,2.459650518717111,7.23168,0.0,-1.1229972784564135,,-22.91258222728162,24.798066,59.476023,13.630916503157694,93.74256438162908,62.74065992369913,-0.4720380083421274,0.0033189310968723064,0.19802624436246216
2026-07-01T18:22:50+03:00,23.43,293.3,62.0001403060998,15.610319999999998,341.9985079135884,335.65586512149014,-3.569870838342107,7.07616,0.0,-0.17188733853924698,,-16.541291545426866,24.797899,59.476218,13.785423366761918,88.95087031514413,70.94937822873254,0.12956267866779053,0.004133249120387592,0.20215949348284976
2026-07-01T18:22:52+03:00,23.43,293.29,63.002816447578745,15.49368,339.9988852085818,334.9396678775766,2.8673672857322052,7.03728,0.0,-1.2948846169956605,,-20.87285247661589,24.797865,59.476276,13.805316283786002,90.01649766704378,70.01538287562556,-0.0020263045850183515,0.0036374850381805006,0.20579697852103027
2026-07-01T18:23:02+03:00,23.58,293.28,65.99938571611295,15.99912,337.99926250357527,332.0863380578251,-0.22901123071379004,7.15392,0.0,-0.44117750225073393,,-18.82739314799885,24.797608,59.4766,14.63013760318305,92.53205552994405,70.53131803351931,-0.316048185290433,0.0037922190540017864,0.20958919757503205
2026-07-01T18:23:06+03:00,23.73,293.28,60.99746416462087,16.69896,338.9962090671029,348.0661309640238,10.87783292367673,7.01784,0.0,-1.0198648753328654,,-25.44505568175986,24.797503,59.476727,14.644657099363638,85.7761694690005,64.77237853610336,0.5168849347355525,0.0037922172660451205,0.21338141484107717
2026-07-01T18:23:08+03:00,23.73,293.29,50.00240407606037,17.90424,346.9946998871292,8.055786599539374,8.512319370699615,7.13448,0.0,-1.3407212406061262,,-17.65855924593197,24.797478,59.476793,14.3963445471275,72.31418908226084,59.30888896939001,2.1674345380975293,0.004039855122379805,0.21742126996345698
2026-07-01T18:23:10+03:00,23.73,293.28,45.000482524568284,20.606399999999997,12.99468279356707,24.12152317500766,7.344745975782024,6.804,0.0,-0.6875493541569879,,-11.270079830223295,24.797509,59.476852,16.511773285359535,61.94105546247816,74.93573825604523,3.2004632726698006,0.003670455473434598,0.22109172543689157
2026-07-01T18:23:12+03:00,23.73,293.28,35.00236899953541,20.10096,28.997394011570965,23.14176534533395,-4.194337539255192,6.59016,0.0,-0.813600069085769,,-3.0481354700959793,24.797565,59.476909,15.18095287504314,49.42120689850185,78.41860091007281,4.286853894253644,0.0038289726511787025,0.22492069808807028
2026-07-01T18:23:14+03:00,23.73,293.28,35.00236899953541,19.303919999999998,31.999692858056477,14.192164585390492,-3.3416617485415,6.25968,0.0,-0.3093972093706446,,-4.05081161157492,24.797621,59.476957,14.624087897064555,49.21538337922158,81.21507623727805,4.088931483615316,0.003353624379604057,0.22827432246767435
2026-07-01T18:23:16+03:00,23.73,293.28,35.99931556306306,18.798479999999998,15.996981640052585,8.691769752134588,-2.8448500443835636,5.7348,0.0,-0.6302535746439055,,-7.6890936106556484,24.797654,59.477014,14.55459607457637,49.39032506102339,65.38730670107597,3.732795187842022,0.0035711793812300643,0.2318455018489044
2026-07-01T18:23:18+03:00,23.73,293.27,41.00123711455514,17.3016,12.99468279356707,353.36026099103265,-8.603075885448337,5.851439999999999,0.0,-0.7620338675239948,,-16.501184499767707,24.797677,59.477063,13.44526237913432,57.591589433054864,70.58627222662193,3.13608353874553,0.0030278144626028035,0.2348733163115072
2026-07-01T18:23:20+03:00,23.73,293.27,54.00164948607352,15.901919999999999,0.0,335.63867638763617,-8.96633112756128,5.5598399999999994,0.0,-1.0026761414789407,,-20.408756662559924,24.797672,59.477113,13.410902490193685,73.5988868793327,73.5988868793327,1.5698769449000987,0.0030092594453666934,0.2378825757568739
2026-07-01T18:23:22+03:00,23.81,293.26,63.002816447578745,15.70752,344.9950771821226,315.87163245562283,-10.451552324099397,5.67648,0.0,-1.3235325067522015,,-17.92211983169215,24.797645,59.47716,14.071166485019827,84.0693549812259,69.0644321633485,0.5865197149229644,0.0029428491055069244,0.24082542486238084
2026-07-01T18:23:24+03:00,24.03,293.26,88.9979116126642,15.20208,327.995419400591,293.8643235446479,-10.170803004485295,7.01784,0.0,-1.1688339020668794,,-11.321646031785066,24.797578,59.477217,16.631947928083374,113.95155419866823,81.94697359925925,-2.848990816693764,0.003990223625041988,0.24481564848742282
2026-07-01T18:23:26+03:00,23.88,293.26,103.99794668918915,13.802399999999999,303.9999469405122,276.3948403711091,-4.698483103190803,7.3094399999999995,0.0,-0.9969465635276323,,-3.460665082590172,24.797471,59.477255,17.10967811865245,128.4873258971085,72.48727283762071,-4.548967888174228,0.003985819970570006,0.24880146845799284
2026-07-01T18:23:32+03:00,23.88,293.25,135.99763954724563,9.097919999999998,273.99987678746226,267.0498987325254,-1.3145370693686478,6.57072,0.0,-0.4526366581533504,,-5.941572335506637,24.797077,59.477283,14.558406125445934,154.27016168882682,68.27003847628907,-5.919240074096456,0.003793038514983737,0.2525945069729766
2026-07-01T18:23:34+03:00,24.03,293.26,135.000692983718,9.408959999999999,274.9968233509899,265.79512116118894,0.4389429668497237,6.43464,0.0,-0.5328507494716656,,-5.460287787596745,24.79696,59.477287,14.681800633885347,153.0540306392665,68.05085399025643,-5.736058461127021,0.003579800916943908,0.2561743078899205
2026-07-01T18:23:36+03:00,24.03,293.25,137.00031568872456,9.70056,272.99720064598336,273.008659801886,2.8790556247528736,6.25968,0.0,-0.4068000345428845,,-8.176107736516848,24.796847,59.477289,14.903154715225462,153.64608839227157,66.64328903825492,-5.609106026522843,0.0034517014832408217,0.2596260093731613
2026-07-01T18:23:38+03:00,24.03,293.25,135.99763954724563,9.097919999999998,276.9964460559965,275.4895670548024,-0.8837301032097817,5.832,0.0,-0.2807493196141034,,-9.30483459292457,24.796739,59.477294,13.896630389209072,152.94780193633383,69.94424799233036,-5.1939357889227535,0.0033106391964401903,0.2629366485696015
2026-07-01T18:23:40+03:00,24.03,293.26,131.00144757370484,9.79776,280.99569146600965,276.42348826086567,0.11682609442717486,6.37632,0.0,-0.395340878640268,,-7.173431595037908,24.79662,59.477304,14.786099840574792,149.99440226176478,70.99009372777442,-5.521743596379576,0.003682162492008704,0.26661881106161023
2026-07-01T18:23:42+03:00,24.03,293.25,129.9987714322259,9.89496,284.9949368760228,270.7454765111192,-4.4068475854692135,6.24024,0.0,-0.590146528984748,,-6.159296297656351,24.79652,59.477317,14.704731110584849,148.9699068632823,73.96484373930508,-5.347240888254068,0.003151167432323254,0.26976997849393347
2026-07-01T18:23:44+03:00,24.03,293.25,129.9987714322259,9.992159999999998,282.99531417101616,258.6159599881997,-8.120129759932565,5.96808,0.0,-0.9224620501606254,,-0.716197243913529,24.796416,59.477331,14.56445285813607,148.29366859535358,71.28898276636971,-5.077362188551025,0.003284486239080535,0.273054464733014
2026-07-01T18:23:46+03:00,24.07,293.24,137.99726225225223,10.692,272.99720064598336,242.5559529906827,-7.290143097906054,6.006959999999999,0.0,-1.2204001036286536,,2.9220847551671985,24.796311,59.477335,15.679840025349836,152.85133645330342,65.84853709928677,-5.345146614734766,0.003214387686609383,0.27626885241962335
2026-07-01T18:23:48+03:00,24.18,293.24,167.0003858417745,8.90352,257.9971655694584,225.95163608779143,-6.160785987923689,5.443199999999999,0.0,-1.082890232797256,,4.463341224069113,24.796216,59.477324,14.259883648824788,171.92612500520417,69.92329057466259,-5.389245919278153,0.002974524654749452,0.2792433770743728
2026-07-01T18:23:50+03:00,24.18,293.26,-174.99726263512122,8.203679999999999,246.9963759029466,212.28659267392132,-8.215985599057953,5.07384,0.0,-1.2948846169956605,,8.325076763250863,24.796129,59.477307,13.265572193635514,176.90864279021093,70.08773311273566,-5.066456631710411,0.002845679555894776,0.28208905663026757
2026-07-01T18:23:52+03:00,24.22,293.26,-151.99873673856996,8.30088,227.99709541640848,194.62803342798935,-7.552729655414511,5.01552,0.0,-1.283425461093044,,11.132569959391894,24.79605,59.477276,12.945234936409674,162.47920114293981,65.51789427346867,-4.782838637658032,0.0030476541456595655,0.2851367107759271
2026-07-01T18:23:54+03:00,24.18,293.26,-132.00250968850426,9.70056,206.9981922248638,179.30714198619114,-6.56472123349092,5.2488,0.0,-1.403746598070517,,13.58482932255182,24.795998,59.477235,13.77655214395513,148.44921934446876,58.54897288039504,-4.472905296394896,0.0029314308458743207,0.28806814162180144
2026-07-01T18:23:56+03:00,24.33,293.26,-114.00017576549378,10.808639999999999,194.99472641687308,164.8686055488944,-6.822093875063686,5.79312,0.0,-1.552715624804531,,15.641747807071475,24.795971,59.477178,14.188852232818517,135.9001875233898,59.094538893483275,-4.160205012795028,0.0035238917573563,0.29159203337915773
2026-07-01T18:23:58+03:00,24.18,293.26,-97.00051798396224,12.091679999999998,179.99469134034814,151.34107200585564,-6.262543292338924,6.10416,0.0,-1.8105466326134017,,16.357945050985002,24.795966,59.477118,14.193697959870397,122.26866617127416,57.72602516907398,-3.2589500678677905,0.003609691629740677,0.2952017250088984
2026-07-01T18:24:00+03:00,24.18,293.26,-80.00086020243072,14.21064,161.99808699528896,140.90178097857205,-1.8446376214236855,5.67648,0.0,-1.4839606893888322,,13.590558900503126,24.795986,59.477059,14.357992487168644,102.91479917442764,59.083287820861315,-1.2687039735864751,0.003598529057009943,0.2988002540659084
2026-07-01T18:24:02+03:00,24.07,293.25,-72.99931594593207,15.29928,152.99692003378374,139.53241184820936,-2.4824542389633177,5.326560000000001,0.0,-1.4667719555349077,,12.633719382634652,24.79603,59.477015,14.655583495182862,93.3378852502625,59.659034783521236,-0.31013437651473424,0.0029662917885441504,0.3017665458544525
2026-07-01T18:24:04+03:00,24.18,293.26,-69.00007053591892,16.09632,151.9999734702561,139.15998928137432,-0.07150513283232673,5.48208,0.0,-1.8162762105647094,,16.191787290397066,24.796079,59.476971,15.029943579914447,88.9085017272498,63.091471743006295,0.10442861557988539,0.0030384611019059274,0.3048050069563584
2026-07-01T18:24:06+03:00,24.18,293.25,-65.00082512590576,16.407359999999997,149.99462118729824,136.05455803176528,-3.9241306430714946,5.57928,0.0,-2.538203032429547,,20.620751046758325,24.796139,59.476919,14.931785041100422,84.79518520139938,65.19943598589886,0.5061314603701144,0.003622760397415765,0.3084277673537742
2026-07-01T18:24:08+03:00,24.18,293.26,-61.001579715892625,16.893359999999998,147.99499848229166,128.16492919281384,-2.846568917768956,6.18192,0.0,-1.9308677695908742,,22.29378780854033,24.796207,59.476865,14.911275923358076,82.26187913262203,65.73311934966964,0.8323676547959492,0.003852877244846869,0.31228064459862104
2026-07-01T18:24:10+03:00,24.18,293.26,-55.00271160087291,17.496,139.99650766226534,120.72220743406447,-0.2558256555259126,6.14304,0.0,-2.6814424812122524,,20.01914536187096,24.796285,59.476818,14.85129197247143,74.80908686123482,65.18742080103053,1.6096984153106357,0.003694723297146262,0.3159753678957673
2026-07-01T18:24:12+03:00,24.03,293.26,-54.00003545939396,17.80704,131.99801684223905,124.61259086300275,8.055614712200835,6.53184,0.0,-2.5267438765269303,,17.131438074411616,24.796368,59.476778,14.933917834581596,74.72303643398281,57.27498040825624,1.7210432806498008,0.0034929843744641925,0.3194683522702315
2026-07-01T18:24:14+03:00,24.03,293.26,-57.00233430587948,17.398799999999998,133.99763954724563,139.72721749855384,5.964891717768462,6.5124,0.0,-1.8048170546620932,,14.725015334862157,24.796457,59.476741,14.89004629472816,78.52170089136992,55.47593865587571,1.295946575885266,0.0035111459540277854,0.3229794982242593
2026-07-01T18:24:16+03:00,24.03,293.26,-65.00082512590576,16.50456,149.99462118729824,145.14166866254013,0.12352970063020548,6.62904,0.0,-2.435070629305999,,19.13106077941819,24.796525,59.476691,14.962309882379111,88.6754163608849,61.31920482641334,0.15323878771755614,0.0036526327397592177,0.32663213096401855
2026-07-01T18:24:18+03:00,24.03,293.26,-61.99852627942025,15.49368,155.99921888026924,143.82386573373924,-0.09058462741018315,6.97896,0.0,-2.503825564721698,,19.606615749376772,24.796577,59.476638,13.683105798183117,88.76365958601889,67.23555929425035,0.15058178447595946,0.003559321362264284,0.33019145232628283
2026-07-01T18:24:20+03:00,23.88,293.26,-67.00044783091235,15.29928,151.9999734702561,145.34220389083595,0.05001921551492087,6.6095999999999995,0.0,-2.440800207257307,,17.99087476710785,24.796638,59.476583,14.097273311096561,92.56871640806867,59.43125706218743,-0.29622602417664723,0.003794335270211063,0.3339857875964939
2026-07-01T18:24:22+03:00,23.96,293.26,-70.00274667739787,14.79384,155.99921888026924,151.90257064508384,4.128905759051252,7.29,0.0,-2.7043607930174858,,18.689883277167453,24.79669,59.476524,14.07976426282849,99.1166784397305,56.88254044053873,-1.1550676255671957,0.003885444526571009,0.3378712321230649
2026-07-01T18:24:24+03:00,23.88,293.26,-74.99893865093864,15.10488,159.99846429028239,156.92741050838117,-0.24757506327602874,7.1928,0.0,-2.486636830867773,,18.28308324262457,24.796733,59.476462,14.954944954105924,102.68158641000036,57.31687788028202,-1.5790546454994225,0.003951119892511709,0.34182235201557665
2026-07-01T18:24:26+03:00,23.88,293.26,-78.99818406095179,15.10488,166.99427896882975,157.32848096497273,-3.624129941540996,7.387199999999999,0.0,-2.4064227395494577,,19.09095373375903,24.796765,59.476397,15.496425016112822,106.89898887930457,60.09529008952518,-2.1473505094370955,0.0040272824876628295,0.34584963450323947
2026-07-01T18:24:28+03:00,23.88,293.26,-78.99818406095179,15.49368,167.99695511030868,153.3406947108622,0.5618997096847984,7.387199999999999,0.0,-2.0110818609091896,,15.49277878033746,24.796795,59.476331,15.841075345923652,106.240928087074,61.75602702323468,-2.0660299437838945,0.004071453959636949,0.3499210884628764
2026-07-01T18:24:30+03:00,23.92,293.26,-76.99856135594521,15.396479999999999,162.99503355881663,151.90257064508384,1.6695990150112188,6.8623199999999995,0.0,-1.925138191639566,,14.684908289202998,24.796829,59.476275,15.38191137101723,102.76428564670567,60.23074791211096,-1.5161651791114374,0.0035224343949805392,0.35344352285785696
2026-07-01T18:24:32+03:00,23.88,293.25,-80.00086020243072,15.20208,159.99846429028239,155.2028075450374,2.7972945473877053,6.84288,0.0,-1.9881635491039567,,15.26932524023644,24.796866,59.476209,15.550031037912094,105.68257054287949,54.315893747402896,-1.849682341719408,0.004124784213160765,0.3575683070710177
2026-07-01T18:24:34+03:00,23.88,293.26,-82.0004829074373,15.007679999999999,162.99503355881663,158.84681912206943,1.5555804137801852,6.5124,0.0,-1.9996227050065731,,15.515697092142693,24.796898,59.476149,15.506095433122807,106.57666954499781,56.41836401381882,-1.8579754847770804,0.0037364331131405767,0.3613047401841583
2026-07-01T18:24:36+03:00,23.73,293.25,-82.0004829074373,14.696639999999999,167.99695511030868,160.72039111214724,0.8542800725400573,6.84288,0.0,-2.079836796324888,,16.180328134494445,24.796925,59.476089,15.324013002389396,108.24487985620148,59.7520752541072,-2.142361595880969,0.003699459142639842,0.3650041993267982
2026-07-01T18:24:38+03:00,23.73,293.25,-82.99742947096492,14.21064,167.99695511030868,163.55080262009346,1.3438152126998326,6.648479999999999,0.0,-1.7990874767107847,,13.750987083139757,24.796949,59.476028,14.936798047039966,109.21539967481566,58.78155543549302,-2.1881507935300406,0.003739060100995247,0.3687432594277934
2026-07-01T18:24:40+03:00,23.73,293.25,-82.99742947096492,14.30784,169.99657781531528,167.17762546327162,1.4732463786198857,6.4152,0.0,-1.449583221680983,,11.000789666511807,24.796973,59.475971,14.94953843511921,108.20650744839746,61.79007036691782,-2.004383120508987,0.0035036075369433454,0.37224686696473674
2026-07-01T18:24:42+03:00,23.81,293.25,-89.00202716393596,13.7052,177.99506863534154,167.71620579069457,-0.698091777587395,6.7068,0.0,-1.8793015680291005,,14.472913905004594,24.796987,59.475909,15.152946733671282,115.26807286540522,62.72699576993632,-2.862824486827016,0.003751107108182674,0.3759979740729194
2026-07-01T18:24:44+03:00,23.73,293.25,-93.00127257394911,13.608,176.99812207181392,169.4178904422331,0.39700245624614744,7.056719999999999,0.0,-2.0855663742761967,,17.022576093336756,24.797002,59.475846,15.653454546864067,119.75719699352004,57.240925078293884,-3.502430472483343,0.0038143742056533578,0.37981234827857274
2026-07-01T18:24:46+03:00,23.73,293.24,-91.99859643247017,14.59944,178.99774477682047,161.43085877810944,-5.73324488119707,6.47352,0.0,-2.079836796324888,,16.810581709138354,24.797002,59.47579,16.17535682841321,115.57460795417538,63.42313682264509,-2.7945281937920163,0.00336603211856371,0.3831783803971365
2026-07-01T18:24:48+03:00,23.66,293.25,-85.99972831745043,14.30784,169.99657781531528,153.54695951710931,-3.7238818936732723,6.88176,0.0,-2.1084846860814292,,17.11424934055769,24.797013,59.475726,15.438105273401014,112.40250195536123,57.594075859954046,-2.6227127043930434,0.003861523770432584,0.38703990416756906
2026-07-01T18:24:52+03:00,23.58,293.24,-74.001992087411,15.007679999999999,159.99846429028239,148.90027179859837,1.4686054204793262,7.07616,0.0,-1.4610423775835992,,19.033657954245946,24.797092,59.475597,14.722975853072793,101.51864620683561,58.47981808344677,-1.4130159469317058,0.003845721954900502,0.3908856261224696
2026-07-01T18:24:54+03:00,23.58,293.24,-74.99893865093864,15.29928,152.99692003378374,150.92854239336143,2.036521187012998,7.42608,0.0,-2.2058875112536693,,16.95382115792106,24.797141,59.475543,15.178926182461423,103.1997681925822,49.79715184120154,-1.6957225788506038,0.0035739492445871855,0.3944595753670568
2026-07-01T18:24:56+03:00,23.58,293.24,-76.00161479241758,15.610319999999998,157.9988415852758,153.1344299046151,-0.25427866947905936,6.57072,0.0,-2.274642446669368,,15.830823879464644,24.797193,59.475487,15.402392670166389,100.45386846691689,57.544973118358925,-1.192216416256273,0.003721608609808088,0.39818118397686486
2026-07-01T18:24:58+03:00,23.43,293.24,-78.99818406095179,15.10488,161.99808699528896,160.06148964774678,4.232267345292852,6.82344,0.0,-1.008405719430249,,12.874361656589599,24.797241,59.475424,15.342033962273314,104.88409057974214,57.11399641554682,-1.7526991483330983,0.004060436527663507,0.4022416205045284
2026-07-01T18:25:00+03:00,23.58,293.24,-82.99742947096492,15.610319999999998,167.99695511030868,164.1294899931756,1.9546455180888034,6.76512,0.0,-0.9167324722093171,,12.324322173264008,24.797268,59.475364,16.238822070073866,107.42194687271098,60.5750082375977,-2.0255194635314706,0.0036994630840832187,0.4059410835886116
2026-07-01T18:25:02+03:00,23.51,293.23,-85.99972831745043,15.007679999999999,171.99620052032182,167.00000854678103,-0.4884465203490268,6.53184,0.0,-1.5183381570966814,,11.401860123103383,24.797285,59.475307,15.944225381623552,110.12104201730065,61.87515850302117,-2.246982719705901,0.0034652261916559117,0.4094063097802675
2026-07-01T18:25:04+03:00,23.55,293.23,-87.99935102245702,13.802399999999999,177.99506863534154,166.6103972460921,-0.3664065099861615,6.84288,0.0,-1.5355268909506061,,15.458401312629611,24.797294,59.475245,15.190020644777551,114.75654971541039,63.23851891993115,-2.865548709872841,0.0037367937067213516,0.41314310348698885
2026-07-01T18:25:06+03:00,23.51,293.22,-87.99935102245702,13.802399999999999,173.9958232253284,168.33500020943586,2.0649971894309997,7.1928,0.0,-1.0771606548459478,,13.35564620449949,24.797304,59.475181,15.339845901845809,115.94350100792975,58.05232221739864,-3.1467395106217833,0.00385898906005436,0.41700209254704323
2026-07-01T18:25:08+03:00,23.43,293.23,-91.00164986894255,14.40504,176.99812207181392,168.95952420612846,-1.8033273643947532,6.59016,0.0,-0.9912169855763242,,12.691015162147734,24.797314,59.475123,15.94535730260293,115.40975941066195,61.588362661151976,-2.8277651362805045,0.003499589490227596,0.42050168203727084
2026-07-01T18:25:10+03:00,23.43,293.22,-91.00164986894255,13.9968,178.99774477682047,165.642098572321,-1.2524284443764664,6.55128,0.0,-1.6959550735872368,,14.873984361596172,24.79732,59.475066,15.557494178234005,115.90171766709422,63.09602710972625,-2.861787492383067,0.0034310330730740004,0.42393271511034486
2026-07-01T18:25:12+03:00,23.51,293.22,-89.00202716393596,13.802399999999999,173.9958232253284,165.39572672041473,0.6485882240880918,7.01784,0.0,-0.9453803619658584,,12.014924963893364,24.797332,59.475003,15.374725722436631,116.15603178543986,57.83979143988853,-3.093584408043629,0.0038044664263912962,0.4277371815367362
2026-07-01T18:25:14+03:00,23.43,293.21,-89.99897372746359,13.9968,173.9958232253284,169.42934959813576,1.059284371637866,6.76512,0.0,-1.3006141949469687,,10.748688236654244,24.797343,59.474943,15.54586333112434,115.79519456676593,58.200628658562465,-2.9438797683607483,0.0036220648845329195,0.4313592464212691
2026-07-01T18:25:16+03:00,23.43,293.22,-91.00164986894255,14.21064,178.99774477682047,170.51223983093297,1.0090932687844059,6.43464,0.0,-0.7104676659622208,,11.453426324665156,24.797347,59.474881,15.701715030510268,115.1902970137182,63.807447763102275,-2.7387504311545623,0.003728678717442929,0.43508792513871203
2026-07-01T18:25:18+03:00,23.43,293.23,-91.99859643247017,13.296959999999999,180.99736748182707,170.96487648908638,-0.4366511356692004,6.35688,0.0,-1.0255944532841736,,12.037843275698597,24.797341,59.474816,14.937029216315379,117.16949837008141,63.827869111745656,-2.9027063764172643,0.00391129332894208,0.4389992184676541
2026-07-01T18:25:20+03:00,23.43,293.23,-93.00127257394911,13.39416,179.99469134034814,170.9419581772811,-0.29444301091773006,6.76512,0.0,-1.0198648753328654,,12.948846169956605,24.797338,59.474752,15.318584686149407,119.17041251906915,60.824278821278995,-3.297379143220469,0.003847984003645372,0.4428472024712995
2026-07-01T18:25:22+03:00,23.43,293.22,-93.00127257394911,13.39416,178.99774477682047,170.29451586878326,0.41940510603576264,6.47352,0.0,-1.3636395524113596,,13.750987083139757,24.797341,59.474697,15.178592001095387,118.2092434731697,60.78850130365076,-3.0599871916253187,0.0033071928856962672,0.44615439535699575
2026-07-01T18:25:24+03:00,23.43,293.22,-91.99859643247017,13.39416,180.99736748182707,168.9079580045667,0.017704395869542436,6.1624799999999995,0.0,-1.008405719430249,,11.069544601927506,24.797344,59.474638,14.937768775715638,116.34752920721795,64.64983827460912,-2.734999278285136,0.0035475377863728825,0.44970193314336865
2026-07-01T18:25:26+03:00,23.43,293.21,-91.99859643247017,13.296959999999999,177.99506863534154,171.4060539913371,0.48008133654011675,6.82344,0.0,-1.1573747461642627,,10.685662879189854,24.797349,59.474579,15.155756965911275,118.73888761474117,59.256181020600366,-3.2808376917579003,0.0035496390783608753,0.4532515722217295
2026-07-01T18:25:28+03:00,23.43,293.21,-91.00164986894255,13.10256,180.99736748182707,169.29183972730434,-1.7871699545720638,6.337439999999999,0.0,-0.9339212060632418,,11.865955937159349,24.797346,59.474519,14.654125215060272,116.62173748573517,64.3756299960919,-2.8397960232088457,0.0036076258089528398,0.45685919803068237
2026-07-01T18:25:30+03:00,23.43,293.21,-91.00164986894255,13.296959999999999,180.99736748182707,170.21430177746498,0.7225570754394813,6.648479999999999,0.0,-0.5958761069360561,,8.966789493797384,24.797346,59.47446,14.970045663701157,117.36428920174863,63.633078280078436,-3.0559495374136594,0.0035463552677451695,0.46040555329842753
2026-07-01T18:25:32+03:00,23.55,293.21,-93.00127257394911,13.7052,180.99736748182707,171.17114129533343,-0.49744195773258076,6.4152,0.0,-0.6818197762056798,,9.705905049516145,24.797349,59.474398,15.433538810962297,117.52663684557106,63.47073063625601,-2.9648548317536942,0.0037278037505457462,0.4641333570489733
2026-07-01T18:25:34+03:00,23.58,293.21,-93.00127257394911,12.69432,181.9943140453547,172.86136679096936,0.9407394038252985,6.24024,0.0,-0.7448451336700701,,11.50499252622693,24.797345,59.474337,14.435425808023785,118.57635995221602,63.41795409313869,-2.9848912806665826,0.003668603840088007,0.4678019608890613
2026-07-01T18:25:36+03:00,23.58,293.21,-93.00127257394911,12.59712,183.99966632831257,171.39459483543445,-1.0336731581955183,6.92064,0.0,-0.8193296470370772,,9.958006479373708,24.797335,59.474271,14.687132764667098,121.07179459004695,62.92787173826562,-3.5718235901892177,0.003978839698678214,0.4717808005877395
2026-07-01T18:25:38+03:00,23.58,293.21,-91.99859643247017,12.20832,180.99736748182707,171.32583990001876,1.746318063779236,6.95952,0.0,-1.1745634800181877,,10.141352973815572,24.797326,59.474213,14.261985859277097,121.1868100771957,59.81055740463137,-3.6038488283647157,0.003497059021127985,0.4752778596088675
2026-07-01T18:25:40+03:00,23.58,293.21,-93.99821913747672,12.79152,178.99774477682047,169.38924255247656,-5.3815633865457695,5.81256,0.0,-1.2318592595312698,,10.777336126410784,24.797324,59.47416,14.414479550793553,117.71795252354173,61.27979225327874,-2.7035346745888824,0.003186294091103184,0.47846415369997064
2026-07-01T18:25:42+03:00,23.73,293.21,-87.99935102245702,12.30552,182.99699018683364,159.69479665886305,-4.184711848296994,6.5124,0.0,-1.3178029288008932,,12.582153181072878,24.797318,59.4741,13.720123085526103,116.31776307198878,66.67922711484486,-2.887266691330426,0.00361111214815258,0.4820752658481232
2026-07-01T18:25:44+03:00,23.73,293.22,-82.99742947096492,12.49992,170.9992539567942,157.9186274939575,0.5868233737729891,6.24024,0.0,-1.2032113697747289,,11.510722104178239,24.797334,59.474042,13.272882931218824,110.81400708959664,60.18524686719756,-2.217378728572678,0.003520304115077044,0.48559556996320025
2026-07-01T18:25:48+03:00,23.73,293.23,-78.00123749742416,13.7052,168.99963125178763,155.22572585684264,-0.6259563911804245,6.6679200000000005,0.0,-1.3579099744600511,,13.229595489570707,24.797382,59.473908,13.939061376287354,105.90001655575789,63.09961469602975,-1.8267400065021435,0.0039868244980874575,0.4895823944612877
2026-07-01T18:25:50+03:00,23.88,293.24,-76.99856135594521,14.40504,166.99427896882975,152.44688055045813,-0.9488754045161563,6.9984,0.0,-1.5928226704636885,,14.467184327053287,24.797415,59.473845,14.530045127138965,104.98761541301748,62.00666355581227,-1.8098579906286552,0.00391852319620659,0.4935009176574943
2026-07-01T18:25:52+03:00,23.88,293.23,-76.00161479241758,13.9968,162.99503355881663,155.01373147264422,1.8539768334843176,7.17336,0.0,-1.2719663051904275,,12.679556006245116,24.79745,59.473781,14.099400769046449,105.58313283317501,57.411900725641615,-1.927024644021897,0.003992547963703341,0.4974934656211977
2026-07-01T18:25:54+03:00,23.88,293.23,-78.99818406095179,13.9968,164.99465626382317,154.59547228219873,-0.7787642351418149,6.78456,0.0,-1.0771606548459478,,10.714310768946394,24.79748,59.473721,14.342088367561267,106.6668830193119,58.32777324451128,-1.9458582831904239,0.0037209523382616687,0.5012144179594593
2026-07-01T18:25:56+03:00,23.88,293.24,-74.99893865093864,13.19976,164.99465626382317,154.0282440650192,-2.352851185704725,6.88176,0.0,-0.6531718864491385,,13.733798349285832,24.797509,59.473658,13.212420007416219,105.20458809225488,59.790068171568294,-1.8048547906288932,0.0038889160233306908,0.50510333398279
2026-07-01T18:25:58+03:00,23.73,293.24,-72.99931594593207,13.296959999999999,163.9977097002955,151.644739637275,-6.24518267114646,6.8623199999999995,0.0,-0.8193296470370772,,13.00041237151838,24.797542,59.473594,13.05916666469933,103.16593913397784,60.83177056631766,-1.5630447778703704,0.003976642071537102,0.5090799760543271
2026-07-01T18:26:00+03:00,23.73,293.24,-67.99739439443997,13.5108,163.9977097002955,142.05342614678497,2.0902073324167563,6.76512,0.0,-0.5844169510334397,,9.373589528340268,24.797577,59.473531,12.642038457153195,97.74325309543755,66.25445660485795,-0.9114933641694529,0.003934668105640579,0.5130146441599677
2026-07-01T18:26:02+03:00,23.58,293.25,-63.001202420899205,13.296959999999999,151.9999734702561,143.3654994976346,-2.165035620460842,6.24024,0.0,-0.3666929888837269,,8.027138709782834,24.797632,59.473477,11.849557415761067,90.98545251750045,61.014520952755646,-0.10732303647202256,0.003654454872081528,0.5166690990320492
2026-07-01T18:26:04+03:00,23.58,293.25,-63.998148984426834,13.8996,151.9999734702561,140.64394997076317,-1.2143267510002669,5.81256,0.0,-0.5328507494716656,,9.992383947081557,24.797686,59.473423,12.495841373329839,88.71132891855912,63.288644551696976,0.13072248123887975,0.003640528280625927,0.520309627312675
2026-07-01T18:26:06+03:00,23.43,293.25,-59.00195701088606,13.296959999999999,152.99692003378374,136.4670876442595,-0.8470608043214091,5.96808,0.0,-0.9969465635276323,,15.406835111067835,24.797733,59.473376,11.431871555160415,85.58527501260963,67.41164502117411,0.4593945554248656,0.0031686089192436684,0.5234782362319187
2026-07-01T18:26:08+03:00,23.43,293.26,-57.00233430587948,13.7052,144.99842921375745,135.26960585243606,2.5827791488907246,6.0264,0.0,-0.3093972093706446,,10.559612164261072,24.797793,59.473331,11.58399265283901,82.87148865203355,62.1269405617239,0.7478476902661696,0.003266790735085288,0.526745026967004
2026-07-01T18:26:10+03:00,23.43,293.26,-59.99890357441368,14.59944,139.99650766226534,140.4606034763213,1.3791094128798915,5.96808,0.0,-0.1604281826366305,,10.748688236654244,24.797867,59.473284,12.713304582283948,83.98649682270532,56.010010839560024,0.6252330352971839,0.0036173776038662966,0.5303624045708702
2026-07-01T18:26:12+03:00,23.47,293.25,-61.001579715892625,14.502239999999999,148.99767462377056,142.5404402726462,0.6924194954155999,6.045839999999999,0.0,-0.5042028597151245,,10.313240312354818,24.797914,59.473236,12.722298663309722,85.56118376252871,63.43649086124185,0.46791467283673827,0.0032223172651423136,0.5335847218360126
2026-07-01T18:26:14+03:00,23.43,293.26,-59.00195701088606,14.502239999999999,152.99692003378374,140.97053591398773,-1.0790514155698794,6.454079999999999,0.0,-0.739115555718762,,11.906062982818508,24.797967,59.473182,12.472445279253787,85.33351973397806,67.66340029980567,0.5250744675146638,0.0036268091401014716,0.5372115309761141
2026-07-01T18:26:16+03:00,23.43,293.26,-57.999280869407116,14.094,149.99462118729824,140.1053696433402,0.8445970858023466,6.492959999999999,0.0,-0.46982539200727513,,11.035167134219655,24.798022,59.473131,11.992068590360647,85.33231074445776,64.66231044284048,0.5283741194022172,0.0034952858362397262,0.5407068168123538
2026-07-01T18:26:18+03:00,23.32,293.27,-59.00195701088606,14.094,149.99462118729824,142.25969095303208,-0.544309905374282,6.454079999999999,0.0,-0.5099324376664327,,12.633719382634652,24.798079,59.473079,12.107917517511336,86.19044346501744,63.8041777222808,0.42881117779849454,0.003577424753426403,0.5442842415657801
2026-07-01T18:26:20+03:00,23.28,293.27,-59.99890357441368,14.502239999999999,150.99729732877717,142.0648853026876,1.286863207863829,6.39576,0.0,-0.4526366581533504,,11.613854507301786,24.798137,59.473027,12.588279875456402,86.10271524725749,64.89458208151967,0.43470708172440176,0.003592377458757892,0.547876619024538
2026-07-01T18:26:22+03:00,23.28,293.28,-61.99852627942025,14.91048,150.99729732877717,144.11034463130466,1.979569182176994,6.37632,0.0,-0.4526366581533504,,10.92057557519349,24.798195,59.47297,13.179775460389825,87.28601873987216,63.711278588905,0.3019200109146168,0.003856713224719714,0.5517333322492577
2026-07-01T18:26:24+03:00,23.28,293.27,-61.99852627942025,15.007679999999999,154.9965427387903,146.87200120383523,-0.4068000345428845,6.337439999999999,0.0,-0.7677634454753031,,13.00041237151838,24.798246,59.472915,13.269745631377823,86.93905578464485,68.05748695414546,0.3384075458873962,0.003654272171188727,0.5553876044204464
2026-07-01T18:26:26+03:00,23.28,293.27,-63.998148984426834,15.70752,157.9988415852758,146.47093074724364,0.6523124497564421,6.14304,0.0,-0.5156620156177408,,11.516451682129548,24.798286,59.472853,14.137148614737077,86.98677575618463,71.01206582909118,0.322917775092207,0.003921684074455158,0.5593092884949016
2026-07-01T18:26:28+03:00,23.28,293.28,-63.001202420899205,15.610319999999998,157.9988415852758,147.5251730902844,0.8417895926062056,5.7153599999999996,0.0,-0.5042028597151245,,8.611555660816272,24.798315,59.472799,13.976479340923674,84.36943670455122,73.62940488072459,0.5607555172938765,0.0033644144581625453,0.5626737029530641
2026-07-01T18:26:30+03:00,23.28,293.27,-61.99852627942025,15.70752,158.99578814880346,148.28147737985705,-1.167802578035644,5.96808,0.0,-0.29793805346802804,,10.63409667762808,24.798351,59.472751,13.939866178618876,84.20909128780433,74.78669686099913,0.6021699337382348,0.003087443904099795,0.5657611468571638
2026-07-01T18:26:32+03:00,23.13,293.28,-63.001202420899205,15.70752,157.9988415852758,145.54846869708302,-1.386557864216592,6.4152,0.0,-0.6531718864491385,,10.519505118601915,24.798399,59.472696,14.013933407515387,87.0731241535697,70.92571743170612,0.3275691304198919,0.0036161967660171797,0.569377343623181
2026-07-01T18:26:34+03:00,23.13,293.29,-63.001202420899205,15.901919999999999,149.99462118729824,143.05610228826393,-2.039214088650113,5.1710400000000005,0.0,-0.6245239966925973,,13.97444062324078,24.79845,59.472648,14.316109747648776,81.7753669033549,68.21925428394334,0.7397403020591621,0.003278538688869802,0.5726558823120509
2026-07-01T18:26:36+03:00,23.13,293.29,-61.001579715892625,15.20208,152.99692003378374,138.05418073677185,-0.7209527936131149,5.598719999999999,0.0,-1.0943493886998723,,18.495077626822972,24.798503,59.472604,13.413671774153686,82.41299565761327,70.58392437617047,0.7392077485258107,0.0031005090046231478,0.575756391316674
2026-07-01T18:26:38+03:00,23.17,293.28,-59.00195701088606,15.10488,147.99499848229166,134.6049748100843,-2.1021248545554774,5.7153599999999996,0.0,-0.9568395178684748,,16.695990150112188,24.798569,59.472552,13.111121199133576,80.94356194378538,67.05143653850628,0.8996393377855834,0.0037188700668659134,0.5794752613835399
2026-07-01T18:26:42+03:00,23.13,293.29,-57.00233430587948,15.901919999999999,139.99650766226534,131.15003930544546,-1.0708581190995086,6.901199999999999,0.0,-1.3235325067522015,,19.61234532732808,24.798735,59.472443,13.452330911176695,82.48633238823165,57.5101752740337,0.9024194938004317,0.004089780330650868,0.5835650417141908
2026-07-01T18:26:44+03:00,23.13,293.29,-52.99735931791503,15.804720000000001,142.99880650875087,127.00755444664958,-1.2157591454880936,6.24024,0.0,-1.4896902673401402,,21.62915676618858,24.798813,59.472391,13.03894934184054,75.46746607568137,67.5313404330695,1.5658615587485736,0.003929487201868896,0.5874945289160597
2026-07-01T18:26:46+03:00,23.13,293.29,-48.99811390790188,16.09632,137.99688495725877,123.12863017361391,-0.3649741154983344,6.47352,0.0,-1.455312799632291,,19.595156593474155,24.798888,59.472351,12.816797464415979,71.40481527391154,66.59206968334723,2.0642738271807155,0.0033202895138844555,0.5908148184299441
2026-07-01T18:26:48+03:00,23.1,293.3,-46.00154463936767,16.69896,131.99801684223905,122.29784137067423,1.320209351540443,6.7068,0.0,-1.1516451682129547,,17.904931097838226,24.798976,59.47231,12.970815118840969,67.83794537030273,64.16007147193632,2.529989572479204,0.0036458632037438448,0.5944606816336879
2026-07-01T18:26:50+03:00,22.98,293.29,-44.99886849788874,16.407359999999997,130.99534070076012,124.42924436856089,-0.34669676183366116,6.62904,0.0,-1.065701498943331,,18.300271976478495,24.799066,59.47227,12.622424215895908,66.79781352142868,64.19752717933144,2.6116891903749413,0.0036512398564300147,0.5981119214901179
2026-07-01T18:26:52+03:00,22.98,293.3,-46.00154463936767,16.60176,135.99726225225223,123.77034290416044,-1.1541661825115304,6.84288,0.0,-1.1631043241155712,,17.52677895305188,24.799153,59.472223,12.830281187278386,68.56221020213479,67.43505205011743,2.50100960851131,0.0038777376540633113,0.6019896591441812
2026-07-01T18:26:54+03:00,22.98,293.3,-44.99886849788874,16.893359999999998,132.9949634057667,122.97393156892859,-1.414919275075568,6.82344,0.0,-1.5412564689019144,,17.07987187284984,24.79924,59.472175,12.997082649668583,66.7898808063942,66.2050825993725,2.689146600736062,0.0039217468331787415,0.6059114059773599
2026-07-01T18:26:56+03:00,22.87,293.3,-44.0019219343611,17.107200000000002,129.99839413723248,115.90936195496555,-0.8979394565290262,6.7068,0.0,-1.082890232797256,,17.360621192463945,24.799335,59.47213,13.13683833095007,64.77446233591866,65.22393180131382,2.8583210957826366,0.003966031786171718,0.6098774377635316
2026-07-01T18:26:58+03:00,22.83,293.29,-42.00229922935453,17.496,127.99877143222591,118.8085283983275,1.7395571617966923,6.78456,0.0,-0.31512678732195276,,9.132947254385321,24.799427,59.472096,13.255946120118184,62.030628710265674,65.96814272196023,3.1819552260737303,0.003473731873750542,0.6133511696372822
2026-07-01T18:27:00+03:00,22.83,293.3,-42.00229922935453,17.5932,120.99722717572726,124.31465280953473,0.5152036493816362,6.201359999999999,0.0,-0.6474423084978302,,11.848767203305426,24.799529,59.472065,13.631822494260765,59.72515451734304,61.27207265838422,3.126406462204617,0.003629160186718852,0.6169803298240011
2026-07-01T18:27:02+03:00,22.83,293.29,-42.999245792882164,16.31016,129.99839413723248,127.17371220723751,0.9259570927109233,6.14304,0.0,-1.3464508185574346,,13.590558900503126,24.799617,59.472028,12.53802240905503,62.51963792923243,67.47875620800005,2.834672428193215,0.003487865154691512,0.6204681949786925
2026-07-01T18:27:04+03:00,22.83,293.29,-44.99886849788874,16.19352,132.9949634057667,128.80091234540907,-3.537441427137703,5.48208,0.0,-1.7131438074411613,,17.641370512078048,24.799693,59.471992,12.912597477204292,62.468380400778855,70.52658300498784,2.534025991719603,0.003172832586424279,0.6236410275651169
2026-07-01T18:27:06+03:00,22.68,293.29,-46.00154463936767,16.69896,136.99993839373113,129.45981380980953,-2.1294549413832176,6.318,0.0,-1.6787663397333121,,18.030981812767006,24.799768,59.471951,13.12242230079701,66.26556742085243,70.7343709728787,2.542982252487476,0.0033640889409963202,0.6270051165061131
2026-07-01T18:27:08+03:00,22.76,293.29,-48.00116734437425,16.407359999999997,137.99688495725877,127.80969535983274,-2.6144064191819463,6.24024,0.0,-1.552715624804531,,16.718908461917422,24.799842,59.471907,13.081518532879382,68.76438702854126,69.2324979287175,2.2602398810697153,0.003478434318450933,0.6304835508245641
2026-07-01T18:27:10+03:00,22.68,293.29,-50.00079004938082,16.50456,135.99726225225223,125.3402472628189,-3.3196601692084764,6.201359999999999,0.0,-1.529797312999298,,16.810581709138354,24.799915,59.471865,13.389547486881728,70.78179836289542,65.21546388935681,2.041280823496665,0.0033676484043335415,0.6338511992288977
2026-07-01T18:27:12+03:00,22.68,293.29,-46.99849120289531,16.60176,138.99956109873773,119.83985242956298,-0.05867087822139629,6.29856,0.0,-0.9511099399171665,,13.636395524113592,24.799995,59.471819,13.139900035090442,67.52024239631903,71.4793187024187,2.40829853814769,0.003689341363122113,0.6375405405920198
2026-07-01T18:27:14+03:00,22.53,293.3,-44.99886849788874,16.893359999999998,127.99877143222591,114.78636467650914,-5.620085716658731,6.006959999999999,0.0,-1.065701498943331,,13.263972957278558,24.800083,59.471778,13.339983260186116,63.565184766136596,64.43358666608931,2.6741746550347156,0.0036458943814753476,0.6411864349734951
2026-07-01T18:27:16+03:00,22.53,293.29,-40.999623087875584,17.2044,124.99647258574039,99.9410282046695,-6.423200658093607,6.74568,0.0,-1.0599719209920229,,6.692147047128016,24.80019,59.471741,12.896447827997472,61.069071381503264,63.92740120423713,3.2632557135079274,0.0039521197154998855,0.6451385546889951
2026-07-01T18:27:18+03:00,22.53,293.29,-35.9977015363835,17.2044,102.99489325271679,86.43068339548468,-7.532389653687368,6.0264,0.0,-1.4839606893888322,,6.921330165180344,24.80031,59.471731,12.827519574384313,52.02693044270639,50.967962810010405,3.707989818965184,0.003712879141913044,0.6488514338309082
2026-07-01T18:27:20+03:00,22.53,293.29,-25.002641447823002,16.79616,89.9944808811984,71.1212511095891,-7.043885837558828,5.7153599999999996,0.0,-0.6187944187412892,,4.417504600458647,24.800424,59.471731,11.864908081872647,36.74999598226373,53.24448489893467,4.579454230696483,0.0034807074020139464,0.652332141232922
2026-07-01T18:27:22+03:00,22.53,293.29,-16.00147448631777,16.79616,74.99444580467346,57.47339642957289,-7.625552591175639,5.2488,0.0,-0.6073352628386726,,1.4725015334862157,24.800512,59.471744,11.839471570606465,23.021107363550698,51.97333844112276,4.830790021000147,0.0027981798183680682,0.6551303210512901
2026-07-01T18:27:24+03:00,22.38,293.29,-5.000684819805964,16.31016,53.995542613128784,41.75143453118309,-9.520896977468404,4.101839999999999,0.0,-0.29793805346802804,,3.4434763487362474,24.800568,59.471768,12.229160997263183,6.676097951161324,47.31944466196746,4.0740263851836085,0.0022370820685454398,0.6573674031198355
2026-07-01T18:27:26+03:00,22.46,293.29,7.998868115019719,15.610319999999998,50.998973344594575,24.012661193932797,-10.997237328181994,4.16016,0.0,-0.41252961249419273,,0.05156620156177409,24.800629,59.471797,11.505208298679797,10.88300492563198,61.881978270226554,4.085338519754414,0.0025509440951941905,0.6599183472150297
2026-07-01T18:27:28+03:00,22.5,293.29,18.99965778153153,14.696639999999999,29.994340575098594,5.339966650619273,-10.654035608898633,4.29624,0.0,-0.14896902673401402,,-6.4056681495626036,24.800674,59.471832,10.726044040590324,26.492464964509026,56.486805539607616,3.8451048718040237,0.0025126907387630353,0.6624310379537928
2026-07-01T18:27:30+03:00,22.38,293.29,33.00274629452885,13.39416,3.9992454100131463,339.4946823488667,-14.564186081768934,4.62672,0.0,-0.9797578296737078,,-14.278108254660115,24.800691,59.471875,9.84209029318456,47.838624526674124,51.83786993668727,3.1055518181099044,0.0026362350973313797,0.6650672730511241
2026-07-01T18:27:32+03:00,22.38,293.29,62.0001403060998,12.30552,341.9985079135884,308.8185219975624,-16.82582238648883,5.13216,0.0,0.4297183463481174,,-10.181460019474729,24.800667,59.471919,10.884265887142174,86.6031705588302,68.6016784724186,0.3040863008782689,0.002744377731223415,0.6678116507823475
