time,dpt,mtw,awa,aws,cog,hdg,rot,sog,stw,pitch,yaw,roll,lng,lat,tws,twa,twd,vmg,dist,cum_dist
2026-05-06T18:22:24+03:00,22.68,281.0,118.00065790719304,0.60264,123.99952602221278,117.8975255040695,0.5000202678106694,6.47352,6.454079999999999,-0.20053522829578813,-61.99976301110639,0.8995437383553924,24.801482,59.47532,6.777368379505523,175.4970311507759,299.4965571729887,-6.453537971821414,0.0017728513548811496,0.0017728513548811496
2026-05-06T18:22:25+03:00,22.68,281.01,125.99914872721935,0.79704,124.99647258574039,118.40172836378463,0.6999825383113268,6.5124,6.454079999999999,-0.40107045659157625,-61.39815732621903,-0.09740282517223994,24.801516,59.475294,7.0105969001693715,174.72254722315623,299.71901980889663,-6.484793747938047,0.0018761079858789118,0.0036489593407600615
2026-05-06T18:22:26+03:00,22.68,281.01,129.99839413723248,0.40824,124.17714293870331,118.69966641725263,0.0,6.454079999999999,6.47352,-0.40107045659157625,-61.30075450104678,-0.20053522829578813,24.801564,59.475276,6.7237598483491485,177.33408136665804,301.51122430536134,-6.447094869722224,0.0018215402868245964,0.005470499627584658
2026-05-06T18:22:27+03:00,22.53,281.02,127.00182486869828,0.6998399999999999,121.9999033172062,118.40172836378463,-0.300000701530499,6.7068,6.454079999999999,-0.6990085100596044,-61.79922778281059,0.40107045659157625,24.801633,59.475272,7.149870183439361,175.5166285917496,297.5165319089558,-6.686277610738532,0.00212019959071355,0.007590699218298208
2026-05-06T18:22:28+03:00,22.53,281.01,120.99722717572726,0.79704,123.47813442864371,117.80012267889725,-0.5000202678106694,6.62904,6.43464,-0.49847328176381617,-62.498236292870196,1.1974817918234204,24.801685,59.475255,7.07258979515497,174.45654820556777,297.93468263421147,-6.598037470974606,0.0018879552176408387,0.009478654435939047
2026-05-06T18:22:29+03:00,22.53,281.02,110.99911365069438,0.50544,125.99914872721935,117.19851699400989,-0.300000701530499,6.92064,6.6095999999999995,-0.20053522829578813,-63.099841977757556,1.3980170201192088,24.801712,59.475217,7.117425518214757,176.19861118301316,302.1977599102325,-6.905413633888669,0.0024282792388240814,0.011906933674763129
2026-05-06T18:22:30+03:00,22.53,281.03,108.99949094568781,0.6998399999999999,123.89066404113791,116.60264088707383,-0.5000202678106694,6.74568,6.43464,-0.09740282517223994,-63.397780031225594,1.1000789666511805,24.80179,59.47522,7.004844225048483,174.579462586061,298.4701266271989,-6.715514451953706,0.002388108544852491,0.01429504221961562
2026-05-06T18:22:31+03:00,22.53,281.03,110.99911365069438,0.79704,121.9999033172062,117.10111416883765,-0.12066491165455136,6.29856,6.492959999999999,-0.20053522829578813,-62.80190392428953,1.0026761414789407,24.801811,59.475181,6.626095867446465,173.55212774497699,295.5520310621832,-6.258718060817526,0.0024302899385986176,0.016725332158214236
2026-05-06T18:22:32+03:00,22.53,281.03,114.0014124971799,0.50544,122.88225832170765,115.54839854403313,0.0430864261938379,6.6679200000000005,6.35688,-0.29793805346802804,-62.60136869599375,0.40107045659157625,24.801864,59.475164,6.889003805471849,176.15685368938142,299.03911201108906,-6.652925702537573,0.0019137014395541828,0.018639033597768417
2026-05-06T18:22:33+03:00,22.53,281.05,114.0014124971799,0.6998399999999999,122.99684988073382,117.30164939713345,-0.2000195662801704,6.59016,6.37632,-0.49847328176381617,-62.80190392428953,0.6016056848873644,24.80191,59.475147,6.904489714735463,174.68702500654678,297.6838748872806,-6.561847056380147,0.0017367636686291743,0.020375797266397593
2026-05-06T18:22:34+03:00,22.53,281.05,116.00103520218647,0.79704,122.99684988073382,116.90057894054185,-0.2000195662801704,6.55128,6.24024,-0.40107045659157625,-63.300377206053355,0.8995437383553924,24.80199,59.475155,6.937776141519794,174.0732911652578,297.07014104599165,-6.516262042928536,0.0024892414957661682,0.02286503876216376
2026-05-06T18:22:35+03:00,22.53,281.05,118.00065790719304,0.50544,121.90250049203395,116.60264088707383,-0.09998113525032865,6.6679200000000005,6.29856,-0.6016056848873644,-63.701447662644924,1.1974817918234204,24.80204,59.475138,6.919620843705802,176.3021971606149,298.20469765264886,-6.654038005363508,0.0018369145053645417,0.0247019532675283
2026-05-06T18:22:36+03:00,22.42,281.05,120.0002806121996,0.29159999999999997,121.9999033172062,116.4995084839503,0.24602807722917552,6.74568,6.337439999999999,-0.49847328176381617,-63.300377206053355,0.6990085100596044,24.802088,59.475122,6.896106596956719,177.90138534324433,299.9012886604505,-6.7411555340531155,0.0017528117317894625,0.026454764999317763
2026-05-06T18:22:37+03:00,22.38,281.05,123.00257945868512,0.60264,121.9999033172062,115.2733788023703,0.2000195662801704,6.7068,6.1624799999999995,-0.40107045659157625,-63.099841977757556,0.49847328176381617,24.802116,59.475081,7.053174832494778,175.89089729534612,297.8908006125523,-6.689559576305002,0.0026084620686382815,0.029063227067956044
2026-05-06T18:22:38+03:00,22.38,281.05,127.99877143222591,0.6998399999999999,120.99722717572726,117.39905222230568,0.600001403060998,6.7068,6.43464,-0.40107045659157625,-62.200298239402166,0.20053522829578813,24.802161,59.475065,7.158926460307336,175.58182005622066,296.5790472319479,-6.6868697987978996,0.0016769955703833665,0.03074022263833941
2026-05-06T18:22:39+03:00,22.38,281.05,133.000692983718,0.40824,121.9999033172062,118.00065790719304,0.5000202678106694,6.59016,6.39576,-0.20053522829578813,-61.79922778281059,-0.09740282517223994,24.802211,59.475048,6.875068579399277,177.51102622781733,299.51092954502354,-6.58394282572767,0.0018369178845228245,0.03257714052286224
2026-05-06T18:22:40+03:00,22.38,281.05,135.99726225225223,0.29159999999999997,121.9999033172062,118.6022635920804,0.2000195662801704,6.72624,6.492959999999999,-0.29793805346802804,-61.30075450104678,0.09740282517223994,24.802283,59.475058,6.938947339138932,178.3270959603803,300.3269992775865,-6.723373127985276,0.0022788262148631744,0.03485596673772541
2026-05-06T18:22:41+03:00,22.38,281.05,138.99956109873773,0.09720000000000001,121.9999033172062,119.30127210214,0.300000701530499,6.72624,6.25968,-0.40107045659157625,-60.60174599098718,0.49847328176381617,24.802336,59.475042,6.799896304803837,179.46267169669804,301.46257501390426,-6.725944216904027,0.0018822978634084808,0.03673826460113389
2026-05-06T18:22:42+03:00,22.38,281.06,138.00261453521009,0.50544,124.58967255119752,117.38186348845176,0.33535219749007084,6.7068,6.53184,-0.40107045659157625,-60.401210762691385,0.40107045659157625,24.802387,59.475025,7.090500251952447,177.26618545982612,301.85585801102366,-6.699166990592672,0.0018623661834743,0.038600630784608195
2026-05-06T18:22:43+03:00,22.38,281.06,131.00107027871144,0.6998399999999999,124.91052891647078,117.49072546952664,0.03002298846485514,6.6095999999999995,6.37632,-0.29793805346802804,-60.401210762691385,0.49847328176381617,24.802438,59.47501,7.088450737491346,175.72687538267957,300.6374042991504,-6.591226591871035,0.001799217077456493,0.040399847862064686
2026-05-06T18:22:44+03:00,22.38,281.06,127.00182486869828,0.40824,122.99684988073382,117.37040433254914,0.136421251020649,6.59016,6.14304,-0.8021409131831525,-60.80228121928296,0.6990085100596044,24.80249,59.474993,6.843625650723613,177.26942225873634,300.2662721394702,-6.582677485121908,0.0018879655702767242,0.04228781343234141
2026-05-06T18:22:45+03:00,22.35,281.06,127.99877143222591,0.19440000000000002,123.99952602221278,116.98652260981147,-0.35615056545331975,6.804,6.6679200000000005,-0.49847328176381617,-61.70182495763835,1.1000789666511805,24.80254,59.474977,6.925375843384564,178.73249293509025,302.732018957303,-6.8023351615014,0.0018041757779647168,0.04409198921030613
2026-05-06T18:22:46+03:00,22.23,281.06,125.99914872721935,0.50544,123.75888374825782,118.09806073236527,-0.2000195662801704,6.5124,6.201359999999999,-0.40107045659157625,-62.09716583627862,0.8021409131831525,24.802564,59.474931,6.821750828924604,176.56347788160983,300.32236162986766,-6.500689541625721,0.0028603917100333102,0.046952380920339445
2026-05-06T18:22:47+03:00,22.23,281.07,131.00107027871144,0.6998399999999999,123.99952602221278,118.29859596066107,0.2000195662801704,6.55128,6.24024,-0.40107045659157625,-61.30075450104678,0.40107045659157625,24.802638,59.474945,7.030294198786175,175.69146040907648,299.6909864312893,-6.532765737609233,0.002410826563825907,0.04936320748416535
2026-05-06T18:22:48+03:00,22.23,281.07,140.00223724021666,0.40824,122.99684988073382,117.45061842386747,0.34285794460628455,6.43464,6.39576,-0.49847328176381617,-61.002816447578745,0.0,24.802659,59.474901,6.7524805375488475,177.7729421602747,300.76979204100854,-6.429779764570541,0.0027213388302041136,0.05208454631436946
2026-05-06T18:22:49+03:00,22.23,281.08,140.99918380374427,0.60264,123.99952602221278,117.6110466065041,0.2000195662801704,6.53184,6.68736,-0.29793805346802804,-60.49861358786363,-0.6016056848873644,24.802748,59.474911,7.0104402264497265,176.89882116014024,300.898347182353,-6.522274495658614,0.0027828291751602605,0.054867375489529725
2026-05-06T18:22:50+03:00,22.23,281.08,131.00107027871144,0.40824,122.99684988073382,119.50180733043581,-0.09998113525032865,6.53184,6.47352,0.7219268218648373,-60.69914881615941,-0.14896902673401402,24.802852,59.474878,6.806651764795824,177.4056660544062,300.40251593514,-6.525145196543094,0.0037437485246505434,0.05861112401418027
2026-05-06T18:22:51+03:00,22.12,281.08,131.00107027871144,0.6998399999999999,127.99877143222591,118.49913118895687,-1.4000223724021665,6.55128,6.5124,-0.49847328176381617,-62.09716583627862,0.09740282517223994,24.802843,59.474837,7.030294198786175,175.69146040907648,303.6902318413024,-6.532765737609233,0.0024796864934858716,0.06109081050766614
2026-05-06T18:22:52+03:00,22.08,281.08,125.99914872721935,0.79704,125.99914872721935,116.20157043048223,-2.499986747494321,6.62904,6.4152,-0.29793805346802804,-65.0020618575919,1.701684651538545,24.802954,59.474846,7.126750534947188,174.80879863322207,300.8079473604414,-6.601849698957319,0.003431704926182302,0.06452251543384845
2026-05-06T18:22:53+03:00,22.08,281.08,121.9999033172062,0.50544,121.9999033172062,113.30240398712029,-2.499986747494321,6.648479999999999,6.27912,-0.29793805346802804,-67.70069307265807,2.8017636181897254,24.803006,59.474832,6.929591320649875,176.4536393635508,298.453542680757,-6.635748656199342,0.0017967846408668518,0.0663193000747153
2026-05-06T18:22:54+03:00,22.08,281.08,120.0002806121996,0.79704,120.99722717572726,110.90171082552214,-1.8000042091829944,6.78456,6.35688,-0.40107045659157625,-69.99825383113267,2.498095986770389,24.803057,59.474818,7.216172027425268,174.5110435681753,295.5082707439026,-6.7534504437369645,0.0017698685065429833,0.06808916858125828
2026-05-06T18:22:55+03:00,22.05,281.07,129.99839413723248,0.89424,117.99492832924174,109.10262334881135,-1.200002806121996,6.68736,6.5124,-0.29793805346802804,-71.49940325437544,0.8021409131831525,24.803107,59.474805,7.294385971572788,174.61119288927136,292.6061212185131,-6.657804075134185,0.0017148611026756358,0.06980402968393391
2026-05-06T18:22:56+03:00,21.93,281.08,163.0007631367679,0.50544,115.99530562423517,108.19735003250467,-0.9000021045914972,6.648479999999999,6.492959999999999,-0.29793805346802804,-71.99787653613924,0.0,24.803107,59.474759,7.133367358133301,178.81301525874267,294.80832088297785,-6.647053335530007,0.0027649549551353146,0.07256898463906923
2026-05-06T18:22:57+03:00,21.93,281.08,-140.00137780352395,0.29159999999999997,113.99568291922859,107.69887675074084,-0.6999825383113268,6.68736,6.62904,-0.40107045659157625,-72.70261462415016,0.8995437383553924,24.803162,59.474746,6.913284335385823,178.4464186395112,295.54926427971736,-6.684901779490646,0.001852050890800987,0.07442103552987021
2026-05-06T18:22:58+03:00,21.9,281.09,-91.00202716393596,0.60264,113.99568291922859,107.29780629414927,-0.2000195662801704,6.82344,6.901199999999999,-0.20053522829578813,-72.5994822210266,1.598552248414997,24.803213,59.474735,6.860490554183547,174.96129500054522,299.03438791868336,-6.797071460959153,0.0016915898853336138,0.07611262541520383
2026-05-06T18:22:59+03:00,21.78,281.08,-82.00086020243072,0.6998399999999999,114.99835906070751,108.00254438216018,0.3999818367808277,6.901199999999999,6.6095999999999995,-0.29793805346802804,-71.60253565749898,1.0026761414789407,24.803275,59.474722,6.839016190736112,174.18395785151006,300.81440120919746,-6.865675212083601,0.0020477942719780446,0.07816041968718188
2026-05-06T18:23:00+03:00,21.78,281.08,-93.99859643247017,0.40824,114.99835906070751,109.49796422745162,0.600001403060998,6.95952,6.43464,-0.20053522829578813,-69.99825383113267,0.0,24.803376,59.474742,6.9998441053367095,176.66468650509458,298.3336725556129,-6.947731604312519,0.0033095639327417182,0.0814699836199236
2026-05-06T18:23:01+03:00,21.78,281.09,-110.99825421400169,0.29159999999999997,113.99568291922859,110.70117559722634,0.300000701530499,6.6095999999999995,6.37632,-0.40107045659157625,-69.00130726760504,-0.6016056848873644,24.80338,59.4747,6.719608672539395,177.67810881104953,296.3175741081791,-6.604173445008475,0.0025274760127756033,0.0839974596326992
2026-05-06T18:23:02+03:00,21.67,281.09,-125.001342726999,0.09720000000000001,112.99873635570096,110.99911365069438,-0.3999818367808277,6.57072,5.90976,-0.6016056848873644,-69.29924532107307,-0.29793805346802804,24.803485,59.474719,6.626951816235074,179.3115967274696,293.68713962823136,-6.570245738000123,0.0034029909795374323,0.08740045061223663
2026-05-06T18:23:03+03:00,21.63,281.09,-138.998701662045,0.09720000000000001,113.99568291922859,110.09956991233898,-0.8000209693411684,6.5124,6.25968,-0.8021409131831525,-70.5024566908478,0.8021409131831525,24.803494,59.474678,6.586065067772571,179.44521602970394,294.5504668895246,-6.512094711656453,0.0024796866367893643,0.089880137249026
2026-05-06T18:23:04+03:00,21.63,281.08,-155.99835944357653,0.0,114.99835906070751,108.70155289221978,-0.6999825383113268,6.5124,6.62904,-0.6016056848873644,-71.900473710967,1.501149423242757,24.803595,59.474693,6.5124,180.0,294.9983590607075,-6.5124,0.003212627510716689,0.09309276475974268
2026-05-06T18:23:05+03:00,21.48,281.09,-166.99914911008833,0.0,111.99606021422201,107.80200915386439,-0.600001403060998,6.62904,6.43464,-0.29793805346802804,-72.39894699273083,0.8021409131831525,24.803651,59.47468,6.62904,180.0,291.996060214222,-6.62904,0.0018797775091060746,0.09497254226884876
2026-05-06T18:23:06+03:00,21.48,281.09,-155.99835944357653,0.0,110.99911365069438,107.69887675074084,-0.2000195662801704,6.5124,6.35688,-0.40107045659157625,-72.30154416755859,0.20053522829578813,24.803705,59.474667,6.5124,180.0,290.99911365069437,-6.5124,0.0018244203980394816,0.09679696266688824
2026-05-06T18:23:07+03:00,21.48,281.1,-138.00175509851738,0.50544,111.99606021422201,107.20040346897702,-0.9000021045914972,6.59016,6.318,-0.49847328176381617,-73.09795550279043,-0.29793805346802804,24.80376,59.474655,6.9739904252212,177.22043152443422,294.7756286897878,-6.582406634159159,0.0018275076841136782,0.09862447035100191
2026-05-06T18:23:08+03:00,21.33,281.1,-125.99828929052664,0.6998399999999999,112.74090534789208,107.20040346897702,0.600001403060998,6.6095999999999995,6.4152,-0.6990085100596044,-72.5994822210266,0.20053522829578813,24.803815,59.474643,7.04373175753377,175.38943176768433,297.35147358020777,-6.588211788958434,0.0018275082320328303,0.10045197858303474
2026-05-06T18:23:09+03:00,21.33,281.1,-129.00058813701216,0.40824,112.99873635570096,107.89941197903663,0.9999832398418258,6.57072,6.59016,-0.20053522829578813,-71.69993848267123,0.40107045659157625,24.803839,59.474607,6.835004076709992,177.33955388387741,295.65918247182356,-6.56363779322214,0.0022845661254805973,0.10273654470851534
2026-05-06T18:23:10+03:00,21.18,281.09,-142.00100050853052,0.19440000000000002,110.99911365069438,108.99949094568781,0.9999832398418258,6.97896,6.4152,-0.40107045659157625,-70.5024566908478,0.40107045659157625,24.803922,59.474615,7.133155478071027,179.03863157744163,291.96048207325276,-6.97797760766427,0.002579205119243079,0.10531574982775842
2026-05-06T18:23:11+03:00,21.18,281.1,-155.99835944357653,0.09720000000000001,111.99606021422201,110.00216708716675,0.8000209693411684,6.82344,6.492959999999999,-0.6016056848873644,-69.70031577766464,0.09740282517223994,24.803974,59.474602,6.912348560483391,179.67227704315704,292.323783171065,-6.823328380348641,0.0017694406244548207,0.10708519045221324
2026-05-06T18:23:12+03:00,21.03,281.1,-164.00257984155417,0.09720000000000001,112.99873635570096,110.39750796580702,0.5000202678106694,6.78456,6.492959999999999,-0.6990085100596044,-69.40237772419663,-0.09740282517223994,24.804025,59.474587,6.878048008045957,179.77685114342543,293.22188521227554,-6.784508544096321,0.0017992339481795855,0.10888442440039282
2026-05-06T18:23:13+03:00,20.92,281.1,-168.0018252515673,0.50544,113.99568291922859,110.70117559722634,0.2000195662801704,6.7068,6.492959999999999,-0.29793805346802804,-69.29924532107307,0.29793805346802804,24.804062,59.47455,7.201964765155121,179.16406892125121,294.83161399797734,-6.706086205272857,0.0024944191078037337,0.11137884350819656
2026-05-06T18:23:14+03:00,20.88,281.1,-176.99726263512122,0.40824,114.99835906070751,110.70117559722634,0.2000195662801704,6.84288,6.55128,-0.29793805346802804,-69.29924532107307,0.29793805346802804,24.804118,59.474538,7.250591037042353,179.8310098846709,295.1673491760366,-6.842850236366136,0.001855603595134173,0.11323444710333073
2026-05-06T18:23:15+03:00,20.88,281.08,174.00155280327974,0.60264,116.99798176571409,110.99911365069438,0.09998113525032865,7.2122399999999995,6.492959999999999,-0.20053522829578813,-68.89817486448149,-0.20053522829578813,24.804174,59.474523,7.811834236639134,179.53809268659234,296.5360744523064,-7.212005629884211,0.001932851516077803,0.11516729861940854
2026-05-06T18:23:16+03:00,20.81,281.09,168.99963125178763,0.40824,116.99798176571409,111.60071933558174,0.0,6.940079999999999,6.43464,-0.29793805346802804,-68.19916635442189,0.09740282517223994,24.804243,59.47453,7.341232285190154,179.3920181757222,296.38999994143626,-6.939689279378185,0.0021481782084549466,0.11731547682786349
2026-05-06T18:23:17+03:00,20.73,281.1,165.0003858417745,0.19440000000000002,116.99798176571409,109.4005614022794,-0.04509177847679579,6.84288,6.37632,0.716197243913529,-68.39970158271767,0.9568395178684748,24.804297,59.474515,7.030836344001572,179.5899838850231,296.58796565073715,-6.842704788074347,0.0018790578995038724,0.11919453472736737
2026-05-06T18:23:18+03:00,20.66,281.1,155.99921888026924,0.09720000000000001,117.99492832924174,109.09116419290874,0.09184513455947096,6.9984,6.24024,0.6818197762056798,-68.80077203930925,0.2807493196141034,24.804333,59.474481,7.087306354704677,179.68037809038896,297.6753064196307,-6.998291108129387,0.002320459935163743,0.12151499466253111
2026-05-06T18:23:19+03:00,20.58,281.1,151.9999734702561,0.09720000000000001,115.99530562423517,109.32607688891237,0.44266719251807407,6.804,6.454079999999999,0.693278932108296,-68.50283398584122,0.320856365273261,24.804385,59.474469,6.889973600419095,179.620524113922,295.6158297381572,-6.803850770108113,0.001743736390978452,0.12325873105350957
2026-05-06T18:23:20+03:00,20.43,281.1,153.99959617526267,0.0,116.99798176571409,109.53234169515947,0.4058833020706752,6.492959999999999,6.37632,0.7964113352318443,-68.39970158271767,-0.7104676659622208,24.804439,59.474456,6.492959999999999,180.0,296.9979817657141,-6.492959999999999,0.0018244297022692489,0.12508316075577883
2026-05-06T18:23:21+03:00,20.36,281.11,163.0007631367679,0.0,115.99530562423517,109.91049383994581,0.009396507840145502,6.62904,6.4152,0.47555496995858326,-67.99863112612611,-0.24064227395494575,24.804516,59.47446,6.62904,180.0,295.9953056242352,-6.62904,0.002363077487380616,0.12744623824315945
2026-05-06T18:23:22+03:00,20.28,281.11,168.00268468825996,0.0,115.99530562423517,109.38910224637678,-0.16214705602202295,6.8623199999999995,6.43464,0.739115555718762,-68.89817486448149,-0.5557690612768985,24.804572,59.474446,6.8623199999999995,180.0,295.9953056242352,-6.8623199999999995,0.0019055585017108178,0.12935179674487027
2026-05-06T18:23:23+03:00,20.25,281.11,168.00268468825996,0.0,114.99835906070751,109.16564870627575,-0.2000195662801704,6.9984,6.6679200000000005,0.7964113352318443,-68.60023681101347,1.2032113697747289,24.804625,59.474433,6.9984,180.0,294.9983590607075,-6.9984,0.0017968901756503803,0.13114868692052065
2026-05-06T18:23:24+03:00,20.13,281.11,161.00114043176134,0.0,115.99530562423517,108.8562514969051,-0.300000701530499,6.940079999999999,6.318,0.5672282171795151,-68.69763963618571,0.22345354010102106,24.804657,59.474403,6.940079999999999,180.0,295.9953056242352,-6.940079999999999,0.002050877974038779,0.13319956489455942
2026-05-06T18:23:25+03:00,20.1,281.12,155.99921888026924,0.0,115.99530562423517,108.94792474412603,0.12123786944968219,6.8623199999999995,6.37632,0.7219268218648373,-68.30229875754543,0.7047380880109125,24.804733,59.474407,6.8623199999999995,180.0,295.9953056242352,-6.8623199999999995,0.0023327115540809715,0.13553227644864038
2026-05-06T18:23:26+03:00,19.98,281.12,155.99921888026924,0.0,116.99798176571409,111.698122160754,0.0,6.7068,6.08472,0.6359831525952138,-68.39970158271767,0.37242256683503505,24.804763,59.474377,6.7068,180.0,296.9979817657141,-6.7068,0.0020225041467133043,0.1375547805953537
2026-05-06T18:23:27+03:00,19.87,281.11,159.99846429028239,0.0,115.99530562423517,108.87916980871034,-0.09998113525032865,6.76512,6.18192,0.8479775367936184,-68.60023681101347,-0.5213915935690492,24.804813,59.474364,6.76512,180.0,295.9953056242352,-6.76512,0.0017148788399003235,0.13926965943525402
2026-05-06T18:23:28+03:00,19.83,281.12,161.99808699528896,0.0,115.99530562423517,111.60071933558174,0.3999818367808277,6.84288,6.2208000000000006,0.7849521793292279,-68.30229875754543,0.12032113697747288,24.804894,59.474368,6.84288,180.0,295.9953056242352,-6.84288,0.0024846017461140225,0.14175426118136805
2026-05-06T18:23:29+03:00,19.72,281.13,159.00151772675477,0.0,115.99530562423517,111.49758693245819,-0.2000195662801704,6.6095999999999995,6.47352,0.739115555718762,-68.69763963618571,0.20626480624709637,24.804948,59.474355,6.6095999999999995,180.0,295.9953056242352,-6.6095999999999995,0.0018244341557515412,0.1435786953371196
2026-05-06T18:23:30+03:00,19.68,281.13,155.0022723167416,0.0,115.99530562423517,111.49758693245819,0.09998113525032865,6.62904,6.18192,0.590146528984748,-68.60023681101347,0.37242256683503505,24.804975,59.474325,6.62904,180.0,295.9953056242352,-6.62904,0.0019827097784664146,0.145561405115586
2026-05-06T18:23:31+03:00,19.68,281.13,153.00264961173502,0.0,116.99798176571409,111.19964887899017,0.0,6.804,6.201359999999999,0.8594366926962348,-68.80077203930925,-0.011459155902616466,24.805059,59.474329,6.804,180.0,296.9979817657141,-6.804,0.0025757805216682305,0.14813718563725423
2026-05-06T18:23:32+03:00,19.65,281.13,153.99959617526267,0.0,115.99530562423517,111.40018410728595,0.09998113525032865,6.53184,6.35688,0.5672282171795151,-68.50283398584122,0.8537071147449266,24.805091,59.4743,6.53184,180.0,295.9953056242352,-6.53184,0.001998234970617773,0.150135420607872
2026-05-06T18:23:33+03:00,19.53,281.14,155.0022723167416,0.0,118.99760447072069,111.60071933558174,0.0,6.37632,6.6095999999999995,-0.49847328176381617,-68.30229875754543,0.29793805346802804,24.805136,59.474287,6.37632,180.0,298.9976044707207,-6.37632,0.001580530187282605,0.1517159507951546
2026-05-06T18:23:34+03:00,19.5,281.13,155.99921888026924,0.0,116.99798176571409,111.698122160754,0.0,6.337439999999999,6.18192,-0.6016056848873644,-68.19916635442189,0.40107045659157625,24.805198,59.474275,6.337439999999999,180.0,296.9979817657141,-6.337439999999999,0.002025643813325561,0.15374159460848016
2026-05-06T18:23:35+03:00,19.38,281.14,155.0022723167416,0.0,116.99798176571409,111.80125456387754,0.0,6.35688,6.39576,-0.6016056848873644,-68.39970158271767,0.40107045659157625,24.80525,59.474259,6.35688,180.0,296.9979817657141,-6.35688,0.0018561510293837753,0.15559774563786394
2026-05-06T18:23:36+03:00,19.38,281.15,157.0018950217482,0.0,116.99798176571409,111.80125456387754,0.2000195662801704,6.1236,6.39576,-0.40107045659157625,-68.19916635442189,0.0,24.805335,59.474262,6.1236,180.0,296.9979817657141,-6.1236,0.0026013274925752003,0.15819907313043913
2026-05-06T18:23:37+03:00,19.23,281.14,161.00114043176134,0.0,114.99835906070751,112.00178979217334,0.0,6.1624799999999995,6.2208000000000006,-0.40107045659157625,-67.79809589783031,-0.09740282517223994,24.805391,59.474249,6.1624799999999995,180.0,294.9983590607075,-6.1624799999999995,0.0018797973465618256,0.16007887047700095
2026-05-06T18:23:38+03:00,19.23,281.14,161.99808699528896,0.0,116.99798176571409,112.2023250204691,0.0,6.10416,6.37632,-0.49847328176381617,-67.79809589783031,0.6990085100596044,24.805445,59.474235,6.10416,180.0,296.9979817657141,-6.10416,0.001850980424308182,0.16192985090130912
2026-05-06T18:23:39+03:00,19.08,281.14,155.0022723167416,0.0,119.9945510342483,112.00178979217334,0.0,6.35688,6.4152,-0.49847328176381617,-67.99863112612611,1.0026761414789407,24.805498,59.474221,6.35688,180.0,299.9945510342483,-6.35688,0.0018238411114529524,0.16375369201276208
2026-05-06T18:23:40+03:00,19.08,281.14,150.0003507652495,0.0,118.99760447072069,112.2023250204691,0.600001403060998,6.454079999999999,6.25968,-0.40107045659157625,-67.50015784436228,0.09740282517223994,24.805551,59.474207,6.454079999999999,180.0,298.9976044707207,-6.454079999999999,0.0018238417064284425,0.1655775337191905
2026-05-06T18:23:41+03:00,19.01,281.14,157.0018950217482,0.0,116.99798176571409,113.39980681229254,1.1000216708716675,6.47352,6.454079999999999,-0.20053522829578813,-65.90160559594727,-0.49847328176381617,24.805541,59.474177,6.47352,180.0,296.9979817657141,-6.47352,0.0018288941249499182,0.16740642784414042
2026-05-06T18:23:42+03:00,18.93,281.15,168.00268468825996,0.0,118.87155375579191,114.20194772547569,-0.2000195662801704,6.43464,6.5124,-0.20053522829578813,-65.90160559594727,-0.6990085100596044,24.805597,59.474162,6.43464,180.0,298.8715537557919,-6.43464,0.001932867675039635,0.16933929551918006
2026-05-06T18:23:43+03:00,18.93,281.14,176.00117550828628,0.0,117.12976205859417,113.80087726888412,-0.5000202678106694,6.5124,6.454079999999999,-0.6990085100596044,-66.30267605253886,0.0,24.805706,59.474164,6.5124,180.0,297.12976205859417,-6.5124,0.0033299759018430306,0.1726692714210231
2026-05-06T18:23:44+03:00,18.82,281.14,172.00193009827314,0.0,120.99722717572726,112.70079830223293,-0.9999832398418258,6.59016,6.2208000000000006,-0.40107045659157625,-67.90122830095386,1.0026761414789407,24.805758,59.47415,6.59016,180.0,300.9972271757273,-6.59016,0.0017968129569236274,0.17446608437794672
2026-05-06T18:23:45+03:00,18.78,281.14,161.00114043176134,0.0,120.99722717572726,111.49758693245819,-0.9999832398418258,6.5124,6.5124,-0.40107045659157625,-69.09871009277728,1.598552248414997,24.805755,59.47412,6.5124,180.0,300.9972271757273,-6.5124,0.001805556073770536,0.17627164045171725
2026-05-06T18:23:46+03:00,18.78,281.13,151.9999734702561,0.0,118.99760447072069,110.20270231546253,-0.8000209693411684,6.492959999999999,6.10416,-0.40107045659157625,-70.10138623425622,1.3980170201192088,24.80581,59.474107,6.492959999999999,180.0,298.9976044707207,-6.492959999999999,0.0018520796855288901,0.17812372013724614
2026-05-06T18:23:47+03:00,18.75,281.14,155.99921888026924,0.0,115.85206617545245,110.09956991233898,0.0,6.492959999999999,6.27912,-0.49847328176381617,-69.90085100596043,0.6016056848873644,24.805915,59.474109,6.492959999999999,180.0,295.8520661754525,-6.492959999999999,0.0032079424579008575,0.181331662595147
2026-05-06T18:23:48+03:00,18.63,281.14,-179.0026149180791,0.50544,116.61982962092776,110.00216708716675,-0.300000701530499,6.454079999999999,6.39576,-0.40107045659157625,-70.10138623425622,-0.20053522829578813,24.805968,59.474095,6.959448982334783,179.9275671117754,296.69226250915233,-6.454074842602188,0.0018238464655419694,0.18315550906068895
2026-05-06T18:23:49+03:00,18.63,281.15,-146.9971924820713,0.6998399999999999,115.99530562423517,109.69849945574742,-0.6999825383113268,6.4152,6.53184,-0.49847328176381617,-70.59985951602003,0.09740282517223994,24.805965,59.474066,7.0124846484584875,176.88394500225215,299.111360621983,-6.405714982849549,0.0017455284142573323,0.18490103747494627
2026-05-06T18:23:50+03:00,18.63,281.14,-132.9998335470253,0.40824,116.99798176571409,108.50101766392399,-1.2999839413723246,6.55128,6.454079999999999,-0.6990085100596044,-72.19841176443504,1.501149423242757,24.806078,59.47407,6.836221175575915,177.49683840859316,299.5011433571209,-6.545028854676706,0.0034583040734574616,0.18835934154840372
2026-05-06T18:23:51+03:00,18.63,281.14,-138.998701662045,0.19440000000000002,110.95900660503523,106.50139495891743,-1.7000230739326654,6.78456,6.337439999999999,-0.29793805346802804,-74.39856969773739,2.6012283898939375,24.806082,59.474039,6.932445985247644,178.9458288197729,292.0131777852623,-6.7834116971209575,0.0018673367973526189,0.19022667834575635
2026-05-06T18:23:52+03:00,18.48,281.15,-151.9991140335634,0.09720000000000001,114.99835906070751,104.79971030737887,-1.4000223724021665,6.74568,6.47352,-0.49847328176381617,-75.80231629580791,2.6986312150661775,24.806146,59.474027,6.831654214566239,179.61727381933372,295.3810852413738,-6.7455295039147805,0.0020828289970979265,0.19230950734285426
2026-05-06T18:23:53+03:00,18.48,281.15,-144.00062321353712,0.09720000000000001,112.99873635570096,103.80276374385124,-0.3999818367808277,6.648479999999999,6.4152,-0.6990085100596044,-76.30078957757173,1.598552248414997,24.806243,59.474038,6.727359672890645,179.51341170945093,293.48532464625004,-6.64824024492806,0.003034364540159599,0.19534387188301386
2026-05-06T18:23:54+03:00,18.48,281.15,-116.00017576549378,0.0,109.2687811093993,101.91773259787082,0.6429159419162968,6.4152,6.27912,0.9052733163067008,-76.30078957757173,-0.5557690612768985,24.806298,59.474029,6.4152,180.0,289.2687811093993,-6.4152,0.001764163827045256,0.1971080357100591
2026-05-06T18:23:55+03:00,18.48,281.14,-108.00168494546749,0.40824,111.85855034339062,105.09764836084692,0.9999832398418258,6.6679200000000005,6.2208000000000006,-0.20053522829578813,-74.10063164426936,-0.09740282517223994,24.806313,59.47399,6.805169124842399,176.72932545883916,295.1292248845515,-6.657058949185674,0.0023885147264322386,0.19949655043649134
2026-05-06T18:23:56+03:00,18.48,281.15,-110.99825421400169,0.60264,107.99681480420887,104.58198634522915,1.7089612155367064,6.72624,6.24024,0.8193296470370772,-72.1010089392628,-0.8422479588423101,24.806405,59.474007,6.964950737402,175.3666746387854,292.6301401654234,-6.704259072568257,0.002988898733751179,0.20248544917024253
2026-05-06T18:23:57+03:00,18.48,281.14,-104.99938609898197,0.40824,108.99949094568781,106.2836709967677,1.4382959531169055,6.72624,6.14304,0.7620338675239948,-70.10138623425622,-0.9052733163067008,24.806457,59.473996,6.843266799898469,176.69660601075802,292.3028849349298,-6.715063713134509,0.0017197644273266993,0.2042052135975692
2026-05-06T18:23:58+03:00,18.48,281.14,-99.00051798396224,0.6998399999999999,115.19889428900332,107.64731054917908,1.1834443258427154,6.454079999999999,6.318,0.8078704911344607,-68.80077203930925,-0.962569095819783,24.806508,59.473984,6.599862045783808,173.98822088294358,301.21067340605975,-6.418585044387526,0.0017160074636811456,0.20592122106125035
2026-05-06T18:23:59+03:00,18.37,281.13,-97.99784184248331,1.20528,115.78904081798807,108.65571626860932,1.091370008165192,6.492959999999999,6.318,0.7849521793292279,-68.19916635442189,-0.5042028597151245,24.806561,59.473971,6.7667523249077774,169.84070750970363,305.9483333082844,-6.391158014714511,0.0017969101011651297,0.20771813116241547
2026-05-06T18:24:00+03:00,18.37,281.13,-116.00017576549378,1.10808,114.99835906070751,109.11981208266529,1.2401098517811537,6.59016,6.37632,0.739115555718762,-68.30229875754543,-0.18334649444186346,24.806614,59.473957,7.145658456659362,171.98825284522513,303.0101062154824,-6.52583683393877,0.0018238523294467827,0.20954198349186226
2026-05-06T18:24:01+03:00,18.33,281.14,-164.99952640508178,0.60264,112.99873635570096,110.14540653594948,1.0756136687990947,6.7068,6.47352,0.7792226013779195,-67.40275501919004,0.08594366926962349,24.806668,59.473943,7.29057300810644,178.77408124728706,294.2246551084139,-6.705264863832962,0.0018509931160294406,0.2113929766078917
2026-05-06T18:24:02+03:00,18.48,281.13,112.99873635570096,0.40824,112.99873635570096,111.10797563176924,1.438639727793984,6.6095999999999995,6.53184,0.8708958485988514,-66.30267605253886,-0.5729577951308232,24.806721,59.473929,6.779526866346104,176.82245583009282,289.8211921857938,-6.599438173045839,0.0018238535188713505,0.21321683012676304
2026-05-06T18:24:03+03:00,18.48,281.14,69.99825383113267,0.60264,116.99798176571409,111.75541794026707,0.5016818454165488,6.648479999999999,6.454079999999999,0.9281916281119336,-65.39740273623217,-1.0771606548459478,24.806774,59.473915,6.467188618561109,174.97654393491482,291.9745257006289,-6.622942751583587,0.001823854114026674,0.2150406842407897
2026-05-06T18:24:04+03:00,18.48,281.13,61.99976301110639,0.79704,120.71074827816182,112.3914010928623,0.4720599274082853,6.6679200000000005,6.454079999999999,0.7505747116213785,-64.60099140100031,0.4469070802020421,24.806827,59.4739,6.3329523062867565,173.619886623583,294.3306349017448,-6.626622562369752,0.0018523555989852006,0.2168930398397749
2026-05-06T18:24:05+03:00,18.45,281.13,75.00017538262475,0.40824,121.9999033172062,112.99300677774966,0.9858311823020944,7.07616,6.2208000000000006,0.9052733163067008,-63.901982890940715,-0.4068000345428845,24.80688,59.473885,6.9816458756626725,176.7621577724627,298.7620610896689,-7.064864169424392,0.0018523562267285542,0.21874539606650345
2026-05-06T18:24:06+03:00,18.33,281.14,97.99870127917599,0.29159999999999997,121.9999033172062,114.05297869874167,0.7103530744031946,6.53184,6.0652800000000004,0.813600069085769,-62.698771521165995,-0.16615776058793874,24.806931,59.473869,6.57875676307216,177.48429314431797,299.48419646152416,-6.525544784936891,0.0018301220841297919,0.22057551815063325
2026-05-06T18:24:07+03:00,18.33,281.13,120.99722717572726,0.6998399999999999,120.99722717572726,114.63739564977512,0.6866899174642918,6.25968,6.08472,0.836518380891002,-61.79922778281059,-0.716197243913529,24.806984,59.473853,6.647220287560895,174.82213354275626,295.8193607184835,-6.234136348937864,0.0018823468166951603,0.22245786496732842
2026-05-06T18:24:08+03:00,18.22,281.13,135.00031568872456,0.79704,120.99722717572726,115.07857315202585,0.34205580369310146,6.27912,5.890319999999999,0.8193296470370772,-61.50128972934256,-0.48701412586119974,24.806994,59.473819,6.865885828828273,175.2915527938199,296.28877996954714,-6.2579298265122825,0.002066341622486502,0.22452420658981492
2026-05-06T18:24:09+03:00,18.18,281.13,131.00107027871144,0.50544,124.99647258574039,115.31921542598079,0.2685453185778169,6.29856,6.18192,0.7104676659622208,-62.09716583627862,0.739115555718762,24.807042,59.473803,6.641129664303784,176.70722404937896,301.70369663511934,-6.288161496606731,0.0017528595647723906,0.22627706615458731
2026-05-06T18:24:10+03:00,18.18,281.13,110.00216708716675,0.29159999999999997,122.71037098316842,115.65153094715666,0.5482060183811717,6.492959999999999,6.24024,0.5844169510334397,-62.40083346769795,0.836518380891002,24.807133,59.473803,6.598395291606067,177.62000216984035,300.33037315300874,-6.487359095839408,0.0027782890301307392,0.22905535518471806
2026-05-06T18:24:11+03:00,18.18,281.13,86.9979116126642,0.19440000000000002,123.43229780503324,116.09270844940738,0.5194435370656043,6.59016,6.4152,0.7333859777674538,-62.29770106457441,-0.9568395178684748,24.807186,59.473787,6.582842007625639,178.3100571847645,301.7423549897977,-6.587293623521277,0.0018823495339423946,0.23093770471866046
2026-05-06T18:24:12+03:00,18.15,281.13,71.99787653613924,0.60264,122.99684988073382,116.40783523672934,0.3503636917224984,6.57072,6.43464,0.8193296470370772,-61.79922778281059,-0.3036676314193363,24.807192,59.473753,6.410146591139671,174.87027511735863,297.86712499809244,-6.544403039446139,0.0020518558029035765,0.23298956052156403
2026-05-06T18:24:13+03:00,18.15,281.13,75.00017538262475,0.6998399999999999,124.99647258574039,117.10111416883765,-1.200002806121996,6.648479999999999,6.35688,0.6531718864491385,-63.598315259521385,0.664631042351755,24.807296,59.473753,6.502583021261351,174.03287695390992,299.0293495396503,-6.6124566154724125,0.0031751921620039873,0.236164752683568
2026-05-06T18:24:14+03:00,18.15,281.13,82.00171963912342,0.40824,123.99952602221278,116.09843802735871,-0.9999832398418258,6.76512,6.43464,-0.09740282517223994,-63.999385716112954,0.49847328176381617,24.807352,59.473738,6.72048645581298,176.55130843440185,300.5508344566146,-6.75286882254313,0.0019328866549202471,0.23809763933848827
2026-05-06T18:24:15+03:00,18.03,281.12,80.00209693411685,0.6998399999999999,120.99722717572726,115.50256192042265,-0.9000021045914972,6.901199999999999,6.27912,0.7620338675239948,-65.0020618575919,1.2433184154338865,24.807405,59.473722,6.814641294583824,174.19535286164356,295.1925800373708,-6.86581415977243,0.0018823522100175013,0.23997999154850577
2026-05-06T18:24:16+03:00,18.03,281.11,67.99863112612611,1.20528,120.79096236948016,112.1965954425178,-0.8000209693411684,6.5124,6.25968,0.5557690612768985,-65.59793796452794,1.3407212406061262,24.807457,59.473707,6.163029506069507,169.55310948740134,290.3440718568815,-6.404446587229518,0.0018257540946796076,0.24180574564318538
2026-05-06T18:24:17+03:00,18.03,281.11,60.0001403060998,1.10808,117.99492832924174,114.0014124971799,-0.6999825383113268,6.72624,6.25968,0.6474423084978302,-66.30267605253886,1.0599719209920229,24.807508,59.473692,6.24635617118194,171.1626590798955,289.15758740913725,-6.646389222210447,0.0017992696442335227,0.2436050152874189
2026-05-06T18:24:18+03:00,18.03,281.12,58.99746416462087,1.10808,117.99492832924174,113.89828009405635,-0.19858717179234334,6.6095999999999995,6.18192,0.6875493541569879,-65.99900842111953,0.6073352628386726,24.807561,59.473677,6.113088867356744,171.0618006403185,289.05672896956025,-6.529336322924942,0.0018523649289959093,0.2454573802164148
2026-05-06T18:24:19+03:00,18.03,281.12,61.99976301110639,0.6998399999999999,119.15230307540601,113.80087726888412,-0.300000701530499,6.5124,6.0264,0.7849521793292279,-66.10214082424308,0.1546986046853223,24.807612,59.473663,6.214638654978347,174.2936594577,293.445962533106,-6.480128275988374,0.0017699153356926223,0.24722729555210743
2026-05-06T18:24:20+03:00,18.03,281.13,63.999385716112954,0.79704,118.99187489276937,113.89828009405635,0.0,6.5124,6.39576,-0.49847328176381617,-65.99900842111953,0.0,24.807662,59.473649,6.20448788998943,173.36983388989609,292.36170878266546,-6.468845809574321,0.0017431171261250154,0.24897041267823244
2026-05-06T18:24:21+03:00,18.03,281.11,67.00168456259847,0.50544,116.99798176571409,113.69774486576057,-0.2000195662801704,6.35688,6.318,0.7677634454753031,-66.49748170288335,-0.6073352628386726,24.807642,59.473616,6.176950045672708,175.68022451196381,292.6782062776779,-6.3388213461752,0.0020754134488439376,0.2510458261270764
2026-05-06T18:24:22+03:00,17.96,281.11,67.00168456259847,0.29159999999999997,118.1725452457323,113.39980681229254,-0.2000195662801704,6.648479999999999,6.37632,0.8021409131831525,-66.80114933430268,0.26356058576017866,24.807767,59.473622,6.540061426055691,177.64775891242903,295.8203041581613,-6.642877914021727,0.0038333545811666354,0.254879180708243
2026-05-06T18:24:23+03:00,17.88,281.11,67.99863112612611,0.19440000000000002,116.80890569332094,112.70079830223293,-0.8000209693411684,6.7068,6.29856,-0.49847328176381617,-67.50015784436228,0.8021409131831525,24.807818,59.473608,6.636420288528534,178.44367574498918,295.25258143831013,-6.70432592099464,0.0017699175660240963,0.2566490982742671
2026-05-06T18:24:24+03:00,17.88,281.11,67.99863112612611,0.50544,118.99760447072069,111.698122160754,-0.8000209693411684,6.78456,6.47352,0.641712730546522,-68.89817486448149,1.8105466326134017,24.807872,59.473594,6.6118362947719955,175.93560309723554,294.93320756795623,-6.767496955393866,0.0018510082846506309,0.2585001065589177
2026-05-06T18:24:25+03:00,17.92,281.1,71.99787653613924,0.6998399999999999,116.99798176571409,111.30278128211373,-0.09998113525032865,7.251119999999999,6.337439999999999,-0.20053522829578813,-68.60023681101347,1.3006141949469687,24.807925,59.473581,7.066248618961066,174.59522209791913,291.5932038636332,-7.218882343030909,0.0017969269216062873,0.26029703348052396
2026-05-06T18:24:26+03:00,17.92,281.09,76.99979808763133,0.40824,116.60264088707383,112.2023250204691,0.9000021045914972,6.59016,6.39576,-0.40107045659157625,-67.2996226160665,0.29793805346802804,24.807977,59.473567,6.5104875775605375,176.49717191943978,293.0998128065136,-6.577848156931966,0.0017968371626126967,0.26209387064313666
2026-05-06T18:24:27+03:00,17.88,281.09,76.0028515241037,0.19440000000000002,118.4590241432977,113.89828009405635,0.9999832398418258,6.5124,6.35688,0.7219268218648373,-65.39740273623217,-1.3464508185574346,24.807962,59.473534,6.468130799804799,178.32886635176547,296.78789049506315,-6.509630142755063,0.0020357355582855305,0.2641296062014222
2026-05-06T18:24:28+03:00,17.88,281.11,71.99787653613924,0.09720000000000001,116.99798176571409,115.19889428900332,0.9000021045914972,6.5124,6.318,-1.0026761414789407,-64.49785899787676,-0.8995437383553924,24.808079,59.47354,6.4830192193481775,179.1829899447888,296.1809717105029,-6.511737915758243,0.003590273572101616,0.2677198797735238
2026-05-06T18:24:29+03:00,18.03,281.11,76.0028515241037,0.0,118.13816777802444,114.59728860411596,-0.5000202678106694,6.6679200000000005,6.6095999999999995,0.6531718864491385,-65.7010703676515,-0.16615776058793874,24.808185,59.47351,6.6679200000000005,180.0,298.13816777802447,-6.6679200000000005,0.003704743204836244,0.27142462297836006
2026-05-06T18:24:29+03:00,17.92,281.11,69.99825383113267,0.09720000000000001,116.99798176571409,115.19889428900332,0.0,6.47352,6.57072,-0.6990085100596044,-65.0020618575919,-0.8021409131831525,24.80813,59.473525,6.440920505531306,179.1874754089267,296.18545717464076,-6.472869074953401,0.0019059441618246825,0.2733305671401847
2026-05-06T18:24:30+03:00,18.03,281.1,82.99866620265107,0.0,113.99568291922859,114.20194772547569,-0.2000195662801704,6.940079999999999,6.337439999999999,-0.20053522829578813,-65.79847319282375,1.1974817918234204,24.808238,59.473495,6.940079999999999,180.0,293.99568291922856,-6.940079999999999,0.0037582024969715893,0.2770887696371563
2026-05-06T18:24:31+03:00,18.03,281.1,82.00171963912342,0.0,117.99492832924174,114.20194772547569,0.0,7.01784,6.24024,-0.40107045659157625,-65.7010703676515,0.8021409131831525,24.808292,59.47348,7.01784,180.0,297.99492832924176,-7.01784,0.0018791022121700826,0.27896787184932637
2026-05-06T18:24:32+03:00,18.03,281.09,78.00247422911028,0.50544,117.99492832924174,111.72677005051052,0.7201506526999317,6.6679200000000005,6.37632,0.6016056848873644,-65.09946468276414,-0.5156620156177408,24.808345,59.473465,6.581450414051216,175.691874843675,293.68680317291677,-6.649079730097156,0.0018523737986949071,0.28082024564802127
2026-05-06T18:24:33+03:00,17.92,281.09,73.99749924114583,0.6998399999999999,120.02892850195616,115.30202669212686,0.600001403060998,6.68736,6.6679200000000005,0.6302535746439055,-64.49785899787676,-0.5213915935690492,24.808399,59.47345,6.529177300260582,174.0861468082554,294.1150753102115,-6.651769431867888,0.001879103496225898,0.28269934914424716
2026-05-06T18:24:34+03:00,17.88,281.09,73.00055267761819,0.40824,119.9945510342483,115.89790279906293,0.5000202678106694,6.84288,6.5124,0.7104676659622208,-63.79885048781716,-0.45836623610465854,24.808452,59.473433,6.734850821429569,176.67683942998582,296.67139046423415,-6.831373464941775,0.0019137715381683535,0.2846131206824155
2026-05-06T18:24:35+03:00,17.88,281.09,73.00055267761819,0.29159999999999997,118.99760447072069,113.60607161853963,0.5600662447403797,6.82344,6.53184,0.5672282171795151,-63.300377206053355,0.34377467707849396,24.808444,59.473407,6.743954915952532,177.6301714568353,296.627775927556,-6.817604204654765,0.0015817720645056714,0.28619489274692117
2026-05-06T18:24:36+03:00,18.03,281.12,73.00055267761819,0.09720000000000001,117.99492832924174,117.50218462542924,0.6999825383113268,6.78456,6.62904,0.7734930234266114,-61.99976301110639,-1.6214705602202295,24.808556,59.473398,6.756781775397788,179.21175667681123,297.20668500605296,-6.7839179628197,0.0034620001186936315,0.2896568928656148
2026-05-06T18:24:37+03:00,18.03,281.09,76.0028515241037,0.09720000000000001,122.63015689185008,118.29859596066107,0.6999825383113268,6.88176,6.59016,0.6474423084978302,-61.39815732621903,-0.005729577951308233,24.808553,59.473374,6.8588983523279285,179.21212426644865,301.84228115829876,-6.881109371822759,0.0014454899979719222,0.29110238286358675
2026-05-06T18:24:38+03:00,18.0,281.09,80.99904349764448,0.0,120.99722717572726,118.40172836378463,0.300000701530499,6.6095999999999995,6.39576,0.664631042351755,-61.50128972934256,0.13750987083139757,24.808663,59.473363,6.6095999999999995,180.0,300.9972271757273,-6.6095999999999995,0.0034228809075872607,0.294525263771174
2026-05-06T18:24:39+03:00,17.92,281.08,86.9979116126642,0.50544,121.9999033172062,118.49913118895687,0.300000701530499,6.68736,6.454079999999999,0.5786873730821314,-61.30075450104678,-0.3380450991271857,24.808657,59.47334,6.679985781060684,175.6665437936869,297.6664471108931,-6.668242054029276,0.0013945612970298125,0.2959198250682038
2026-05-06T18:24:40+03:00,17.88,281.07,86.00096504913657,0.6998399999999999,123.47813442864371,118.99760447072069,0.300000701530499,6.804,6.201359999999999,0.7047380880109125,-60.80228121928296,-0.08021409131831525,24.80877,59.473328,6.791173069047345,174.09954080256722,297.57767523121095,-6.767952362098246,0.0035246049764928074,0.2994444300446966
2026-05-06T18:24:41+03:00,17.88,281.08,88.99753431767077,0.40824,121.9999033172062,119.19813969901647,0.0,6.72624,6.4152,-0.40107045659157625,-60.80228121928296,-0.40107045659157625,24.808823,59.47331,6.731484405578686,176.52361901282896,298.5235223300352,-6.713862908724855,0.0019465336637269747,0.3013909637084236
2026-05-06T18:24:42+03:00,17.88,281.08,93.00250930563523,0.19440000000000002,122.99684988073382,118.8027988203762,-0.8000209693411684,6.62904,6.29856,0.6302535746439055,-61.598692554514805,-0.13178029288008933,24.808875,59.473295,6.642060265255763,178.3251290744989,301.32197895523274,-6.626207909414383,0.001825770929438382,0.303216734637862
2026-05-06T18:24:43+03:00,17.88,281.08,90.0002104591497,0.60264,123.99952602221278,117.59958745060148,-0.9999832398418258,6.57072,6.1236,0.739115555718762,-63.002439152585325,0.6016056848873644,24.808927,59.473277,6.59830018854543,174.75972400769263,298.7592500299054,-6.543257298058299,0.0019212294938732565,0.3051379641317352
2026-05-06T18:24:44+03:00,17.85,281.08,90.99715702267736,0.40824,119.08927771794161,115.80049997389068,-1.4000223724021665,6.59016,6.4152,0.5614986392282068,-65.39740273623217,1.5240677350479896,24.808979,59.47326,6.6098796153388815,176.45957602324023,295.54885374118186,-6.577582536865496,0.0018880340477972562,0.30702599817953247
2026-05-06T18:24:45+03:00,17.73,281.07,99.00137742065495,0.60264,117.65115365216323,113.89828009405635,-0.9999832398418258,6.6095999999999995,6.68736,0.6130648407899808,-66.69801693117913,1.4381240657783663,24.809032,59.473246,6.730259930640525,174.92618310033436,292.57733675249756,-6.583700840507609,0.001823882541080708,0.3088498807206132
2026-05-06T18:24:46+03:00,17.73,281.07,108.00254438216018,0.40824,120.99722717572726,112.70079830223293,-1.200002806121996,6.7068,6.76512,0.5271211715203573,-67.79809589783031,1.3006141949469687,24.809087,59.473233,6.843991861657277,176.7479143282558,297.74514150398306,-6.69599941068872,0.0018521190696851912,0.3107019997902984
2026-05-06T18:24:47+03:00,17.73,281.06,112.00178979217334,0.6998399999999999,120.99722717572726,111.89865738904979,-0.8000209693411684,6.901199999999999,6.78456,-0.6016056848873644,-68.30229875754543,1.598552248414997,24.809142,59.473219,7.192712908830194,174.82417145967065,295.82139863539794,-6.873060669630759,0.0018782695802000014,0.3125802693704984
2026-05-06T18:24:48+03:00,17.73,281.06,112.99873635570096,0.79704,121.9999033172062,111.30278128211373,-0.600001403060998,6.78456,6.492959999999999,0.693278932108296,-68.69763963618571,0.865166270647543,24.809198,59.473206,7.133800956660889,174.09689491874417,296.09679823595036,-6.748583140054721,0.00187984535210105,0.31446011472259944
2026-05-06T18:24:49+03:00,17.58,281.07,116.00103520218647,0.40824,119.9945510342483,108.59269091114493,-0.5591495122681704,6.76512,6.454079999999999,0.6703606203030631,-68.69763963618571,0.34377467707849396,24.809253,59.473194,6.953774412397153,176.97534612113853,296.96989715538683,-6.75569566419976,0.001827574403769083,0.3162876891263685
2026-05-06T18:24:50+03:00,17.58,281.06,120.0002806121996,0.29159999999999997,116.99798176571409,111.60071933558174,-0.2000195662801704,6.59016,6.10416,-0.09740282517223994,-68.19916635442189,0.6016056848873644,24.809309,59.473181,6.740693313235217,177.85297732308007,294.8509590887942,-6.585533600406653,0.0018798465028462845,0.3181675356292148
2026-05-06T18:24:51+03:00,17.58,281.05,123.00257945868512,0.19440000000000002,117.99492832924174,109.05678672520091,-0.07580231629580791,6.6679200000000005,6.1624799999999995,0.4068000345428845,-67.59756066953453,0.6245239966925973,24.809362,59.473169,6.775766831043104,178.62126418004416,296.6161925092859,-6.665989560118709,0.0017716339519889851,0.3199391695812038
2026-05-06T18:24:52+03:00,17.43,281.06,125.0022021636917,0.09720000000000001,115.99530562423517,108.69009373631717,-1.0375119754228945,6.55128,6.1624799999999995,-0.2119943841984046,-67.2996226160665,-0.34377467707849396,24.809414,59.473157,6.607514407638765,179.3095787974241,295.30488442165927,-6.550804364911694,0.0017437925214734298,0.3216829621026772
2026-05-06T18:24:53+03:00,17.43,281.06,125.0022021636917,0.0,116.99798176571409,112.50026307393715,-0.8000209693411684,6.18192,5.79312,-1.501149423242757,-67.70069307265807,1.1000789666511805,24.809463,59.473145,6.18192,180.0,296.9979817657141,-6.18192,0.0016608343485197553,0.323343796451197
2026-05-06T18:24:54+03:00,17.32,281.05,120.0002806121996,0.0,118.99760447072069,107.49261194449376,-0.7717741500412189,6.0652800000000004,5.754239999999999,-0.34377467707849396,-69.00130726760504,1.8391945223699424,24.809512,59.473133,6.0652800000000004,180.0,298.9976044707207,-6.0652800000000004,0.0016608348275689092,0.3250046312787659
2026-05-06T18:24:55+03:00,17.28,281.04,120.0002806121996,0.0,116.99798176571409,106.54150200457657,-0.3670940593403185,5.98752,5.69592,-0.06875493541569878,-69.99825383113267,0.590146528984748,24.80956,59.473122,5.98752,180.0,296.9979817657141,-5.98752,0.00160774904081313,0.326612380319579
2026-05-06T18:24:56+03:00,17.28,281.04,131.00107027871144,0.0,113.99568291922859,110.20270231546253,0.300000701530499,6.006959999999999,5.307119999999999,-1.0026761414789407,-69.70031577766464,1.3006141949469687,24.809608,59.47311,6.006959999999999,180.0,293.99568291922856,-6.006959999999999,0.0016333878913858356,0.32824576821096485
2026-05-06T18:24:57+03:00,17.28,281.04,131.00107027871144,0.0,116.10989718326132,108.4322627285083,1.6792247059694165,5.7153599999999996,5.307119999999999,0.1432394487827058,-67.2996226160665,-0.08021409131831525,24.809654,59.473099,5.7153599999999996,180.0,296.1098971832613,-5.7153599999999996,0.0015522931422342274,0.32979806135319906
2026-05-06T18:24:58+03:00,17.25,281.05,178.99774477682047,0.0,112.99873635570096,111.05640943020747,2.502507761792897,5.65704,4.957199999999999,0.19480565034447989,-63.999385716112954,-0.3781521447863433,24.809697,59.473087,5.65704,180.0,292.99873635570094,-5.65704,0.0014979406769829757,0.33129600203018206
2026-05-06T18:24:59+03:00,17.13,281.04,-164.99952640508178,0.0,118.48767203305425,117.10111416883765,1.4000223724021665,5.0544,4.74336,-0.8995437383553924,-62.29770106457441,-1.3980170201192088,24.809737,59.473075,5.0544,180.0,298.48767203305425,-5.0544,0.0014183510030953798,0.33271435303327745
2026-05-06T18:25:00+03:00,17.13,281.04,-164.00257984155417,0.50544,118.31005511656369,112.58047716525546,-0.9920191264895073,4.957199999999999,4.84056,0.022918311805232933,-63.099841977757556,-0.4068000345428845,24.809722,59.473044,5.44484849307553,178.53403466766773,299.77602044889596,-4.95557749931668,0.0019187937229316377,0.3346331467562091
2026-05-06T18:25:01+03:00,17.13,281.04,-176.99726263512122,0.6998399999999999,119.9945510342483,112.57474758730416,0.8901472305152469,4.87944,4.41288,0.2578310078088704,-63.50091243434914,0.6130648407899808,24.809755,59.473031,5.578439605255221,179.62346298181401,300.3710880524343,-4.879334632053385,0.0012750339930658018,0.33590818074927487
2026-05-06T18:25:02+03:00,16.98,281.03,165.99733240530213,0.40824,116.78025780356438,116.20157043048223,0.0,4.80168,4.49064,-1.3980170201192088,-64.19992094440875,0.49847328176381617,24.809853,59.473042,5.198727475179001,178.91126160482148,295.69151940838583,-4.800813134012409,0.0030642547246383794,0.33897243547391326
2026-05-06T18:25:03+03:00,16.98,281.02,174.99849936680735,0.6998399999999999,121.9999033172062,114.59728860411596,-1.200002806121996,4.60728,4.29624,0.27501974166279514,-65.59793796452794,0.24064227395494575,24.809897,59.473031,5.304806184403236,179.34099691274662,301.3409002299528,-4.606975252987624,0.0014972750697763546,0.34046971054368963
2026-05-06T18:25:04+03:00,16.98,281.02,168.99963125178763,0.79704,123.99952602221278,114.99835906070751,1.5999846429028237,4.704479999999999,4.276800000000001,0.8708958485988514,-64.29732376958098,0.8021409131831525,24.809934,59.473019,5.488982557507589,178.41225882267656,302.4117848448893,-4.70267379104813,0.0013402965186204178,0.3418100070623101
2026-05-06T18:25:05+03:00,16.98,281.02,-176.99726263512122,1.3996799999999998,118.56788612437255,116.40210565877804,0.600001403060998,4.31568,4.00464,-0.8021409131831525,-63.099841977757556,-0.6990085100596044,24.809965,59.473009,5.713908725461487,179.26476545424612,299.3031206701264,-4.315324679860194,0.0011212062282017954,0.34293121329051185
2026-05-06T18:25:06+03:00,16.83,281.02,-146.9971924820713,1.20528,115.99530562423517,116.90057894054185,-0.2000195662801704,4.510079999999999,3.9463199999999996,0.3666929888837269,-63.099841977757556,-0.813600069085769,24.809928,59.472978,5.5597756682603,173.2187579564776,302.7765476677576,-4.478528467764766,0.002179028942643244,0.3451102422331551
2026-05-06T18:25:07+03:00,16.83,281.0,176.99812207181392,1.69128,118.99760447072069,116.40210565877804,-0.300000701530499,4.41288,3.86856,0.3552338329811104,-64.1025181192365,0.29220847551671986,24.810032,59.472987,6.102482035123936,179.16839216464516,298.16599663536584,-4.412415189020434,0.003221017395641483,0.3483312596287966
2026-05-06T18:25:08+03:00,16.72,281.0,168.99963125178763,1.90512,121.11754831270473,115.89790279906293,0.2000195662801704,4.14072,3.9463199999999996,0.3380450991271857,-63.999385716112954,0.5614986392282068,24.810061,59.472977,6.0218179553425655,176.53905491838748,297.6566032310922,-4.133168069878522,0.0010701612985997088,0.3494014209273963
2026-05-06T18:25:09+03:00,16.68,281.0,172.99887666180075,2.09952,126.99609529074696,116.29897325565449,0.600001403060998,4.257359999999999,3.6935999999999996,0.3323155211758775,-63.50091243434914,0.21772396214971285,24.810096,59.472966,6.346387119814486,177.68901214128243,304.6851074320294,-4.253897406066645,0.0012566102321223361,0.3506580311595186
2026-05-06T18:25:10+03:00,16.68,281.0,178.00079821329285,1.80792,122.99684988073382,116.20157043048223,-0.2000195662801704,4.257359999999999,3.6352800000000003,0.48701412586119974,-63.901982890940715,0.03437746770784939,24.810126,59.472956,6.064507514518156,179.40411836330898,302.4009682440428,-4.257129759773225,0.0010955564936058406,0.3517535876531244
2026-05-06T18:25:11+03:00,16.68,281.0,174.00155280327974,2.39112,119.9945510342483,116.70004371224607,0.2000195662801704,4.1212800000000005,3.46032,0.3666929888837269,-63.1972448029298,0.246371851906254,24.810155,59.472946,6.504109615871145,177.7982621428362,297.7928131770845,-4.118237471624495,0.0010701619706633494,0.35282374962378776
2026-05-06T18:25:12+03:00,16.68,281.0,176.00117550828628,2.39112,121.9999033172062,116.99798176571409,-0.300000701530499,4.00464,3.38256,0.2864788975654116,-63.002439152585325,-0.664631042351755,24.810184,59.472937,6.392114059059292,178.5051905489232,300.5050938661294,-4.003277190172299,0.0010375939812890585,0.3538613436050768
2026-05-06T18:25:13+03:00,16.57,280.99,170.00230739326656,2.39112,120.13779048303101,116.79744653741832,0.2000195662801704,3.57696,3.38256,0.47555496995858326,-63.300377206053355,0.48701412586119974,24.810212,59.472927,5.946277972290368,175.99683745337828,296.1346279364093,-3.568232927277744,0.0010450425430491921,0.35490638614812603
2026-05-06T18:25:14+03:00,16.53,280.98,170.9992539567942,2.7993599999999996,123.99952602221278,116.79744653741832,0.2000195662801704,3.5575200000000002,3.18816,-0.6990085100596044,-63.002439152585325,-0.09740282517223994,24.81024,59.472919,6.337559827519929,176.03745946212132,300.0369854843341,-3.5490155463982465,0.0009808407381578924,0.35588722688628394
2026-05-06T18:25:15+03:00,16.53,280.99,170.00230739326656,3.09096,120.99722717572726,117.50218462542924,0.5000202678106694,3.61584,3.12984,-0.29793805346802804,-62.40083346769795,-0.40107045659157625,24.810268,59.47291,6.681446906803965,175.39335729107663,296.3905844668039,-3.604159295451044,0.0010116663775934208,0.35689889326387736
2026-05-06T18:25:16+03:00,16.53,280.99,172.00193009827314,3.2076,118.99760447072069,114.43113084352802,-0.8514725793439163,3.53808,3.09096,-0.8021409131831525,-63.002439152585325,-0.09740282517223994,24.810237,59.47289,6.729295255903423,176.1972011819659,295.19480565268657,-3.5302899605900575,0.0015300296469567785,0.3584289229108341
2026-05-06T18:25:17+03:00,16.42,280.99,165.0003858417745,3.402,116.99798176571409,114.23632519318355,0.32647135166554303,3.3242399999999996,3.0132,-0.6016056848873644,-62.89930674946178,0.29793805346802804,24.810321,59.472893,6.668706763982353,172.41299141354006,289.41097317925414,-3.2951379508055605,0.0025709752314304907,0.36099989814226463
2026-05-06T18:25:18+03:00,16.46,280.99,167.00000854678103,3.402,120.05184681376139,114.80928298831437,0.20173843966556287,3.14928,3.0132,-0.6016056848873644,-62.498236292870196,-0.20053522829578813,24.810347,59.472885,6.509230351271731,173.24818296574094,293.3000297795023,-3.1274388896348224,0.0009281032069328681,0.3619280013491975
2026-05-06T18:25:19+03:00,16.38,280.98,168.00268468825996,4.00464,113.99568291922859,114.82074214421698,0.15269325240236437,3.38256,2.8188,-0.6016056848873644,-62.200298239402166,-0.40107045659157625,24.810322,59.472869,7.347037864173507,173.49435162561855,287.49003454484716,-3.360778650836211,0.0012278107638717122,0.36315581211306924
2026-05-06T18:25:20+03:00,16.38,280.98,165.0003858417745,3.7908,119.9945510342483,114.31653928450186,-0.4836336748699279,3.3047999999999997,2.8771199999999997,-0.8021409131831525,-63.002439152585325,0.09740282517223994,24.810347,59.47286,7.035185265560261,171.9835674559958,291.9781184902441,-3.2725058674833125,0.0009355509754801326,0.3640913630885494
2026-05-06T18:25:21+03:00,16.38,280.97,161.00114043176134,4.19904,119.9945510342483,114.63739564977512,1.217936385109591,3.2076,2.76048,-0.29793805346802804,-62.200298239402166,0.09740282517223994,24.810369,59.472853,7.306906827997067,169.21742679154312,289.21197782579145,-3.150967250259335,0.0007925941873086137,0.364883957275858
