time,dpt,mtw,awa,aws,cog,hdg,rot,sog,stw,pitch,yaw,roll,lng,lat,tws,twa,twd,vmg,dist,cum_dist
2024-08-21T18:26:02+03:00,21.5,290.15,67.00168456259847,15.10488,22.00730891097492,12.100868633162985,0.0,7.503839999999999,6.29856,-1.3980170201192088,-171.80139486997734,-10.198648753328653,24.799642,59.484408,13.996307392399117,96.57365261871306,118.58096152968798,-0.8590421344555885,0.0007420170358873612,0.0007420170358873612
2024-08-21T18:26:03+03:00,21.2,290.15,67.99863112612611,15.49368,16.9824690476776,9.20170218980102,0.0,7.75656,6.29856,-0.49847328176381617,-175.8006402799905,-9.700175471564837,24.799667,59.484459,14.497390530242482,97.7388142131982,114.7212832608758,-1.044478839636317,0.003159028231084765,0.0039010452669721264
2024-08-21T18:26:04+03:00,21.2,290.15,71.00092997261162,14.696639999999999,17.65282966798066,5.202456779787875,0.0,7.7176800000000005,6.29856,-1.1000789666511805,-179.10087717994404,-7.098947081670899,24.799689,59.48451,14.202212208689245,101.91893291594118,119.57176258392184,-1.5939132667565,0.003138170121462798,0.0070392153884349246
2024-08-21T18:26:05+03:00,21.1,290.15,71.00092997261162,14.79384,15.372457643359986,1.7990874767107847,0.0,7.6788,6.201359999999999,-1.1000789666511805,178.79720954852468,-5.901465289847479,24.799709,59.484559,14.277841734043818,101.56585751097646,116.93831515433644,-1.5395545382737637,0.003007868759896915,0.01004708414833184
2024-08-21T18:26:06+03:00,21.1,290.15,73.99749924114583,15.29928,12.427454576387557,359.1987009234157,0.0,7.3094399999999995,6.201359999999999,-1.0026761414789407,176.90071924664167,-5.500394833255903,24.799708,59.484611,15.027904210071588,101.87244741273324,114.2999019891208,-1.503797499321167,0.0031257502653759335,0.013172834413707772
2024-08-21T18:26:07+03:00,21.1,290.15,73.99749924114583,15.610319999999998,9.579854334587363,357.1990782184091,0.0,7.52328,6.10416,-1.598552248414997,175.8006402799905,-5.798332886723932,24.799721,59.484644,15.34698114292878,102.11078889222614,111.6906432268135,-1.5784042870129575,0.0020228485982850208,0.015195683011992794
2024-08-21T18:26:08+03:00,21.1,290.15,76.99979808763133,15.70752,8.307888029396937,355.89846402346217,0.0,7.503839999999999,6.10416,-1.1974817918234204,174.00155280327974,-7.2020794847944485,24.799727,59.484681,15.811530773077292,104.54294163501562,112.85082966441256,-1.8842557510190205,0.0022315121113700774,0.01742719512336287
2024-08-21T18:26:09+03:00,21.0,290.15,76.99979808763133,15.70752,5.380073696278431,354.2999117750472,0.3999818367808277,7.40664,6.10416,-1.3980170201192088,173.4973499435646,-8.502693679741416,24.799722,59.484705,15.787403671413065,104.20148304893895,109.58155674521738,-1.8170893522928262,0.0014506343550711102,0.018877829478433982
2024-08-21T18:26:10+03:00,20.8,290.15,76.99979808763133,15.10488,6.31972448029298,353.60090326498755,0.0,7.23168,6.10416,-0.8995437383553924,173.19941189009654,-10.50231638474799,24.799734,59.484735,15.208858995320549,104.60031971385358,110.92004419414656,-1.8229239867567772,0.0018400495736950804,0.020717879052129063
2024-08-21T18:26:11+03:00,20.7,290.15,76.99979808763133,14.59944,6.210862499218124,353.2972356335682,1.4000223724021665,6.84288,6.10416,-1.1974817918234204,174.00155280327974,-11.298727719979832,24.799751,59.484755,14.663619993085604,104.04518574559977,110.25604824481789,-1.6606782535753475,0.0013093446392695403,0.022027223691398604
2024-08-21T18:26:12+03:00,20.7,290.15,76.99979808763133,14.59944,4.801386323196299,353.69830609015975,0.0,6.8623199999999995,6.006959999999999,-1.3980170201192088,172.70093860833276,-11.499262948275621,24.799788,59.484767,14.668349952270438,104.11884992065778,108.92023624385408,-1.67395371500088,0.001339965783325658,0.023367189474724263
2024-08-21T18:26:13+03:00,20.7,290.15,76.99979808763133,14.59944,7.299482309966689,352.9992975801002,0.0,6.940079999999999,6.006959999999999,-1.1000789666511805,173.10200906492432,-8.399561276617868,24.79979,59.484799,14.687511861335857,104.4130285204723,111.71251083043899,-1.7274561970997517,0.00192441527105865,0.025291604745782913
2024-08-21T18:26:18+03:00,20.6,290.15,84.00134234412998,14.79384,7.219268218648373,350.90227204992135,0.0,7.892639999999999,6.006959999999999,-1.701684651538545,170.70131590332616,-11.699798176571411,24.799792,59.484982,16.023323925407233,113.33369528229059,120.55296350093896,-3.1261607862671257,0.0022940631183317067,0.02758566786411462
2024-08-21T18:26:19+03:00,20.4,290.15,84.00134234412998,16.407359999999997,7.9984908200262925,350.39806919020623,0.0,7.776,6.006959999999999,-1.7990874767107847,170.20284262156233,-8.10162322314984,24.799809,59.485009,17.406933725421013,110.37814282094986,118.37663364097615,-2.7077157022185294,0.0017038297596541512,0.029289497623768774
2024-08-21T18:26:20+03:00,20.4,290.15,84.00134234412998,16.407359999999997,5.368614540375813,349.6016578549744,0.0,7.776,6.006959999999999,-0.8995437383553924,169.49810453355144,-4.801386323196299,24.799797,59.485038,17.406933725421013,110.37814282094986,115.74675736132568,-2.7077157022185294,0.0017811840738463963,0.03107068169761517
2024-08-21T18:26:21+03:00,20.4,290.15,84.00134234412998,16.407359999999997,1.1516451682129547,347.8025703782636,0.0,8.0676,6.006959999999999,-0.8021409131831525,167.20054377507685,-6.302535746439056,24.799772,59.485053,17.51060676745339,111.2725977195266,112.42424288773955,-2.9269704447166984,0.0011811429176564047,0.032251824615271575
2024-08-21T18:26:22+03:00,20.2,290.15,86.9979116126642,13.19976,359.0497318966817,345.9977533236015,0.0,8.02872,6.10416,-0.8995437383553924,165.29832389524248,-8.600096504913656,24.799799,59.48509,15.086200983324288,119.10201761149324,118.15174950817493,-3.904897628643841,0.0023717449597255138,0.03462356957499709
2024-08-21T18:26:23+03:00,20.2,290.15,91.99983316415629,13.19976,358.52834030311266,343.49965733683115,0.0,7.892639999999999,6.10416,-1.1974817918234204,162.70282508329987,-10.3017811564522,24.799793,59.485121,15.614049749702405,122.3428253715341,120.87116567464676,-4.222436005133611,0.0018723159174140844,0.03649588549241117
2024-08-21T18:26:24+03:00,20.2,290.15,91.99983316415629,13.19976,355.8698161337056,341.79797268529256,0.0,7.73712,6.10416,-2.498095986770389,161.29907848522936,-11.098192491684046,24.799771,59.485118,15.531404830958468,121.85810731328823,117.72792344699383,-4.083786986450332,0.0006952413751152452,0.03719112686752642
2024-08-21T18:26:25+03:00,20.2,290.15,97.00175471564837,12.59712,352.63833416916776,337.09971876521985,0.0,7.13448,6.10416,-1.701684651538545,156.89876261862463,-7.700552766558264,24.799759,59.48516,15.215105899553144,124.73856383867545,117.37689800784324,-4.065460369692537,0.0025509522078329054,0.03974207907535932
2024-08-21T18:26:26+03:00,20.2,290.15,97.00175471564837,12.59712,345.67116738037697,335.30063128850907,0.0,7.23168,6.10416,-1.1000789666511805,154.80173708844583,-7.597420363434716,24.799749,59.485193,15.270702542419805,125.03825726958334,110.70942464996028,-4.151875760621464,0.0020068976845788494,0.041748976759938175
2024-08-21T18:26:27+03:00,20.2,290.15,103.99756939419571,13.608,344.1127221776211,332.80253530173866,0.0,7.03728,6.10416,-1.1974817918234204,152.2005086985519,-6.600473799907084,24.799723,59.485199,16.76387697686393,128.03435827813183,112.14708045575293,-4.335906821985754,0.0008716388528328448,0.04262061561277102
2024-08-21T18:26:28+03:00,20.1,290.15,103.99756939419571,13.608,344.1012630217185,330.69978019360855,0.0,7.3094399999999995,6.10416,0.0,150.09775359042175,-4.497718691776963,24.799713,59.485226,16.93292092280351,128.75972094052008,112.8609839622386,-4.576117162480035,0.0016513571962187346,0.04427197280898976
2024-08-21T18:26:29+03:00,20.0,290.15,105.9971920992023,12.69432,343.84916159186093,328.6027546634297,0.0,7.6593599999999995,6.201359999999999,-0.40107045659157625,148.0981308854152,-2.6986312150661775,24.799734,59.485252,16.53490361211402,132.43879858063096,116.28796017249192,-5.168553649259778,0.0016891218699614774,0.045961094678951236
2024-08-21T18:26:30+03:00,20.0,290.15,105.9971920992023,12.69432,341.17917826655133,327.60007852195076,0.6999825383113268,7.63992,6.29856,-0.8995437383553924,147.30171955018335,-1.501149423242757,24.799732,59.485281,16.521791684617458,132.38904580444725,113.56822407099855,-5.150537576755412,0.0017441922056756526,0.04770528688462689
2024-08-21T18:26:31+03:00,20.0,290.15,105.9971920992023,12.69432,341.3510656050905,327.60007852195076,0.8000209693411684,7.387199999999999,6.29856,-1.501149423242757,147.7027900067749,-1.598552248414997,24.799726,59.485317,16.35248298727155,131.73503035170918,113.08609595679968,-4.91756094630373,0.002171612442090746,0.04987689932671764
2024-08-21T18:26:32+03:00,20.0,290.15,103.99756939419571,12.69432,341.7521360616821,326.0015262735358,0.0,7.251119999999999,6.29856,-1.3980170201192088,145.6000348986448,-3.300236899953542,24.799719,59.485356,16.070276762563186,129.9621096825001,111.71424574418222,-4.657255703463798,0.0023539160503182736,0.052230815377035916
2024-08-21T18:26:33+03:00,20.0,290.15,116.00103520218647,11.29464,338.81859215061235,323.1997626553461,0.0,7.1150400000000005,6.201359999999999,-1.0026761414789407,142.50033322698704,-2.200157933302361,24.799695,59.485382,15.76869998664344,139.9262470095276,118.74483916013992,-5.444545234743817,0.0017259431174548347,0.05395675849449075
2024-08-21T18:26:34+03:00,20.0,290.15,116.00103520218647,11.29464,337.9878033476726,321.8017456352269,0.0,7.03728,6.201359999999999,-1.1974817918234204,141.60078948863168,-1.501149423242757,24.799669,59.48541,15.709276521504503,139.74366570856262,117.7314690562352,-5.370577876928622,0.001860705279462701,0.05581746377395345
2024-08-21T18:26:35+03:00,20.0,290.15,116.99798176571409,12.20832,335.43814115934043,320.5011314402799,0.0,7.3094399999999995,6.10416,-0.40107045659157625,140.3001752936847,-3.9992454100131463,24.799607,59.485424,16.837160255242356,139.75448070669972,115.19262186604016,-5.5791712647450975,0.0020709282543724984,0.05788839202832595
2024-08-21T18:26:36+03:00,20.0,290.15,116.99798176571409,12.20832,332.5389747159785,318.197841103854,0.0,7.3094399999999995,6.10416,-1.1000789666511805,138.00261453521009,-5.099324376664327,24.799575,59.485446,16.837160255242356,139.75448070669972,112.29345542267822,-5.5791712647450975,0.0016439270088437527,0.059532319037169705
2024-08-21T18:26:37+03:00,20.0,290.15,127.99877143222591,12.20832,330.9289633116609,316.1008155736752,0.0,7.46496,6.10416,-0.49847328176381617,135.69932419878415,-5.099324376664327,24.799526,59.485485,17.803981997909876,147.29227596156713,118.22123927322798,-6.28130059857835,0.002780603252046455,0.06231292228921616
2024-08-21T18:26:38+03:00,20.0,290.15,127.99877143222591,12.20832,332.76815783403083,315.00073660702395,0.0,7.1928,6.10416,-0.8995437383553924,134.89718328560105,-4.60085109490051,24.799465,59.485514,17.57559152664334,146.8128514621842,119.58100929621503,-6.0195616121441695,0.0025503920536793434,0.0648633143428955
2024-08-21T18:26:39+03:00,20.0,290.15,131.00107027871144,12.79152,329.5481350253956,314.1011928686686,0.0,6.940079999999999,6.10416,-1.501149423242757,133.9002367220734,-5.202456779787875,24.799421,59.485532,18.118288872754242,147.80403739801534,117.35217242341093,-5.872908851028254,0.0017245072354998858,0.06658782157839538
2024-08-21T18:26:40+03:00,20.0,290.15,131.00107027871144,12.79152,325.7780727334348,312.39950821713006,0.0,6.72624,6.006959999999999,-0.8995437383553924,131.60267596359878,-5.099324376664327,24.799384,59.48555,17.93769275752463,147.44010082376462,113.2181735571994,-5.669071960362245,0.00156389838363745,0.06815171996203283
2024-08-21T18:26:41+03:00,20.0,290.15,135.99726225225223,12.79152,323.5779148001324,309.2998065454723,0.0,6.648479999999999,6.006959999999999,-0.6990085100596044,128.60037711711328,-0.8021409131831525,24.799353,59.485566,18.17060619737689,150.72241434575992,114.3003291458923,-5.799207513797075,0.0013490947191390382,0.06950081468117186
2024-08-21T18:26:42+03:00,20.0,290.15,135.99726225225223,12.79152,321.6814244982494,307.30018384046576,0.0,6.68736,6.006959999999999,-0.6990085100596044,126.89869246557473,2.1027551081301215,24.799307,59.485592,18.204529621264907,150.78225757283113,112.46368207108048,-5.836533626842101,0.0021007946094335544,0.07160160929060541
2024-08-21T18:26:43+03:00,20.0,290.15,131.99801684223905,12.402719999999999,315.2528380368816,306.6985781555784,1.4000223724021665,6.53184,6.006959999999999,-0.8995437383553924,126.69815723727893,1.9996227050065731,24.799263,59.485625,17.46150699446212,148.1387392512249,103.39157728810653,-5.547679732519489,0.002395373314508536,0.07399698260511395
2024-08-21T18:26:44+03:00,20.0,290.15,131.99801684223905,12.402719999999999,319.870877865636,306.10270204864236,0.0,6.492959999999999,6.006959999999999,-0.8995437383553924,125.59807827062775,-2.4006931615981495,24.79922,59.485661,17.428497175193023,148.07126916606194,107.94214703169791,-5.510617984386938,0.0025307410094790868,0.07652772361459304
2024-08-21T18:26:45+03:00,20.0,290.15,142.00185994522323,11.60568,318.31243266288016,301.7997890072098,0.0,7.07616,5.79312,-0.8995437383553924,120.29821866566765,-3.002298846485514,24.799179,59.485693,17.725568187362278,156.22895339523444,114.5413860581146,-6.475843178096526,0.0022946549590270138,0.07882237857362005
2024-08-21T18:26:46+03:00,20.0,290.15,142.00185994522323,11.60568,316.85139028529653,296.2019913487817,0.0,7.056719999999999,5.79312,-0.09740282517223994,114.4998857789437,0.8021409131831525,24.799138,59.485722,17.707779143153253,156.2035992385269,113.05498952382345,-6.4567930633782895,0.002145756505854699,0.08096813507947476
2024-08-21T18:26:47+03:00,20.0,290.15,144.0014826502298,11.702879999999999,314.26735062925655,291.80167548217696,0.0,6.7068,5.79312,-1.3006141949469687,110.79857842239859,4.698253920072751,24.799085,59.485739,17.576649925046873,156.96178058059988,111.2291312098564,-6.171892523844292,0.0019132738773710862,0.08288140895684584
2024-08-21T18:26:48+03:00,20.0,290.15,142.99880650875087,11.80008,309.66076995640475,291.8990783073492,0.0,6.35688,5.79312,-0.49847328176381617,111.80125456387754,3.2028340747813018,24.799029,59.485749,17.30502624377794,155.7712010037905,105.43197096019526,-5.796927603562028,0.0018117277967956268,0.08469313675364147
2024-08-21T18:26:49+03:00,20.0,290.15,148.00072806024295,11.99448,306.4006401021103,290.798999340698,0.0,6.1236,5.69592,-0.40107045659157625,110.50064036893058,-0.49847328176381617,24.798958,59.485766,17.49126240179148,158.69207447428073,105.09271457639102,-5.704996652428115,0.00239575323698502,0.08708888999062649
2024-08-21T18:26:50+03:00,20.0,290.15,153.00264961173502,11.29464,305.51255551965755,288.39830617909985,0.0,6.08472,5.598719999999999,-0.6990085100596044,107.20040346897702,-2.6986312150661775,24.798907,59.485789,16.94296157518604,162.3852676104584,107.89782313011597,-5.799425053729806,0.0020818191603547325,0.08917070915098121
2024-08-21T18:26:51+03:00,20.0,290.15,157.0018950217482,11.29464,301.0091072499293,283.70005225902713,0.0,5.87088,5.598719999999999,-0.8021409131831525,102.30161432060851,-0.49847328176381617,24.798852,59.485793,16.855688286910596,164.8230899867857,105.83219723671499,-5.6661159016160525,0.0016957213107051498,0.09086643046168637
2024-08-21T18:26:52+03:00,20.0,290.15,157.0018950217482,11.39184,295.8524870937519,278.102254600599,0.0,5.851439999999999,5.50152,-0.49847328176381617,96.80121948735258,3.5007721282493303,24.798823,59.485797,16.93323202385213,164.7611134804284,100.61360057418028,-5.645693568489692,0.0009171498863612792,0.09178358034804765
2024-08-21T18:26:53+03:00,20.0,290.15,159.00151772675477,11.80008,295.3482842340367,276.89904323082425,0.0,5.851439999999999,5.50152,0.0,94.60106155405022,5.597797658428142,24.798768,59.485809,17.389803434354665,165.92696664577042,101.27525087980712,-5.6758181970795505,0.0018269988425322924,0.09361057919057994
2024-08-21T18:26:54+03:00,20.0,290.15,165.0003858417745,12.091679999999998,294.3284193587039,267.50253539067876,0.0,5.754239999999999,5.50152,0.09740282517223994,86.49943833090038,11.201324894807593,24.798705,59.485821,17.712578814275936,169.82349572291474,104.15191508161865,-5.663715123328823,0.0020535868381624986,0.09566416602874243
2024-08-21T18:26:55+03:00,20.0,290.15,176.99812207181392,10.808639999999999,292.0824248017911,263.6006928058378,0.0,5.6181600000000005,5.404319999999999,0.0,82.99866620265107,14.398429391637588,24.798651,59.485834,16.421726698139445,178.0247021702232,110.10712697201427,-5.614821579794019,0.001823928534185541,0.09748809456292798
2024-08-21T18:26:56+03:00,20.0,290.15,-172.9980172251081,9.29232,287.61908357772194,259.40091216752893,0.0,5.7348,5.307119999999999,0.20053522829578813,77.89934182598672,19.400350943129673,24.798603,59.485827,15.000648679212668,175.66920895948095,111.94987461824098,-5.718425400246404,0.001524175407978527,0.09901226997090651
2024-08-21T18:26:57+03:00,20.0,290.15,-165.9964729686094,8.39808,277.98193346362154,251.29928894437907,0.0,5.65704,5.307119999999999,0.6990085100596044,69.79771860283688,19.600886171425465,24.798566,59.485804,13.954303474041845,171.62617151609373,106.35576194752781,-5.59673005576444,0.0017850517153519619,0.10079732168625848
2024-08-21T18:26:58+03:00,20.2,290.15,-149.99949132855681,8.90352,269.43913273822096,240.6021669092866,0.0,5.7153599999999996,5.307119999999999,1.1974817918234204,58.40158805768482,22.2021145613194,24.798517,59.485795,14.144826538344702,161.65536901402498,107.78376372419598,-5.424908849996412,0.0015903081789260386,0.10238762986518452
2024-08-21T18:26:59+03:00,20.2,290.15,-142.99794707205817,10.1088,257.321075371204,230.19725334971082,0.0,5.754239999999999,5.307119999999999,0.6016056848873644,48.09980690123261,25.301816232977153,24.798463,59.485783,15.106535151835983,156.25078754292537,101.07028782827865,-5.266953779666546,0.0017989991810666282,0.10418662904625114
2024-08-21T18:27:00+03:00,20.4,290.15,-134.99945625203188,10.692,252.42228622283545,222.6972358114484,0.0,5.69592,5.404319999999999,0.6016056848873644,41.29879787302974,26.29876279650479,24.798409,59.485756,15.260676772898195,150.3024945302873,102.11979169254815,-4.947778478653776,0.00231300014434866,0.1064996291905998
2024-08-21T18:27:01+03:00,20.5,290.15,-117.99979847050034,11.508479999999999,248.48033659233542,215.59828872977747,0.0,5.52096,5.50152,0.8995437383553924,34.199850791358834,27.398841763155968,24.798366,59.485738,14.919254382162032,137.07086598800385,111.40947060433157,-4.042428516906262,0.001700842182182553,0.10820047137278235
2024-08-21T18:27:02+03:00,20.5,290.15,-117.99979847050034,11.508479999999999,241.58765431691162,210.49896435311317,0.0,5.6376,5.50152,0.20053522829578813,29.50159687128609,25.59975428644518,24.798316,59.485725,15.004868106273829,137.3742177888774,104.21343652803424,-4.148103397330916,0.001714421882646358,0.1099148932554287
2024-08-21T18:27:03+03:00,21.0,290.15,-99.99746454748988,12.30552,238.61973293813395,208.20140359463852,0.0,5.67648,5.50152,0.29793805346802804,28.000447448043335,21.89844692990006,24.79828,59.485707,14.418790436207372,122.80944435977679,115.81028857835716,-3.0757822840858133,0.0015420013370988405,0.11145689459252754
2024-08-21T18:27:04+03:00,21.0,290.15,-87.99972831745043,14.502239999999999,233.70948463386276,207.3992626814554,0.0,5.48208,5.50152,-0.29793805346802804,27.100903709687937,20.09935945318928,24.798265,59.485663,15.323779637078996,108.94842505483777,124.76105957902499,-1.7801240870935795,0.002684069065877556,0.11414096365840509
2024-08-21T18:27:05+03:00,21.1,290.15,-84.0004829074373,14.79384,226.8282615143416,208.9978149298704,0.5000202678106694,5.69592,5.598719999999999,0.49847328176381617,29.50159687128609,19.801421399721253,24.798231,59.485625,15.28680920769983,105.75081107889866,121.07745043544293,-1.5461806911806588,0.002508756253919945,0.11664971991232503
2024-08-21T18:27:06+03:00,21.1,290.15,-84.0004829074373,14.91048,225.9172586200836,208.9978149298704,0.0,5.98752,5.69592,0.0,29.10052641469451,20.299894681485068,24.798197,59.485599,15.476122686562928,106.62985413421403,119.28740448586957,-1.7135543702945069,0.0018759328154704777,0.11852565272779551
2024-08-21T18:27:07+03:00,21.2,290.15,-78.99856135594521,15.49368,225.29846420134228,210.09789389652158,1.899985344433323,6.045839999999999,5.69592,-0.49847328176381617,30.40114060964148,18.70134243307007,24.79817,59.48557,15.519492414159902,101.48129673498197,123.81716746636032,-1.203412623285486,0.001928087778860165,0.12045374050665568
2024-08-21T18:27:08+03:00,21.2,290.15,-74.99931594593207,15.804720000000001,223.2701936065792,214.2002717096583,3.6999895536163168,6.337439999999999,5.69592,-0.40107045659157625,35.299929758010016,15.097437901697193,24.798134,59.485545,15.430574213768038,98.3720388824521,124.8981547241271,-0.9227327397963756,0.0018615245534904493,0.12231526506014613
2024-08-21T18:27:09+03:00,21.2,290.15,-74.99931594593207,16.407359999999997,223.13268373574778,218.4000523479672,4.2000098214269865,6.53184,5.90976,-0.09740282517223994,39.79764844978698,12.198271458335228,24.798103,59.485534,16.01213666038839,98.20477055136473,124.92791318438304,-0.9321676638197605,0.001154257757189744,0.12346952281733588
2024-08-21T18:27:10+03:00,21.2,290.15,-74.99931594593207,16.69896,224.89166416679944,222.89777103974416,4.2000098214269865,6.648479999999999,5.90976,-0.20053522829578813,43.69949103462789,8.898034558381685,24.79809,59.485574,16.296791448376794,98.20669416296842,126.68497000383103,-0.9490344414933256,0.0024368255813125832,0.12590634839864845
2024-08-21T18:27:11+03:00,21.3,290.15,-76.99893865093864,16.31016,226.742317845072,227.60175453776824,4.500010522957486,6.7068,6.006959999999999,-0.29793805346802804,48.397744954700634,6.89841185337511,24.798019,59.485548,16.179746704870254,100.82067831720342,125.92163952786858,-1.259106560546325,0.0026716839367060077,0.12857803233535445
2024-08-21T18:27:12+03:00,21.3,290.15,-78.99856135594521,15.99912,225.20106137617006,230.9019914377218,2.9000258800546614,6.53184,6.006959999999999,-0.40107045659157625,51.801114257777726,4.801386323196299,24.797959,59.485515,16.08574319236153,102.48933818899768,122.71172318717238,-1.4125622459080702,0.0026995913200372136,0.13127762365539167
2024-08-21T18:27:13+03:00,21.3,290.15,-80.00123749742416,16.407359999999997,232.300008457841,232.50054368613678,2.9000258800546614,6.492959999999999,6.006959999999999,0.40107045659157625,52.99859604960115,4.898789148368539,24.797893,59.485494,16.564004135196974,102.70945820727144,129.59055025056955,-1.4284982060063893,0.0023771432715109404,0.13365476692690262
2024-08-21T18:27:15+03:00,21.7,290.15,-84.99742947096492,15.29928,239.69116401502856,231.49786754465782,0.0,6.8623199999999995,6.10416,-0.09740282517223994,51.10210574771813,7.901087994854052,24.797709,59.485423,16.212628062969532,109.93672075568405,129.7544432593445,-2.3399283471346792,0.0024494602379855008,0.13610422716488813
2024-08-21T18:27:16+03:00,21.8,290.15,-86.00010561244387,14.502239999999999,240.1896372967924,229.20030678618323,0.0,6.97896,6.201359999999999,-0.40107045659157625,48.397744954700634,9.40223741809681,24.797653,59.485412,15.649314277699869,112.41533195982663,127.77430533696577,-2.661201428643787,0.001832562627551743,0.13793678979243987
2024-08-21T18:27:17+03:00,21.9,290.15,-82.99780676595836,13.7052,241.46733317993417,227.40121930947245,0.0,6.9984,6.10416,-0.20053522829578813,46.90232510940919,9.602772646392598,24.797595,59.485401,14.609064101707922,111.38789939170051,130.07943378823364,-2.552177501880263,0.0018896203842696535,0.13982641017670952
2024-08-21T18:27:18+03:00,21.9,290.15,-84.0004829074373,13.10256,240.20109645269503,225.9974727114019,0.0,7.2122399999999995,6.10416,-0.29793805346802804,45.699113739634456,7.9984908200262925,24.797529,59.485371,14.280736618127955,114.15055323390177,126.05054321879325,-2.9507849585769,0.002703548955936169,0.14252995913264568
2024-08-21T18:27:19+03:00,22.1,290.15,-86.00010561244387,13.608,237.54257228328802,223.49937672463153,0.0,7.23168,6.10416,-0.29793805346802804,42.7999472962725,7.797955591730505,24.797474,59.485324,14.958139374027784,114.83475796702402,122.707814316264,-3.037325127248527,0.003286140117572556,0.14581609925021824
2024-08-21T18:27:20+03:00,22.3,290.15,-86.00010561244387,14.79384,234.2079579156266,221.9008244762165,0.0,7.23168,6.201359999999999,-0.6990085100596044,41.40193027615329,7.597420363434716,24.797428,59.485289,16.007173193087308,112.78723399152246,121.42072392410414,-2.800903264700619,0.002529203931554735,0.14834530318177297
2024-08-21T18:27:21+03:00,22.4,290.15,-86.00010561244387,14.91048,234.4027635659711,220.50280745609732,0.0,7.251119999999999,6.10416,-0.6016056848873644,40.10131608120632,7.2020794847944485,24.797375,59.485268,16.11886275521574,112.66408808924236,121.73867547672874,-2.794057661305385,0.0020517927495081654,0.15039709593128114
2024-08-21T18:27:22+03:00,22.4,290.15,-84.0004829074373,14.59944,230.94209848338093,219.5975341397906,0.0,7.095599999999999,6.10416,-0.29793805346802804,39.49971039631895,7.299482309966689,24.797338,59.48525,15.551088187854196,110.98679470839852,119.95530377498241,-2.5413088112557554,0.0015639051927855629,0.1519610011240667
2024-08-21T18:27:23+03:00,22.4,290.15,-84.0004829074373,14.59944,227.20068408117663,218.600587576263,0.0,6.7068,6.10416,-0.29793805346802804,38.30222860449553,7.098947081670899,24.797328,59.485224,15.416112917741788,109.63750783436204,117.56317624681459,-2.25394221584182,0.0015923236997117272,0.15355332482377845
2024-08-21T18:27:25+03:00,,290.15,-82.99780676595836,14.79384,223.80877393400218,216.6009648712564,0.0,6.57072,6.10416,-0.6016056848873644,36.4000087246612,8.10162322314984,24.797307,59.485202,15.43799760524503,107.98688370259435,115.82189023140782,-2.0290335260534893,0.0014695064842881168,0.15502283130806657
2024-08-21T18:27:26+03:00,22.6,290.15,-69.99739439443997,13.5108,224.18119650083722,217.09943815302023,0.5000202678106694,6.62904,6.10416,-0.49847328176381617,37.40268486614014,5.2998596049601145,24.797292,59.485177,12.853524793103343,98.98538944095905,125.19580705987816,-1.03534068346774,0.0015708824732027797,0.15659371378126935
2024-08-21T18:27:27+03:00,22.6,290.15,-67.9977716894334,15.396479999999999,226.7480474230233,218.49745517313943,1.4000223724021665,6.4152,6.10416,-0.40107045659157625,39.09863993972738,4.199780638308934,24.797265,59.485198,14.289798985313617,92.59515914127242,134.1528882817509,-0.2904711850321364,0.0015074360415102623,0.15810114982277962
2024-08-21T18:27:28+03:00,22.8,290.15,-67.00082512590576,15.804720000000001,225.09219939509524,220.19913982467796,1.899985344433323,6.39576,6.006959999999999,-0.8995437383553924,40.50238653779789,6.497341396783535,24.797204,59.485208,14.550082397433174,90.86861438388121,134.22358501121403,-0.09695716471655118,0.00195636748886575,0.16005751731164536
2024-08-21T18:27:29+03:00,23.0,290.15,-69.99739439443997,14.094,227.68196862908653,221.70028924792078,1.4000223724021665,6.492959999999999,6.006959999999999,-0.8995437383553924,41.797271154793556,9.001166961505232,24.797162,59.485186,13.348925099378981,97.19507614658878,130.48689248249775,-0.8132300806542185,0.0018416876588393822,0.16189920497048474
2024-08-21T18:27:30+03:00,23.1,290.15,-78.00161479241758,13.00536,229.49251526169994,223.2014386711635,0.6999825383113268,6.55128,6.006959999999999,-0.49847328176381617,43.602088209455644,10.3017811564522,24.797068,59.485186,13.290390293930646,106.82849320947241,122.66402205222752,-1.8966468989563365,0.0028689139882818334,0.16476811895876659
2024-08-21T18:27:31+03:00,23.1,290.15,-84.0004829074373,13.19976,226.22092625150296,223.49937672463153,1.2999839413723246,6.35688,6.006959999999999,0.29793805346802804,43.69949103462789,9.998113525032863,24.797015,59.485174,14.039343849541218,110.76408080816287,115.45684544334009,-2.2536464552977917,0.0017711087743886066,0.1665392277331552
2024-08-21T18:27:32+03:00,23.1,290.15,-89.00240445892939,13.9968,226.50167557111703,223.69991195292732,1.1000216708716675,6.35688,6.006959999999999,-0.20053522829578813,44.197964316391705,9.40223741809681,24.796973,59.485149,15.271611259481773,113.59678469433221,112.90489087678482,-2.544643856975962,0.0019751559645713856,0.16851438369772656
2024-08-21T18:27:34+03:00,23.3,290.15,-86.9970521759715,13.608,231.92758589100595,223.99785000639537,0.300000701530499,6.53184,6.006959999999999,-0.20053522829578813,43.99742908809592,9.900710699860626,24.796784,59.485105,14.782749137347553,113.18064068151325,118.7469452094927,-2.5711368412286193,0.0017611969401962087,0.17027558063792278
2024-08-21T18:27:35+03:00,23.3,290.15,-80.00123749742416,13.296959999999999,232.72972680418906,223.90044718122311,0.5000202678106694,6.454079999999999,6.006959999999999,-0.29793805346802804,44.10056149121947,9.700175471564837,24.796774,59.485102,13.735468513042585,107.56577174931599,125.16395505487307,-1.947843956934359,0.0003544942035766975,0.17063007484149947
2024-08-21T18:27:36+03:00,23.3,290.15,-74.99931594593207,13.19976,231.45776049899865,225.0005261478743,1.4000223724021665,6.4152,6.006959999999999,0.09740282517223994,45.20064045787065,9.499640243269049,24.796714,59.485061,13.097838533294148,103.23502972018028,128.22273077881837,-1.46873475073175,0.0030702999375051758,0.17370037477900466
2024-08-21T18:27:37+03:00,23.4,290.15,-78.99856135594521,13.19976,231.58954079187873,225.6995346579339,0.0,6.6679200000000005,6.006959999999999,-0.20053522829578813,45.601710914462224,8.399561276617868,24.796654,59.485023,13.605234157595595,107.75535725511266,123.83418353676608,-2.033404530598106,0.0029275387866717255,0.1766279135656764
2024-08-21T18:27:38+03:00,23.5,290.15,-76.99893865093864,13.9968,232.51200284203938,224.70258809440625,0.0,6.7068,6.10416,-0.09740282517223994,44.501631947811035,8.19902604832208,24.796595,59.484989,14.094473917055717,104.62170836634053,127.89029447569885,-1.693037685529077,0.002723805369886352,0.17935171893556273
2024-08-21T18:27:39+03:00,23.5,290.15,-80.00123749742416,13.8996,233.8584536605968,223.0009034428677,0.0,6.53184,6.10416,-0.29793805346802804,42.70254447110025,8.898034558381685,24.796532,59.484991,14.29463720650751,106.74512084997025,127.11333281062656,-1.8819192720321596,0.001926548282100508,0.18127826721766324
2024-08-21T18:27:40+03:00,23.6,290.15,-78.99856135594521,14.502239999999999,231.7213210847588,221.9008244762165,0.0,6.18192,6.10416,-0.40107045659157625,41.69986832962131,9.001166961505232,24.796484,59.484981,14.639466644593002,103.4874789189098,128.233842165849,-1.4418268961507223,0.0015835017622777548,0.182861768979941
2024-08-21T18:27:41+03:00,23.6,290.15,-80.99818406095179,14.696639999999999,234.76945655485483,221.0986835630334,0.300000701530499,6.25968,6.10416,0.09740282517223994,40.897727416438165,8.800631733209444,24.796425,59.484958,15.046138667325526,105.26008399536349,129.50937255949134,-1.6475541102400697,0.0022702006173929553,0.18513196959733394
2024-08-21T18:27:42+03:00,23.7,290.15,-82.00086020243072,14.91048,236.07007074980177,221.00128073786115,0.09998113525032865,6.55128,6.10416,-0.6016056848873644,41.00085981956171,8.10162322314984,24.796377,59.484945,15.429030147562393,106.86550402831264,129.20456672148913,-1.9006971449743228,0.0016603538504543314,0.18679232344778826
2024-08-21T18:27:43+03:00,23.8,290.15,-80.99818406095179,14.502239999999999,235.10750165398198,221.29921879132917,0.0,6.74568,6.10416,-0.6990085100596044,41.29879787302974,7.700552766558264,24.796329,59.484923,15.006860529723225,107.3556432519389,127.75185840204308,-2.0122495469236807,0.001973538058392613,0.18876586150618088
2024-08-21T18:27:44+03:00,23.8,290.15,-78.00161479241758,14.21064,231.24003653684895,221.59715684479718,0.6999825383113268,6.68736,6.10416,-0.20053522829578813,41.69986832962131,6.199403343315507,24.796301,59.484902,14.39277332774364,105.03326031530398,126.20677622154497,-1.734565586729639,0.0015243383471694617,0.19029019985335036
2024-08-21T18:27:45+03:00,23.9,290.15,-74.99931594593207,14.094,229.3378166570146,221.20181596615694,0.0,6.6095999999999995,6.10416,-0.40107045659157625,41.09826264473395,4.199780638308934,24.796267,59.48488,13.932141246195009,102.27336785793155,127.06444879908305,-1.4050437464026064,0.0016809181699655232,0.19197111802331587
2024-08-21T18:27:46+03:00,23.9,290.15,-72.9996932409255,14.502239999999999,230.97074637313744,218.69799040143525,0.0,6.6679200000000005,6.10416,-0.09740282517223994,38.19909620137198,4.60085109490051,24.796213,59.484858,14.079438026544793,99.92948000435533,131.04126636878212,-1.149789046660589,0.002113041605005868,0.19408415962832173
2024-08-21T18:27:47+03:00,24.1,290.15,-74.00236938240442,14.30784,232.48908453023412,216.8015000995522,0.0,6.62904,6.10416,-0.49847328176381617,36.4000087246612,6.497341396783535,24.796162,59.484834,14.013533122593705,101.04967501814919,131.43940951208492,-1.2705217207721586,0.0021222423863460674,0.1962064020146678
2024-08-21T18:27:48+03:00,24.2,290.15,-69.99739439443997,13.5108,228.79923632959162,215.79882395807326,0.0,6.47352,6.006959999999999,-0.20053522829578813,35.50046498630581,7.797955591730505,24.796121,59.484808,12.830154880066981,98.29938834387507,130.49984798571654,-0.9344243705958059,0.002002053567929079,0.19820845558259687
2024-08-21T18:27:49+03:00,24.2,290.15,-69.00044783091235,13.00536,224.89166416679944,213.59866602477092,0.0,6.72624,6.006959999999999,-0.29793805346802804,33.09977182470766,8.399561276617868,24.796086,59.48478,12.316044004505029,99.65520498135928,125.23645918544017,-1.1281161271728126,0.0019934010701464764,0.20020185665274334
2024-08-21T18:27:50+03:00,24.3,290.15,-69.00044783091235,13.39416,222.94933724130595,211.19797286317277,0.0,6.6095999999999995,6.006959999999999,0.09740282517223994,30.60167583793727,10.702851613043778,24.796059,59.484758,12.634831558093541,98.23467282521608,124.71466441608987,-0.9466789662293706,0.0015581195610249441,0.2017599762137683
2024-08-21T18:27:51+03:00,24.3,290.15,-69.00044783091235,13.7052,222.17011463992804,211.1005700380005,0.0,6.53184,6.006959999999999,-0.8021409131831525,31.398087173169117,12.198271458335228,24.796055,59.484743,12.897147947993696,97.21788625504855,124.95222838487949,-0.8206795806095674,0.0009098435124831807,0.20266981972625148
2024-08-21T18:27:52+03:00,24.4,290.15,-69.00044783091235,13.802399999999999,220.65750606078265,212.20064900465167,0.3999818367808277,6.62904,6.006959999999999,-0.09740282517223994,32.69870136811608,12.702474318050351,24.796013,59.484715,12.995107167615322,97.44041806971696,123.2170879910657,-0.8584283135042927,0.0021155945376123693,0.20478541426386385
2024-08-21T18:27:53+03:00,24.4,290.15,-72.9996932409255,13.8996,223.01236259877032,212.0001137763559,0.0,6.72624,6.006959999999999,-0.29793805346802804,31.5986224014649,13.899956109873772,24.795972,59.484687,13.556229929197936,101.32598277902335,121.68637981974697,-1.320971776737963,0.0020972426848335827,0.20688265694869742
2024-08-21T18:27:54+03:00,24.5,290.15,-73.99663980445312,13.608,220.43978209863295,211.7021757228879,0.9000021045914972,6.74568,6.006959999999999,-0.09740282517223994,31.902290032884235,16.59858732493995,24.795953,59.484647,13.418909534386641,102.89240729987088,117.54737479876206,-1.5051024694272612,0.0024732527633267603,0.2093559097120242
2024-08-21T18:27:55+03:00,24.5,290.15,-76.99893865093864,14.21064,220.15903277901882,213.70179842789446,1.7000230739326654,6.74568,6.006959999999999,-0.6016056848873644,34.400386019654626,17.200193009827313,24.795907,59.484623,14.293887429460455,104.37508725312607,115.78394552589275,-1.6747413023629352,0.002012996381495307,0.2113689060935195
2024-08-21T18:27:56+03:00,24.7,290.15,-80.00123749742416,14.59944,219.91266092711257,216.8015000995522,1.5000035076524951,6.901199999999999,6.10416,0.20053522829578813,37.50008769131237,14.398429391637588,24.795835,59.484606,15.026081278761435,106.89294472231256,113.0197162048,-2.0053808642552626,0.002423460205966783,0.21379236629948628
2024-08-21T18:27:57+03:00,24.8,290.15,-84.0004829074373,15.20208,220.80074550956533,216.49783246813288,0.0,7.095599999999999,6.10416,0.09740282517223994,36.30260589948897,11.79720100174365,24.795735,59.484571,16.09043370433487,110.01297889934273,110.7877666102226,-2.428348460431568,0.003706899359343469,0.21749926565882974
2024-08-21T18:27:58+03:00,25.0,290.15,-86.00010561244387,15.99912,222.04979350295056,214.80187739454564,0.0,7.23168,6.201359999999999,-0.09740282517223994,34.60092124795042,11.000789666511807,24.79568,59.484532,17.091744845561823,110.96601269750032,111.08378080545025,-2.5875970391857814,0.002883253138100404,0.22038251879693013
2024-08-21T18:27:59+03:00,25.1,290.15,-80.99818406095179,15.610319999999998,218.88133689587707,214.80187739454564,0.6999825383113268,7.4844,6.201359999999999,-0.40107045659157625,35.09939452971423,11.201324894807593,24.795637,59.484486,16.221508204982634,108.10846899680506,110.77286789907201,-2.3262781841313904,0.0030606166927524717,0.22344313548968261
2024-08-21T18:28:00+03:00,25.1,290.15,-80.99818406095179,15.29928,221.02992862761766,215.79882395807326,0.6999825383113268,7.348319999999999,6.201359999999999,0.0,36.10207067119317,11.098192491684046,24.795646,59.484459,15.902350722823678,108.15315475709663,112.87677387052103,-2.2894287166986076,0.0016459907554621815,0.2250891262451448
2024-08-21T18:28:01+03:00,25.2,290.15,-82.99780676595836,15.610319999999998,224.06087536385974,215.09981544801366,0.0,7.17336,6.29856,-0.09740282517223994,34.89885930141844,10.702851613043778,24.795621,59.484442,16.36573237220642,108.78607045252332,115.27480491133642,-2.3100768589585354,0.001275283150111775,0.22636440939525657
2024-08-21T18:28:02+03:00,25.2,290.15,-84.0004829074373,15.70752,218.5891284203604,214.69874499142207,0.300000701530499,6.9984,6.39576,-0.49847328176381617,34.80145647624621,12.398806686631014,24.795592,59.484414,16.51437322492852,108.92697634990861,109.66215207045178,-2.2700207873665903,0.001901568666116096,0.22826597806137267
2024-08-21T18:28:03+03:00,25.4,290.15,-82.99780676595836,16.19352,219.3110552422252,215.90195636119682,0.9999832398418258,7.03728,6.39576,-0.29793805346802804,36.30260589948897,13.899956109873772,24.79555,59.484399,16.85137043680397,107.48526359390456,111.82579164832063,-2.1144246301402405,0.0015672075578959013,0.22983318561926858
2024-08-21T18:28:04+03:00,25.5,290.15,-84.0004829074373,16.407359999999997,220.58875112536694,217.00203532784798,0.9999832398418258,7.15392,6.39576,0.0,37.20214963784435,12.79987714322259,24.795514,59.484378,17.20010287118884,108.43449690188115,112.1542542234858,-2.262214608804251,0.001673492375721987,0.23150667799499056
2024-08-21T18:28:05+03:00,25.5,290.15,-84.0004829074373,16.407359999999997,223.6827232190734,216.49783246813288,0.2000195662801704,7.23168,6.39576,-0.20053522829578813,36.30260589948897,11.499262948275621,24.795471,59.484356,17.224850130132232,108.67988141888051,115.0028418001929,-2.316165158346837,0.001863082098416138,0.23336976009340668
2024-08-21T18:28:08+03:00,25.6,290.15,-84.99742947096492,17.398799999999998,225.73964170359304,217.2025705561438,0.6999825383113268,7.5816,6.39576,-0.09740282517223994,37.001614409548566,9.900710699860626,24.795282,59.484328,18.36283070552884,109.28425499184966,116.45538671174337,-2.503861471974088,0.0016073059623404953,0.23497706605574717
2024-08-21T18:28:09+03:00,25.6,290.15,-86.00010561244387,17.107200000000002,227.8595855455771,217.90157906620337,1.4000223724021665,7.950959999999999,6.492959999999999,-0.6016056848873644,38.502763832791324,10.101245928156414,24.795217,59.48431,18.354786634721986,111.60270566654985,116.25687987902724,-2.92729269008461,0.0022597233341883917,0.23723678938993556
2024-08-21T18:28:10+03:00,25.6,290.15,-86.00010561244387,17.107200000000002,230.7702111448417,220.50280745609732,1.5999846429028237,7.542719999999999,6.492959999999999,-0.49847328176381617,41.40193027615329,12.702474318050351,24.795164,59.484291,18.208442090600283,110.40825753767548,120.36195360716623,-2.630200212861432,0.0019801439434483717,0.23921693333338392
2024-08-21T18:28:11+03:00,25.7,290.15,-86.9970521759715,17.398799999999998,230.0310955891229,221.0986835630334,0.2000195662801704,7.56216,6.492959999999999,-0.20053522829578813,40.897727416438165,14.398429391637588,24.79511,59.484271,18.60427475280332,110.94560398105834,119.08549160806457,-2.703331971815738,0.002039988397150816,0.24125692173053473
2024-08-21T18:28:12+03:00,25.7,290.15,-89.00240445892939,17.2044,229.2404138318424,219.99860459638222,0.9999832398418258,7.52328,6.492959999999999,-0.40107045659157625,39.79764844978698,14.799499848229162,24.795059,59.484249,18.657012903198943,112.7795486942591,116.4608651375833,-2.9129125233626065,0.0020424511192764245,0.24329937284981115
2024-08-21T18:28:16+03:00,26.0,290.15,-87.99972831745043,16.69896,228.94820535632564,222.8003682145719,1.1000216708716675,7.60104,6.492959999999999,-0.49847328176381617,42.70254447110025,11.298727719979832,24.794948,59.48415,18.10442825428653,112.80833358911451,116.13987176721113,-2.9465406174687554,0.0029390302038602156,0.24623840305367137
2024-08-21T18:28:17+03:00,26.0,290.15,-87.00278175392282,15.99912,229.03987860354658,224.5994556912827,1.5000035076524951,7.60104,6.492959999999999,-0.29793805346802804,45.00010522957485,10.599719209920229,24.794952,59.484128,17.35022466836606,112.94696424927575,116.09291435427083,-2.963485093581285,0.001327993444363775,0.24756639649803514
2024-08-21T18:28:18+03:00,26.2,290.15,-86.00010561244387,15.396479999999999,231.62964783753793,225.20106137617006,1.200002806121996,7.7176800000000005,6.492959999999999,0.20053522829578813,45.29804328304288,7.700552766558264,24.79489,59.484078,16.734305400037087,113.39145726208892,118.23819057544901,-3.064004240459337,0.003551511038609798,0.2511179075366449
2024-08-21T18:28:19+03:00,26.2,290.15,-87.00278175392282,15.007679999999999,231.4176534533395,225.90006988622966,0.6999825383113268,7.73712,6.492959999999999,-1.1974817918234204,46.10018419622604,5.2998596049601145,24.794794,59.484044,16.521217799257496,114.88616755442345,116.53148589891606,-3.2559102418992927,0.003572360903282876,0.2546902684399278
2024-08-21T18:28:20+03:00,26.2,290.15,-86.9970521759715,14.696639999999999,232.43751832867238,226.19800793969773,0.600001403060998,7.4844,6.492959999999999,0.49847328176381617,46.39812224969406,4.297183463481174,24.794672,59.484015,16.13947722391854,114.58410156058603,117.85341676808635,-3.113723565433515,0.0041114187403397074,0.2588016871802675
2024-08-21T18:28:21+03:00,26.2,290.15,-89.99935102245702,14.502239999999999,233.81261703698632,224.30151763781467,0.0,7.42608,6.492959999999999,-1.1974817918234204,43.602088209455644,5.2998596049601145,24.794602,59.483981,16.292918385307907,117.11485308735533,116.697763949631,-3.3846265613948856,0.0029565503686059614,0.2617582375488735
2024-08-21T18:28:22+03:00,26.2,290.15,-89.99935102245702,14.502239999999999,234.08763677864914,224.50205286611046,1.2999839413723246,7.1928,6.492959999999999,0.40107045659157625,44.79957000127907,5.597797658428142,24.794557,59.483966,16.187926791991266,116.37990439224758,117.70773238640156,-3.195912051457359,0.0016429603350456607,0.2634011978839192
2024-08-21T18:28:23+03:00,26.2,290.15,-89.99935102245702,14.502239999999999,232.35157465940273,225.09792897304655,0.9000021045914972,6.8623199999999995,6.39576,-1.3980170201192088,45.00010522957485,5.500394833255903,24.794507,59.483959,16.04381956820553,115.3225305719666,117.02904408743613,-2.9351058425194143,0.001583014170229705,0.2649842120541489
2024-08-21T18:28:24+03:00,26.2,290.15,-87.99972831745043,14.40504,235.6002453577945,227.49862213464465,0.600001403060998,6.8623199999999995,6.39576,-0.6990085100596044,48.09980690123261,5.700930061551691,24.794438,59.483914,15.738357811649983,113.83335856545766,121.76688679233685,-2.7729120799285445,0.0034280260243938136,0.2684122380785427
2024-08-21T18:28:25+03:00,26.3,290.15,-87.99972831745043,14.40504,232.8786958309231,227.20068408117663,0.2000195662801704,6.95952,6.29856,-0.09740282517223994,46.59865747798985,6.600473799907084,24.794377,59.483883,15.777884704113875,114.1562323308516,118.72246350007151,-2.8480176097901713,0.002634080634233325,0.271046318712776
2024-08-21T18:28:26+03:00,26.4,290.15,-87.99972831745043,14.40504,232.75837469394565,224.7999909195785,0.0,7.13448,6.29856,-1.3006141949469687,43.69949103462789,11.201324894807593,24.794355,59.483869,15.85028685171742,114.73330777730189,118.02506691664377,-2.985031805284743,0.0010765747067522783,0.2721228934195283
2024-08-21T18:28:27+03:00,26.4,290.15,-87.99972831745043,14.502239999999999,232.89015498682573,223.90044718122311,0.0,7.2122399999999995,6.29856,0.6990085100596044,44.197964316391705,11.997736230039438,24.794304,59.483853,15.969654005520031,114.82982658639777,118.06032840042796,-3.028596919588429,0.00182973059778792,0.2739526240173162
2024-08-21T18:28:28+03:00,26.4,290.15,-87.99972831745043,14.502239999999999,233.9787747975743,220.60021028126957,0.0,7.13448,6.29856,-0.40107045659157625,39.998183678082775,13.097815196690618,24.79426,59.483839,15.937156920718499,114.57611265030906,119.40266214726523,-2.967242245241744,0.0015848180674860857,0.27553744208480224
2024-08-21T18:28:29+03:00,26.5,290.15,-87.99972831745043,14.502239999999999,234.99863967290713,219.5975341397906,0.0,6.97896,6.29856,-1.1974817918234204,39.00123711455514,13.401482828109954,24.79422,59.483824,15.87310598907387,114.06559326611148,120.93304640679565,-2.845895802200339,0.0015177017058630555,0.2770551437906653
2024-08-21T18:28:36+03:00,26.6,290.15,-93.99859643247017,15.901919999999999,228.55286447768538,219.40272848944613,0.0,7.387199999999999,6.39576,0.09740282517223994,39.09863993972738,12.89727996839483,24.793862,59.483707,17.99513047217545,118.17276522722277,110.3800992504626,-3.487732002229897,0.0017468490202692522,0.27880199281093454
2024-08-21T18:28:37+03:00,26.7,290.15,-93.00164986894255,15.901919999999999,226.97150096312433,218.10211429449916,0.0,7.13448,6.39576,-0.6990085100596044,37.20214963784435,13.99735893504601,24.793801,59.483688,17.766643463242097,116.64330032758335,110.32820063554098,-3.1993484129167653,0.0021841839454257972,0.28098617675636034
2024-08-21T18:28:38+03:00,26.8,290.15,-91.99897372746359,15.610319999999998,228.10022781953205,217.39737620648825,0.3999818367808277,7.44552,6.492959999999999,-0.29793805346802804,37.40268486614014,14.10049133816956,24.79375,59.483669,17.527869851533097,117.11946692721153,110.98076089232052,-3.39402049730179,0.0019306213233709379,0.2829167980797313
2024-08-21T18:28:39+03:00,26.8,290.15,-90.99629758598464,15.396479999999999,229.64721386638524,218.600587576263,0.9000021045914972,7.251119999999999,6.6095999999999995,0.0,39.29917516802316,11.997736230039438,24.793702,59.483668,17.132213660177868,116.03186541316171,113.61534845322353,-3.182305915768421,0.0014662757160757388,0.284383073795807
2024-08-21T18:28:40+03:00,26.8,290.15,-89.99935102245702,15.29928,228.11168697543465,218.1995171196714,0.5000202678106694,7.13448,6.6095999999999995,0.20053522829578813,37.998560973076195,10.101245928156414,24.793654,59.483652,16.880944899351547,115.00041613711234,113.11127083832231,-3.0152084985140113,0.0017525023928928964,0.2861355761886999
2024-08-21T18:28:41+03:00,26.8,290.15,-89.00240445892939,15.70752,229.18884763028058,218.89852562973104,0.5000202678106694,7.17336,6.6095999999999995,-1.501149423242757,39.20177234285093,9.40223741809681,24.793615,59.483635,17.154002733031746,113.71777216154369,115.47107546873688,-2.8853533616805405,0.0015687792830768575,0.28770435547177675
2024-08-21T18:28:42+03:00,26.8,290.15,-87.00278175392282,15.804720000000001,230.05974347887945,220.19913982467796,0.8000209693411684,6.97896,6.6095999999999995,-0.29793805346802804,40.399254134674344,9.098569786677473,24.793598,59.48362,16.939905178326946,111.29684077222386,118.7629027066556,-2.5347572772656344,0.0010402582013240731,0.28874461367310084
2024-08-21T18:28:43+03:00,26.9,290.15,-87.99972831745043,15.804720000000001,230.7873998786956,219.5975341397906,0.0,6.9984,6.492959999999999,0.0,39.49971039631895,9.700175471564837,24.793547,59.48361,17.060053304256993,112.20277266772322,118.58462721097237,-2.6445945219635942,0.0016686315052703246,0.29041324517837114
2024-08-21T18:28:44+03:00,26.9,290.15,-87.99972831745043,15.49368,226.00893186730454,218.600587576263,0.0,6.95952,6.492959999999999,-0.29793805346802804,38.502763832791324,11.201324894807593,24.793485,59.483595,16.761911900167036,112.51561040302425,113.49332146428029,-2.6650447087742686,0.002096164072220558,0.2925094092505917
2024-08-21T18:28:45+03:00,26.9,290.15,-84.0004829074373,15.610319999999998,228.51848700997755,217.29997338131602,0.0,6.901199999999999,6.492959999999999,0.0,37.001614409548566,12.100868633162985,24.793421,59.483587,16.394778672750864,108.74881604310464,119.76967096687291,-2.2181829995355087,0.0020117111088948044,0.2945211203594865
2024-08-21T18:28:46+03:00,26.9,290.15,-82.00086020243072,15.70752,229.4695969498947,215.59828872977747,0.0,7.2122399999999995,6.492959999999999,-0.6990085100596044,35.00199170454199,11.997736230039438,24.793388,59.483591,16.346654660582633,107.90794430480761,121.5616526450871,-2.2176812737831373,0.001035518346858674,0.2955566387063452
2024-08-21T18:28:47+03:00,26.9,290.15,-80.00123749742416,15.804720000000001,226.59907839628926,214.40080693795403,0.0,7.2122399999999995,6.492959999999999,-0.8021409131831525,33.99931556306306,12.398806686631014,24.793319,59.483557,16.1933013586016,106.01706717238214,120.58201122390712,-1.9900278208388178,0.0029345893902398535,0.298491228096585
2024-08-21T18:28:48+03:00,26.9,290.15,-78.99856135594521,16.407359999999997,225.7511008594957,213.10019274300709,0.0,7.03728,6.39576,0.20053522829578813,32.60129854294384,12.301403861458775,24.793242,59.483505,16.572756287761734,103.63290696403472,122.11819389546098,-1.658689045072882,0.003910593738573988,0.302401821835159
2024-08-21T18:28:49+03:00,26.9,290.15,-78.99856135594521,16.79616,224.1697373449346,212.20064900465167,0.0,6.901199999999999,6.39576,-0.20053522829578813,31.902290032884235,11.298727719979832,24.793195,59.483483,16.896659444383804,102.63487218982888,121.5348651551057,-1.5095490100216282,0.0019510343032913722,0.30435285613845037
2024-08-21T18:28:50+03:00,26.9,290.15,-78.99856135594521,17.107200000000002,220.61166943717217,212.20064900465167,0.0,6.88176,6.492959999999999,-0.8021409131831525,32.20022808635227,10.89765726338826,24.79315,59.483447,17.17795453168328,102.15565138435261,118.45601805281956,-1.4490797102284452,0.0025629731972957688,0.3069158293357461
2024-08-21T18:28:51+03:00,26.9,290.15,-76.99893865093864,17.3016,221.40235119445268,212.60171946124328,0.300000701530499,6.804,6.492959999999999,0.09740282517223994,32.69870136811608,9.29910501497326,24.793113,59.48339,17.10768873754039,99.79926392580721,121.60308726864547,-1.158019297300555,0.0036074618298643814,0.3105232911656105
2024-08-21T18:28:52+03:00,26.9,290.15,-76.99893865093864,17.3016,223.5509429261933,212.49858705811974,0.3999818367808277,6.97896,6.39576,-0.6990085100596044,32.10282526118002,8.399561276617868,24.793079,59.483355,17.138333585952306,100.37565485631289,123.17528806988041,-1.256919116695641,0.0023457982600484525,0.31286908942565894
2024-08-21T18:28:53+03:00,26.9,290.15,-76.001992087411,16.893359999999998,225.87715157442446,214.2002717096583,1.1000216708716675,7.387199999999999,6.39576,-1.1000789666511805,34.400386019654626,7.797955591730505,24.793038,59.483321,16.72075505545577,101.38572529202256,124.4914262824019,-1.4583301176652617,0.0023963651762944436,0.3152654546019534
2024-08-21T18:28:54+03:00,26.9,290.15,-73.99663980445312,16.60176,225.88861073032706,215.1972182731859,1.2999839413723246,7.2122399999999995,6.29856,0.0,35.79840303977384,7.500017538262475,24.792997,59.483287,16.174485448919295,99.37675350363261,126.51185722669445,-1.1750590266796364,0.0023963658335435533,0.31766182043549696
2024-08-21T18:28:56+03:00,26.8,290.15,-76.001992087411,16.31016,223.25873445067654,214.49820976312628,0.0,6.804,6.29856,-0.09740282517223994,31.70175480458845,9.499640243269049,24.792927,59.48328,16.08194586979436,100.23945340573295,123.0192810449436,-1.2094954195332515,0.002177581534663795,0.31983940197016075
2024-08-21T18:28:57+03:00,26.8,290.15,-76.001992087411,16.31016,225.0177148817282,212.29805182982392,0.0,6.940079999999999,6.29856,-0.40107045659157625,30.40114060964148,9.499640243269049,24.792871,59.483263,16.106692469904047,100.7158219522614,124.30189292946682,-1.2904242624156639,0.001991389105760058,0.32183079107592083
2024-08-21T18:28:58+03:00,26.8,290.15,-74.99931594593207,16.31016,226.4615685254579,210.90003480970472,1.4000223724021665,7.251119999999999,6.29856,-0.29793805346802804,32.60129854294384,9.602772646392598,24.792807,59.483227,16.04300053946773,100.88506530032494,125.57650322513295,-1.3692977267586481,0.0029151670383386293,0.32474595811425944
2024-08-21T18:28:59+03:00,26.7,290.15,-76.001992087411,15.804720000000001,223.33894854199488,211.90271095118365,2.7999874490248207,7.23168,6.29856,-0.09740282517223994,36.30260589948897,9.700175471564837,24.792765,59.483199,15.709656631161112,102.53180544965358,120.8071430923413,-1.5691410057681285,0.002115629405325164,0.3268615875195846
2024-08-21T18:29:00+03:00,26.6,290.15,-78.00161479241758,15.804720000000001,218.210976275574,215.39775350148167,2.9000258800546614,7.29,6.10416,-0.49847328176381617,39.602842799442506,8.697499330085895,24.79273,59.483182,15.96965716735347,104.52211310239488,113.68886317317913,-1.8279940249362168,0.001478293642602898,0.3283398811621875
2024-08-21T18:29:01+03:00,26.6,290.15,-78.99856135594521,15.49368,220.5085370340486,218.69799040143525,2.000023775463165,7.348319999999999,6.10416,-1.0026761414789407,42.7999472962725,8.697499330085895,24.792688,59.48316,15.830292005026052,106.10615053871128,114.40238649533732,-2.038554684395588,0.0018417411861765475,0.330181622348364
2024-08-21T18:29:02+03:00,26.6,290.15,-80.00123749742416,15.396479999999999,222.1013597045123,221.9008244762165,0.0,7.348319999999999,6.10416,1.1974817918234204,40.19871890637856,8.600096504913656,24.792636,59.483125,15.867000667256931,107.13604107790961,114.9653186266027,-2.165119988572173,0.002635319526378582,0.3328169418747426
2024-08-21T18:29:03+03:00,26.6,290.15,-84.0004829074373,15.29928,229.73888711360618,221.29921879132917,0.0,7.056719999999999,6.10416,-0.20053522829578813,34.497788844826864,9.001166961505232,24.792582,59.483115,16.16467500461463,109.73239130584462,120.00649580776157,-2.3825423840202133,0.0017543825585420985,0.3345713244332847
2024-08-21T18:29:04+03:00,26.6,290.15,-84.0004829074373,14.91048,227.96271794870063,215.99935918636905,0.0,7.095599999999999,6.201359999999999,-0.09740282517223994,28.699455958102938,11.699798176571411,24.792545,59.483088,15.828889868874615,110.47589312580385,117.48682482289678,-2.4821349021157895,0.0019771702295368516,0.33654849466282155
2024-08-21T18:29:05+03:00,26.6,290.15,-82.00086020243072,14.91048,224.19265565673982,210.49896435311317,0.0,7.07616,6.201359999999999,0.0,22.797990668255455,13.699420881577984,24.792487,59.483054,15.589405957834938,108.71194298390054,115.48071267283927,-2.270105891937697,0.0027037916005186536,0.3392522862633402
2024-08-21T18:29:06+03:00,26.6,290.15,-80.00123749742416,14.91048,223.0180921767216,204.50009623809342,0.0,7.29,6.201359999999999,-0.6990085100596044,23.600131581438607,14.799499848229162,24.792429,59.482997,15.41820116972762,107.75265476037353,115.26543741634808,-2.2227824350342495,0.003856471937885425,0.3431087582012256
2024-08-21T18:29:07+03:00,26.6,290.15,-76.99893865093864,14.91048,219.40845806739745,203.19948204314647,0.0,6.8623199999999995,6.201359999999999,0.0,24.99814860155782,14.301026566465348,24.792368,59.482972,14.945767092621002,103.57453553920512,115.83392252819233,-1.610655901450616,0.0023926181044604143,0.345501376305686
2024-08-21T18:29:08+03:00,26.6,290.15,-74.99931594593207,14.696639999999999,218.6120467321656,204.59749906326564,0.0,6.57072,6.10416,-0.29793805346802804,22.098982158195852,12.89727996839483,24.79233,59.482951,14.462929916312737,101.02874798522238,117.58329874694321,-1.2569885909480945,0.001714222216410423,0.34721559852209644
2024-08-21T18:29:09+03:00,26.6,290.15,-74.99931594593207,14.79384,219.62045245159584,202.90154398967843,0.0,6.68736,6.10416,-0.6990085100596044,22.700587843083216,11.60239535139917,24.792315,59.482941,14.57276123950644,101.31116838635671,118.30928406523913,-1.3116406472105224,0.0007555841237911921,0.3479711826458876
2024-08-21T18:29:10+03:00,26.6,290.15,-74.99931594593207,15.396479999999999,215.86184931553765,202.50047353308685,0.0,6.29856,6.10416,0.0,23.101658299674792,10.89765726338826,24.792298,59.482952,15.050678587174849,98.84214375128278,117.01970556425488,-0.968168559604924,0.0008404775283196367,0.3488116601742072
2024-08-21T18:29:11+03:00,26.6,290.15,-74.99931594593207,16.50456,209.73120090763783,203.30261444626998,0.09998113525032865,6.648479999999999,6.10416,0.0,22.500052614787425,10.702851613043778,24.792268,59.482938,16.11830344345728,98.47900432460887,111.25219658302896,-0.980298314987811,0.0012436198198728747,0.3500552799940801
2024-08-21T18:29:12+03:00,26.6,290.15,-74.00236938240442,16.60176,209.8973586682258,202.50047353308685,0.09998113525032865,6.76512,6.10416,-0.49847328176381617,22.797990668255455,12.198271458335228,24.792256,59.482899,16.108350387170542,97.8127836193592,112.0845750488666,-0.9196275534288723,0.0023726421932271564,0.35242792218730723
2024-08-21T18:29:13+03:00,26.6,290.15,-72.00274667739787,16.50456,209.62233892656297,202.5978763582591,0.2000195662801704,6.648479999999999,6.10416,-0.20053522829578813,22.500052614787425,14.10049133816956,24.792229,59.482866,15.773261450442925,95.63592459706682,113.98641432949616,-0.6529265480554882,0.002147938469741982,0.3545758606570492
2024-08-21T18:29:14+03:00,26.6,290.15,-72.00274667739787,16.31016,210.85992776404558,202.7984115865549,0.2000195662801704,6.88176,6.10416,-0.09740282517223994,22.700587843083216,13.097815196690618,24.792189,59.482832,15.621153250683404,96.773333108413,114.08659465563258,-0.8116471923168459,0.0023805776759913007,0.3569564383330405
2024-08-21T18:29:15+03:00,26.6,290.15,-71.99701709944655,15.901919999999999,210.2583220791582,202.70100876138264,1.1000216708716675,6.901199999999999,6.201359999999999,-0.40107045659157625,24.499675319793997,11.000789666511807,24.792156,59.482802,15.253270588994573,97.48294280308122,112.77537927607699,-0.8987503779834972,0.0020654736606416984,0.3590219119936822
2024-08-21T18:29:16+03:00,26.6,290.15,-71.99701709944655,15.901919999999999,207.06121758232823,203.80108772803382,0.0,6.492959999999999,6.201359999999999,-0.20053522829578813,24.001202038030186,9.098569786677473,24.792134,59.482768,15.205493335515607,95.95757510902769,111.10364247330054,-0.6739175441200708,0.0021511537133220445,0.36117306570700425
2024-08-21T18:29:17+03:00,26.6,290.15,-74.00236938240442,16.50456,205.6918484519655,204.2021581846254,0.0,6.6679200000000005,6.201359999999999,-0.49847328176381617,21.801044104727822,9.602772646392598,24.792112,59.482734,16.006312093471973,97.6085435108046,108.08330494116092,-0.88286055530411,0.0021511539250993173,0.36332421963210354
2024-08-21T18:29:18+03:00,26.6,290.15,-74.00236938240442,16.50456,208.40193882293434,202.3973411299633,0.600001403060998,6.6095999999999995,6.201359999999999,-0.29793805346802804,23.399596353142822,11.60239535139917,24.792099,59.482719,15.99869471477087,97.40152175001799,111.00041707291635,-0.8514614607179077,0.0009850665520143495,0.3643092861841179
2024-08-21T18:29:19+03:00,26.6,290.15,-72.9996932409255,17.107200000000002,209.9718431815928,203.19948204314647,0.9000021045914972,6.492959999999999,6.201359999999999,-0.09740282517223994,23.502728756266368,10.599719209920229,24.79207,59.482698,16.427492548049194,95.20821325940999,114.7636299221828,-0.5894006368035556,0.001541689199066099,0.365850975383184
