time,dpt,mtw,awa,aws,cog,hdg,rot,sog,stw,pitch,yaw,roll,lng,lat,tws,twa,twd,vmg,dist,cum_dist
2025-09-03T17:38:25+03:00,,286.15,20.99890319154467,10.5948,181.9943140453547,179.30141240823983,-0.600001403060998,3.12984,2.97432,0.0,-1.0026761414789407,-1.3006141949469687,24.810533,59.488265,7.754361533243141,29.315243215332288,211.309557260687,2.729029697978102,0.001390872756770019,0.001390872756770019
2025-09-03T17:38:27+03:00,,286.15,20.99890319154467,10.4976,187.99891173832572,175.89804310516274,-1.5000035076524951,3.1687199999999995,2.83824,0.29793805346802804,-4.801386323196299,-1.701684651538545,24.810527,59.488243,7.624354470264235,29.563947982834947,217.56285972116066,2.756170269711059,0.0013349866743248605,0.0027258594310948796
2025-09-03T17:38:29+03:00,,286.15,22.001579333023614,10.4976,180.99736748182707,174.59742891021577,-1.4000223724021665,3.05208,2.17728,0.20053522829578813,-6.302535746439056,-1.1974817918234204,24.810528,59.488222,7.752574909882364,30.48292632906373,211.4802938108908,2.6302226147003647,0.0012626309012594898,0.00398849033235437
2025-09-03T17:38:31+03:00,,286.15,24.001202038030186,9.992159999999998,172.99887666180075,171.49772723855799,-1.200002806121996,2.95488,2.00232,0.09740282517223994,-9.20170218980102,-2.1027551081301215,24.810533,59.4882,7.3911476787273,33.35993947803257,206.35881613983332,2.46801195350531,0.0013311442170138863,0.005319634549368256
2025-09-03T17:38:33+03:00,,286.15,26.00082474303676,9.992159999999998,170.9992539567942,170.09971021843882,-1.1000216708716675,2.83824,2.15784,-0.29793805346802804,-10.101245928156414,-2.6012283898939375,24.810576,59.488176,7.5444920952237595,35.49342425877131,206.49267821556552,2.3108443718285874,0.0019501475357192421,0.0072697820850874985
2025-09-03T17:38:35+03:00,,286.15,30.0000701530499,10.206,169.99657781531528,167.49848182854487,-1.7000230739326654,2.7215999999999996,2.2744799999999996,0.09740282517223994,-13.00041237151838,-3.3976397251257815,24.810542,59.488164,7.966116255652772,39.835794766655994,209.83237258197127,2.0898716622292257,0.0012636763878838466,0.008533458472971345
2025-09-03T17:38:37+03:00,,286.15,35.00199170454199,9.992159999999998,166.99427896882975,164.89725343865092,-1.5000035076524951,2.8771199999999997,2.3327999999999998,0.29793805346802804,-16.100114043176134,-4.102377813136695,24.810599,59.48813,7.811735236923911,47.19836579655308,214.19264476538282,1.9548943757743238,0.0026837369766489843,0.01121719544962033
2025-09-03T17:38:39+03:00,,286.15,37.998560973076195,9.79776,163.9977097002955,162.89763073364438,-1.8000042091829944,2.60496,1.98288,0.40107045659157625,-17.801798694714677,-4.400315866604722,24.810562,59.488122,7.909278685623401,49.6972347479969,213.6949444482924,1.6849573866698675,0.0012272812079181022,0.012444476657538433
2025-09-03T17:38:41+03:00,,286.15,41.00085981956171,10.4004,164.99465626382317,160.39953474687397,-1.4000223724021665,3.38256,2.2356,-0.09740282517223994,-19.698288996597704,-5.397262430132355,24.810626,59.488081,8.155329156338484,56.79109294741495,221.7857492112381,1.852605442337666,0.003144532148883869,0.015589008806422302
2025-09-03T17:38:43+03:00,,286.15,43.000482524568284,9.992159999999998,173.9958232253284,156.89876261862463,-1.5999846429028237,3.42144,2.44944,0.29793805346802804,-23.399596353142822,-5.998868115019719,24.810628,59.488055,7.8449656133032795,60.30462772701283,234.30045095234124,1.6949420576804382,0.001563992049377417,0.017153000855799717
2025-09-03T17:38:45+03:00,,286.15,45.00010522957485,9.992159999999998,162.99503355881663,156.49769216203305,-0.3999818367808277,2.89656,2.6632800000000003,0.40107045659157625,-23.697534406610853,-5.901465289847479,24.81065,59.488034,8.203777637804535,59.45768536256779,222.45271892138442,1.471958112940849,0.001429710286579013,0.01858271114237873
2025-09-03T17:38:47+03:00,,286.15,45.00010522957485,10.692,155.99921888026924,158.1993768135716,0.600001403060998,2.99376,2.8771199999999997,0.6016056848873644,-21.600508876432034,-6.302535746439056,24.810666,59.488013,8.83252995827585,58.8672993753904,214.86651825565963,1.547839618304391,0.001353413266011386,0.019936124408390113
2025-09-03T17:38:49+03:00,,286.15,43.99742908809592,10.4976,159.99846429028239,160.19899951857818,0.9000021045914972,3.3047999999999997,2.99376,0.29793805346802804,-19.400350943129673,-6.302535746439056,24.810668,59.488,8.438471391624018,59.783113743557465,219.78157803383985,1.6632220452039022,0.0007837804529547726,0.020719904861344885
2025-09-03T17:38:51+03:00,,286.15,46.00278137105379,10.808639999999999,165.99733240530213,160.5026671499975,-0.09998113525032865,3.57696,3.12984,0.20053522829578813,-19.497753768301912,-6.600473799907084,24.810684,59.487972,8.712644634288164,63.18055523755794,229.17788764286007,1.6138543728696018,0.0017524170695051844,0.02247232193085007
2025-09-03T17:38:53+03:00,,286.15,46.99972793458143,10.808639999999999,156.92168093042986,158.49731486703965,-1.4000223724021665,3.38256,3.3242399999999996,0.29793805346802804,-22.098982158195852,-6.199403343315507,24.810702,59.487934,8.854334846632565,63.22369247849082,220.14537340892068,1.5238717186063584,0.0023492202871228662,0.024821542217972937
2025-09-03T17:38:55+03:00,,286.15,46.99972793458143,10.808639999999999,155.99921888026924,161.2016756600571,2.7999874490248207,3.38256,3.44088,0.49847328176381617,-16.701719728063498,-6.497341396783535,24.810723,59.487909,8.854334846632565,63.22369247849082,219.22291135876006,1.5238717186063584,0.0016336485583301574,0.026455190776303095
2025-09-03T17:38:57+03:00,,286.15,41.99780638308934,11.10024,154.9965427387903,172.99887666180075,5.299974196519141,3.12984,3.4992,0.49847328176381617,-4.698253920072751,-8.19902604832208,24.810731,59.487884,9.02068779689808,55.421686724539555,210.41822946332985,1.7762848035774959,0.0015223967717115723,0.027977587548014667
2025-09-03T17:38:59+03:00,,286.15,37.998560973076195,11.508479999999999,188.61197657911572,185.19714812013598,5.1000119260184835,3.57696,3.51864,0.6990085100596044,7.0015442564986605,-5.397262430132355,24.81072,59.487855,8.96442798539906,52.218902851898974,240.8308794310147,2.191411433467223,0.0017751544086888702,0.029752741956703535
2025-09-03T17:39:01+03:00,,286.15,31.999692858056477,11.702879999999999,199.8705972534364,191.00121058481125,3.9000091198964877,3.5575200000000002,3.51864,0.29793805346802804,11.401860123103383,-2.6012283898939375,24.810757,59.487816,8.888146601760601,44.245180570372696,244.11577782380908,2.5484672879179224,0.0026019783136191884,0.032354720270322726
2025-09-03T17:39:03+03:00,,286.15,22.998525896551243,12.30552,206.41950485178168,196.10053496147555,4.299990956677315,2.89656,3.46032,0.09740282517223994,17.60126346641889,-2.6986312150661775,24.810744,59.487784,9.70540109047075,29.69478862286988,236.11429347465156,2.516173821906427,0.001963936336503422,0.03431865660682615
2025-09-03T17:39:05+03:00,,286.15,16.99965778153153,11.99448,199.99664796836515,203.80108772803382,4.899992359738313,3.07152,3.34368,-0.49847328176381617,25.198683829853607,-1.3980170201192088,24.810729,59.487761,9.101574830078736,22.661965256680872,222.65861322504603,2.8343804196372724,0.001456295874914368,0.035774952481740514
2025-09-03T17:39:07+03:00,,286.15,9.001166961505232,12.091679999999998,204.99856951985726,215.99935918636905,7.800018239792975,2.64384,3.2076,-0.49847328176381617,38.6975694831358,-1.902219879834333,24.810626,59.487753,9.489418009151208,11.499464361760431,216.4980338816177,2.590769058596604,0.0031799256182098745,0.03895487809995039
2025-09-03T17:39:09+03:00,,286.15,0.0,12.20832,225.9974727114019,223.60250912775507,1.899985344433323,1.57464,3.14928,-0.40107045659157625,43.80262343775143,-0.29793805346802804,24.810693,59.487736,10.63368,0.0,225.9974727114019,1.57464,0.0022858204378632123,0.0412406985378136
2025-09-03T17:39:11+03:00,,286.15,-5.001062114799391,12.69432,223.99785000639537,226.10060511452548,2.000023775463165,2.46888,2.95488,-0.20053522829578813,46.99972793458143,0.8995437383553924,24.810663,59.487724,10.237101471007888,6.205725255617182,217.79212475077819,2.454412776048247,0.001165538470337036,0.04240623700815063
2025-09-03T17:39:13+03:00,,286.15,-12.999552934825683,12.091679999999998,257.0517852074925,235.10177207603067,5.79999446432981,2.39112,2.7799199999999997,-0.09740282517223994,57.398911916205876,-0.20053522829578813,24.810623,59.48771,9.776646762303233,16.15329926813544,240.89848593935707,2.2967204167743644,0.0014826666236520591,0.04388890363180269
2025-09-03T17:39:15+03:00,,286.15,-22.99766645985855,11.89728,279.6320519135982,249.7981395211363,7.299997971982305,2.2356,2.64384,-0.09740282517223994,73.09795550279043,0.49847328176381617,24.810583,59.487693,9.878054852074335,28.070483315985598,251.56156859761262,1.9726250239249756,0.0015919500244117757,0.045480853656214466
2025-09-03T17:39:17+03:00,,286.15,-35.00113226784929,12.091679999999998,236.99826237791373,266.20192119573176,8.100018941323475,2.97432,2.50776,0.0,89.70227240568168,2.4006931615981495,24.810464,59.487713,9.80486055875246,45.02161532652451,191.97664705138922,2.102368255845237,0.0038254507730544887,0.049306304429268956
2025-09-03T17:39:19+03:00,,286.15,-52.00079004938082,11.197439999999999,273.99987678746226,283.4021142055591,6.199976301110638,3.1104000000000003,2.48832,0.0,106.70193018721321,3.701307356545118,24.810423,59.487723,9.600669498447314,66.79217782338758,207.20769896407467,1.2257072060958685,0.0013881274430908894,0.05069443187235984
2025-09-03T17:39:21+03:00,,286.15,-63.001579715892625,11.29464,289.9968584275149,293.4976305557642,-0.2000195662801704,3.44088,2.56608,-0.49847328176381617,114.40248295377148,6.600473799907084,24.810378,59.487733,10.20407452912934,80.486656789534,209.5102016379809,0.568699323296893,0.00149909373982049,0.05219352561218033
2025-09-03T17:39:23+03:00,,286.15,-67.9977716894334,11.80008,296.9984026840135,296.2019913487817,0.300000701530499,4.0824,2.7215999999999996,0.09740282517223994,116.20157043048223,7.402614713090236,24.810378,59.487715,10.94590432834594,88.22831061782811,208.77009206618538,0.12621509371054168,0.001081938895088756,0.05327546450726909
2025-09-03T17:39:25+03:00,,286.15,-74.99931594593207,11.702879999999999,301.99459465755433,302.8024651486888,-2.400005612243992,3.92688,2.93544,-0.49847328176381617,123.99952602221278,8.697499330085895,24.81033,59.48773,11.339675989212061,94.54113599417458,207.45345866337976,-0.3109100201372909,0.0017201009304816616,0.05499556543775075
2025-09-03T17:39:29+03:00,,286.15,-57.00271160087291,12.69432,302.99727079903323,246.297367392887,-13.099992436312116,4.45176,3.14928,-0.40107045659157625,58.49899088285704,7.500017538262475,24.810222,59.487773,10.927536744671432,76.98171723312339,226.01555356590984,1.0028121785700137,0.0006708547487657129,0.05566642018651646
2025-09-03T17:39:31+03:00,,286.15,-31.99883342136378,13.19976,216.25719019417792,211.5990433197643,-12.299971466970948,2.7799199999999997,3.09096,-0.09740282517223994,25.59975428644518,2.4006931615981495,24.810164,59.487781,10.94183733468893,39.73598245739339,176.52120773678453,2.137753613101826,0.001834199510160237,0.0575006196966767
2025-09-03T17:39:33+03:00,,286.15,-9.997254088340169,12.091679999999998,194.34728410837522,189.2995259332727,-9.799984719476626,2.5855200000000003,3.07152,0.0,5.998868115019719,0.20053522829578813,24.810126,59.487779,9.555965499087861,12.689458031025708,181.6578260773495,2.5223686155440768,0.0011658988984041701,0.05866651859508087
2025-09-03T17:39:35+03:00,,286.15,9.998113525032863,11.80008,209.99476149339802,179.8972885151759,-4.400029387707157,2.8188,2.97432,0.29793805346802804,-1.598552248414997,0.20053522829578813,24.810108,59.487754,9.037348126397873,13.102297796027244,223.09705928942526,2.745417832458311,0.0015999510678278018,0.06026646966290867
2025-09-03T17:39:37+03:00,,286.15,18.002333923010465,11.508479999999999,194.99472641687308,177.10125447493746,-1.5000035076524951,3.0326400000000002,2.8576799999999998,0.29793805346802804,-3.2028340747813018,-3.2028340747813018,24.810095,59.487724,8.675085185461962,24.204666948275417,219.1993933651485,2.7660306809553687,0.0018463591854497217,0.06211282884835839
2025-09-03T17:39:39+03:00,,286.15,22.998525896551243,11.197439999999999,180.99736748182707,178.99774477682047,-0.9000021045914972,3.18816,2.76048,0.09740282517223994,-1.1000789666511805,-3.002298846485514,24.810103,59.487693,8.356056455179319,31.57156501630473,212.5689324981318,2.7162704757528986,0.001879265712449289,0.06399209456080768
2025-09-03T17:39:41+03:00,,286.15,24.001202038030186,11.29464,183.82204941182204,178.4992714950567,-0.6999825383113268,2.2550399999999997,2.7215999999999996,0.20053522829578813,-1.3980170201192088,-3.798710181717358,24.810078,59.487635,9.280020144836042,29.673661792654883,213.49571120447692,1.9593122036309827,0.00356875599458319,0.06756085055539086
2025-09-03T17:39:43+03:00,,286.15,26.00082474303676,11.10024,174.99849936680735,177.89766581016931,-1.1000216708716675,3.402,2.6632800000000003,0.09740282517223994,-2.8017636181897254,-3.9018425848409057,24.810083,59.487612,8.179673580181866,36.506207228944874,211.50470659575222,2.734501795258689,0.0013908730804976354,0.0689517236358885
2025-09-03T17:39:45+03:00,,286.15,24.99814860155782,11.89728,178.64251094383937,176.09857833345853,-0.9999832398418258,2.46888,2.6632800000000003,0.0,-4.297183463481174,-4.497718691776963,24.810137,59.487609,9.715861205721357,31.1626461107536,209.80515705459297,2.112625072854304,0.001657817380884787,0.07060954101677329
2025-09-03T17:39:47+03:00,,286.15,26.997771306564392,11.60568,169.99657781531528,174.79796413851156,-1.1000216708716675,3.53808,2.64384,0.29793805346802804,-5.2998596049601145,-4.801386323196299,24.810094,59.487567,8.604397798333002,37.75593924092115,207.75251705623643,2.797298418337213,0.002845225201554425,0.07345476621832771
2025-09-03T17:39:49+03:00,,286.15,28.000447448043335,11.702879999999999,168.44959176846206,171.29719201026222,-2.000023775463165,2.56608,2.64384,-0.09740282517223994,-9.797578296737077,-4.497718691776963,24.810167,59.487552,9.513759784059667,35.27529412836958,203.72488589683164,2.0949135464822315,0.0024033594342012235,0.07585812565252893
2025-09-03T17:39:51+03:00,,286.15,28.000447448043335,11.80008,159.47134311876204,167.20054377507685,-2.6000251785241626,2.8576799999999998,2.7021599999999997,0.29793805346802804,-13.99735893504601,-5.500394833255903,24.810098,59.487529,9.373418744662708,36.22946500116112,195.70080811992315,2.3051660892570536,0.0025190198949033003,0.07837714554743223
2025-09-03T17:39:53+03:00,,286.15,33.00236899953541,11.10024,154.17148351380192,159.40258818334632,-5.199993061268812,2.7021599999999997,2.83824,0.40107045659157625,-22.901123071379004,-6.302535746439056,24.810207,59.487496,8.95584335001643,42.46121441343979,196.6326979272417,1.9934766546525726,0.0038729867298356833,0.08225013227726792
2025-09-03T17:39:55+03:00,,286.15,41.00085981956171,11.00304,160.99541085381,147.59965760365137,-6.9000161352014775,3.3047999999999997,2.95488,0.0,-35.09939452971423,-7.299482309966689,24.810225,59.487476,8.780804685079705,55.29635646060446,216.29176731441447,1.8815277454142794,0.0013217176249526155,0.08357184990222054
2025-09-03T17:39:57+03:00,,286.15,52.99859604960115,10.4976,147.99499848229166,132.19855207053484,-8.500000778104303,3.36312,3.1104000000000003,0.49847328176381617,-51.40004380118616,-7.901087994854052,24.810191,59.487458,8.889039107507969,70.58561090953013,218.58060939182178,1.1178943601456146,0.0014990835883961998,0.08507093349061674
2025-09-03T17:39:59+03:00,,286.15,69.00130726760504,10.4004,138.99956109873773,113.30240398712029,-10.800025255097966,2.916,3.3047999999999997,0.40107045659157625,-71.09833279778384,-6.302535746439056,24.810273,59.487447,9.743501043808841,85.22576768462555,224.2253287833633,0.24269775043033323,0.002588374024684471,0.08765930751530121
2025-09-03T17:40:01+03:00,,286.15,86.9979116126642,9.79776,128.99571799575352,90.2007456874455,-12.10000919647029,3.34368,3.5575200000000002,0.09740282517223994,-94.49792915092668,-2.8017636181897254,24.810304,59.487439,10.185519136909662,106.13486590739896,235.13058390315248,-0.9292061974808699,0.0010612599188825858,0.0887205674341838
2025-09-03T17:40:03+03:00,,286.15,103.99756939419571,9.50616,100.9952705477102,68.60023681101347,-10.500024553567467,3.6352800000000003,3.57696,0.20053522829578813,-115.1014914638311,1.1000789666511805,24.810348,59.487433,10.96813344699717,122.7571851252959,223.75245567300612,-1.9669770728286962,0.0013903937833670875,0.09011096121755088
2025-09-03T17:40:05+03:00,,286.15,131.00107027871144,8.00928,75.99712194615239,52.29958753954155,-10.699986824068125,3.7908,3.73248,0.29793805346802804,-131.00107027871144,2.1027551081301215,24.810392,59.487437,10.87922618577266,146.24741591641668,222.24453786256908,-3.151840018386882,0.0013641613643866838,0.09147512258193757
2025-09-03T17:40:09+03:00,,286.15,-177.99993877660017,4.80168,36.99588483159726,17.89920151988692,-6.60001543367098,4.276800000000001,3.57696,-0.09740282517223994,-164.59931538518288,7.500017538262475,24.810461,59.487545,9.077101841405561,178.94214592043934,218.05373891115792,-4.276071074951587,0.0019244151128548698,0.09339953769479244
2025-09-03T17:40:11+03:00,,286.15,-146.0002459185437,4.80168,1.1917522138721122,10.198648753328653,-2.6000251785241626,3.51864,3.53808,-0.40107045659157625,-171.10238635991774,5.202456779787875,24.810526,59.487505,7.965604466403099,160.30091070265954,200.89084151121259,-3.3127147704216857,0.003117003471347719,0.09651654116614015
2025-09-03T17:40:15+03:00,,286.15,-134.00250968850426,7.892639999999999,357.99548955364094,354.09937654675133,-6.0000140306099805,4.89888,3.5575200000000002,0.0,171.6982624668538,5.2998596049601145,24.810447,59.487642,11.832721303683227,151.32815485715759,206.66733469648335,-4.298189314396194,0.0021897628659814003,0.09870630403212155
2025-09-03T17:40:17+03:00,,286.15,-119.0024746119793,8.30088,355.9958668486344,345.60241244496126,-5.700013329079481,4.276800000000001,3.57696,-0.20053522829578813,163.69977164682751,5.500394833255903,24.810419,59.487671,11.028189296043772,138.829081625651,217.1667852229834,-3.21935753498752,0.0019413046505091182,0.10064760868263067
2025-09-03T17:40:19+03:00,,286.15,-108.00168494546749,9.097919999999998,315.5679648242035,334.60162277844944,-5.700013329079481,3.8491199999999997,3.6352800000000003,-0.09740282517223994,151.70203541678808,5.202456779787875,24.810379,59.487695,10.919375231433737,127.58928746662797,187.97867735757552,-2.3479517282838125,0.0018897670741207034,0.10253737575675138
2025-09-03T17:40:21+03:00,,286.15,-93.99859643247017,9.097919999999998,325.9957966955845,321.6986132321033,-4.6999727934581434,4.00464,3.7713599999999996,-0.29793805346802804,139.49803438050154,6.399938571611295,24.810326,59.48772,10.192669383371332,117.07372114183747,208.92207555374702,-1.8226580773105472,0.002207772089873084,0.10474514784662446
2025-09-03T17:40:23+03:00,,286.15,-84.0004829074373,9.60336,319.99692858056477,312.39950821713006,-2.199986045963822,4.16016,3.888,0.20053522829578813,130.80053505041565,5.202456779787875,24.810268,59.487742,10.058826150148322,108.28812445433591,211.70880412622887,-1.3054401707956977,0.002209463772083287,0.10695461161870774
2025-09-03T17:40:25+03:00,,286.15,-74.99931594593207,10.1088,308.99613891405295,305.5984991889272,-0.6999825383113268,4.0629599999999995,3.96576,-0.20053522829578813,124.8016669353959,4.497718691776963,24.810362,59.487747,9.870880589847106,98.42655314340925,210.5695857706437,-0.5953921756844187,0.0028843966061141754,0.10983900822482191
2025-09-03T17:40:27+03:00,,286.15,-72.9996932409255,10.90584,302.527445407026,301.8971918323821,0.9000021045914972,4.1212800000000005,4.04352,0.09740282517223994,121.19776240402304,2.8017636181897254,24.810284,59.487767,10.470909490545411,95.11022372582875,207.41722168119725,-0.36709076221771164,0.0026667418921244666,0.11250575011694638
2025-09-03T17:40:31+03:00,,286.15,-80.99818406095179,11.10024,305.99956964551876,307.0996486121699,3.30000771683549,4.91832,3.96576,0.29793805346802804,128.60037711711328,2.2975607584746007,24.810129,59.487818,11.415815726652351,106.18223776958101,199.81733187593775,-1.3707032865210944,0.0015976546695573527,0.11410340478650374
2025-09-03T17:40:35+03:00,,286.15,-82.99780676595836,10.692,315.9976831705516,313.99806046554505,-0.2000195662801704,4.510079999999999,4.276800000000001,0.40107045659157625,134.30130717866496,2.4006931615981495,24.810026,59.48786,11.086140408338709,106.81295541458678,209.18472775596484,-1.3045327631807784,0.0017167946143079467,0.11582019940081169
2025-09-03T17:40:37+03:00,,286.15,-78.99856135594521,10.206,309.9988150555319,313.00111390201744,-1.1000216708716675,3.9851999999999994,4.29624,-0.40107045659157625,132.80015775542222,2.899166443361966,24.809968,59.487884,10.223537554897362,101.49603253064207,208.50278252488982,-0.7942506734675845,0.002283439128145728,0.11810363852895742
2025-09-03T17:40:41+03:00,,286.15,-86.00010561244387,10.90584,308.99613891405295,311.9010349353662,1.1000216708716675,4.0824,4.33512,0.20053522829578813,132.19855207053484,2.498095986770389,24.809738,59.487977,11.375065009991506,106.97851122937192,202.01762768468103,-1.1921139620789434,0.0024198722878747583,0.12052351081683217
2025-09-03T17:40:43+03:00,,286.15,-93.99859643247017,10.90584,306.99651620904643,313.09851672718963,-0.09998113525032865,4.58784,4.33512,-0.29793805346802804,133.2012282120138,3.9992454100131463,24.809684,59.488003,12.122854537046862,116.1790121793232,190.81750402972324,-2.0240501829180695,0.002271150981984668,0.12279466179881685
2025-09-03T17:40:45+03:00,,286.15,-95.00127257394911,11.10024,310.9957616190596,313.402184358609,-0.600001403060998,4.276800000000001,4.45176,-0.6016056848873644,133.2012282120138,4.898789148368539,24.809755,59.487977,12.238612034429813,115.37369937392369,195.6220622451359,-1.8326961662601722,0.0026715575191782765,0.12546621931799512
2025-09-03T17:40:47+03:00,,286.15,-95.99821913747672,10.90584,311.9984377605385,312.6000434454258,-0.600001403060998,4.82112,4.510079999999999,-0.49847328176381617,132.30168447365838,5.397262430132355,24.809698,59.488004,12.376153062628761,118.79205661423771,193.20638114630077,-2.3220065349695678,0.002379022460092277,0.1278452417780874
2025-09-03T17:40:49+03:00,,286.15,-95.99821913747672,11.197439999999999,312.9953843240661,312.19897298883427,0.09998113525032865,4.6655999999999995,4.64616,-0.29793805346802804,132.19855207053484,5.798332886723932,24.809642,59.488034,12.57254828130265,117.65603200187392,195.33935232219216,-2.1655964198231814,0.00248441423600311,0.13032965601409052
2025-09-03T17:40:51+03:00,,286.15,-91.00202716393596,11.29464,309.9988150555319,313.4995871837812,0.9999832398418258,4.97664,4.89888,-0.29793805346802804,133.80283389690115,5.700930061551691,24.809572,59.488067,12.421827255220057,114.61618430017693,195.38263075535497,-2.072957716300794,0.002915137700828517,0.13324479371491904
2025-09-03T17:40:53+03:00,,286.15,-78.99856135594521,11.10024,306.99651620904643,313.402184358609,1.2999839413723246,5.1710400000000005,5.01552,0.09740282517223994,132.70275493024997,2.899166443361966,24.809497,59.488095,11.315801454364145,105.65098588190712,201.34553032713933,-1.395026649500532,0.002841001560099988,0.13608579527501902
2025-09-03T17:40:55+03:00,,286.15,-69.99739439443997,9.992159999999998,309.9988150555319,313.79752523724926,0.9999832398418258,4.87944,5.151599999999999,-0.49847328176381617,133.9002367220734,2.498095986770389,24.809424,59.488125,9.50246608031963,98.84729055839237,211.15152449713952,-0.7504649180050221,0.0028661311202645727,0.1389519263952836
2025-09-03T17:40:57+03:00,,286.15,-72.00274667739787,9.195120000000001,317.9973058755582,314.3017280969644,-0.6999825383113268,5.1127199999999995,5.20992,-0.20053522829578813,134.1007719503692,3.9992454100131463,24.809356,59.48816,9.035450451066332,104.56154283680964,213.43576303874858,-1.2854388922543052,0.002955049162260333,0.14190697555754392
2025-09-03T17:40:59+03:00,,286.15,-84.0004829074373,8.30088,312.65733922493894,312.30210539195787,-0.2000195662801704,5.26824,5.20992,-0.6016056848873644,132.10114924536262,4.400315866604722,24.809282,59.488194,9.355074573411631,118.06029416533197,194.59704505960696,-2.4781825004941433,0.0030457355530930565,0.14495271111063698
2025-09-03T17:41:01+03:00,,286.15,-84.0004829074373,9.79776,305.99956964551876,312.8979814988939,0.300000701530499,4.723920000000001,5.19048,-0.40107045659157625,132.5996225271264,3.002298846485514,24.809207,59.488227,10.42287584732773,110.79189441638688,195.2076752291319,-1.6768721315321928,0.003028728387025668,0.14798143949766265
2025-09-03T17:41:03+03:00,,286.15,-87.99972831745043,10.206,309.9988150555319,313.2990519554854,-0.09998113525032865,4.35456,5.22936,-0.8021409131831525,133.40176344030957,7.098947081670899,24.809145,59.488258,10.955462385795459,111.40524362445792,198.593571431074,-1.5892488903676145,0.0026555680958976376,0.1506370075935603
2025-09-03T17:41:05+03:00,,286.15,-93.99859643247017,10.206,314.99500702907267,316.1982183988474,1.5000035076524951,4.62672,5.307119999999999,-0.6016056848873644,136.7020003402631,5.500394833255903,24.809094,59.488292,11.49584750808806,117.6698986782022,197.32510835087047,-2.148541543059762,0.002568837193037392,0.15320584478659768
2025-09-03T17:41:07+03:00,,286.15,-93.99859643247017,10.90584,313.99806046554505,315.6997451170836,0.9000021045914972,5.48208,5.38488,-0.20053522829578813,134.89718328560105,0.09740282517223994,24.809024,59.488332,12.54307148043137,119.84731626959189,194.15074419595317,-2.728378662706022,0.0032162351012954412,0.1564220798878931
2025-09-03T17:41:09+03:00,,286.15,-106.00206224046092,9.89496,317.9973058755582,314.89760420390047,0.8000209693411684,5.52096,5.404319999999999,-0.20053522829578813,135.0977185138968,1.7990874767107847,24.80896,59.488374,12.59011410226391,130.9328903120897,187.0644155634685,-3.6171927548951524,0.0031918489043995337,0.15961392879229264
2025-09-03T17:41:11+03:00,,286.15,-99.00051798396224,9.00072,318.9999820170371,317.4014297686221,-0.300000701530499,6.0264,5.38488,-0.6016056848873644,137.69894690379076,3.300236899953542,24.808894,59.488415,11.58887585476828,129.9053043272982,189.0946776897389,-3.8660600537006498,0.0031827909542106268,0.16279671974650325
2025-09-03T17:41:13+03:00,,286.15,-93.00164986894255,9.097919999999998,314.99500702907267,317.29829736549857,0.300000701530499,5.87088,5.346,-0.40107045659157625,136.9025355685589,2.4006931615981495,24.80881,59.488458,11.083017268001663,124.93901032296252,190.05599670611014,-3.3622773297483546,0.003640283943808562,0.1664370036903118
2025-09-03T17:41:15+03:00,,286.15,-91.00202716393596,9.097919999999998,316.9946297340793,317.09776213720284,-0.5000202678106694,5.20992,5.346,-0.09740282517223994,136.7020003402631,1.598552248414997,24.808731,59.488495,10.562823329571934,120.5502777273116,196.4443520067677,-2.648172416891893,0.003280003531842498,0.1697170072221543
2025-09-03T17:41:17+03:00,,286.15,-72.00274667739787,8.30088,316.9946297340793,314.8002013787282,-1.2999839413723246,5.754239999999999,5.307119999999999,-0.49847328176381617,134.3987100038372,3.002298846485514,24.808653,59.488532,8.514675021214392,111.99892637635145,204.99570335772785,-2.1554762705938915,0.003257636402154033,0.17297464362430834
2025-09-03T17:41:19+03:00,,286.15,-86.00010561244387,8.70912,314.99500702907267,313.00111390201744,-0.300000701530499,5.57928,5.22936,-0.20053522829578813,132.39908729883064,1.9996227050065731,24.80858,59.488566,10.009909825143454,119.78096519677376,195.2140418322989,-2.7711482830819802,0.003023159037906583,0.17599780266221493
2025-09-03T17:41:21+03:00,,286.15,-93.99859643247017,9.50616,312.9953843240661,311.49996447877464,0.300000701530499,5.94864,5.13216,-0.29793805346802804,131.2016055070072,1.3006141949469687,24.808506,59.488602,11.56027296896503,124.88405633417302,188.11132798989308,-3.4021320790674108,0.003127649816113888,0.1791254524783288
2025-09-03T17:41:23+03:00,,286.15,-99.99746454748988,9.89496,311.9984377605385,312.39950821713006,-0.2000195662801704,5.7153599999999996,4.996079999999999,-0.49847328176381617,133.29863103718603,3.9992454100131463,24.808417,59.488639,12.256075422096322,127.33603975150085,184.66239800903764,-3.466300930513554,0.003510407760065717,0.18263586023839454
2025-09-03T17:41:25+03:00,,286.15,-95.99821913747672,9.60336,312.9953843240661,313.6027195869048,0.300000701530499,4.89888,4.97664,0.20053522829578813,134.19817477554142,4.898789148368539,24.808345,59.488665,11.22746058507836,121.71616820879449,191.2792161152716,-2.57539862714577,0.002696332985620837,0.18533219322401537
2025-09-03T17:41:27+03:00,,286.15,-89.00240445892939,10.1088,309.9988150555319,312.6000434454258,-0.5000202678106694,5.307119999999999,4.996079999999999,-0.49847328176381617,132.19855207053484,3.002298846485514,24.808275,59.488693,11.33513420303106,116.915379030937,193.0834360245949,-2.402395581719752,0.0027195426028491956,0.18805173582686457
2025-09-03T17:41:29+03:00,,286.15,-84.0004829074373,9.29232,309.9988150555319,310.49728833729574,0.9000021045914972,4.87944,5.01552,-0.8995437383553924,130.69740264729208,2.4006931615981495,24.80821,59.488726,10.03384219761851,112.92354294725217,197.07527210827973,-1.900553757311539,0.002805213622981897,0.19085694944984646
2025-09-03T17:41:31+03:00,,286.15,-84.99742947096492,8.80632,310.9957616190596,312.8005786737216,2.6000251785241626,5.03496,5.01552,0.0,133.2012282120138,0.8021409131831525,24.808145,59.488757,9.75547292978512,115.93811602334283,195.05764559571674,-2.2022921211630444,0.0027215363310830044,0.19357848578092945
2025-09-03T17:41:32+03:00,,286.15,-87.00278175392282,8.59248,310.9957616190596,316.30135080197095,1.8000042091829944,4.64616,5.01552,-0.49847328176381617,137.4010088503227,1.1974817918234204,24.808083,59.488789,9.55210293751888,116.06351445745219,194.9322471616074,-2.041370417553655,0.002698063099345823,0.19627654888027526
2025-09-03T17:41:37+03:00,,286.15,-89.00240445892939,8.59248,322.9992274270503,326.4999995552996,3.399988852085818,5.151599999999999,5.03496,-0.29793805346802804,148.2012632885387,1.1974817918234204,24.807964,59.488849,9.941244767852497,120.2090474019844,202.7901800250659,-2.5920605893645825,0.00043810340174160387,0.19671465228201687
2025-09-03T17:41:41+03:00,,286.15,-95.00127257394911,8.39808,330.99771824707665,331.89726198543195,-3.600008418365989,5.48208,4.996079999999999,0.29793805346802804,150.8024916784327,2.8017636181897254,24.807819,59.488954,10.421521159267325,126.60435943970754,204.3933588073691,-3.268887318453933,0.0027481790559071707,0.19946283133792403
2025-09-03T17:41:43+03:00,,286.15,-91.99897372746359,7.795439999999999,331.99466481060426,329.702833630081,0.9999832398418258,5.346,4.91832,-0.8995437383553924,150.09775359042175,3.9018425848409057,24.807773,59.48899,9.604995653041277,125.79559799535127,206.199066815253,-3.1268505927081085,0.0025793338720769827,0.202042165210001
2025-09-03T17:41:45+03:00,,286.15,-95.00127257394911,8.30088,331.6279718217205,332.6994028986152,0.5000202678106694,4.89888,4.87944,0.8021409131831525,151.9999734702561,-0.09740282517223994,24.807773,59.489007,9.999690631076925,124.21297752822711,207.4149942934934,-2.754496675429391,0.0010218311792047385,0.20306399638920575
2025-09-03T17:41:49+03:00,,286.15,-95.00127257394911,7.892639999999999,334.99696365708974,331.89726198543195,1.5999846429028237,4.996079999999999,4.80168,0.0,151.7994382419603,2.4006931615981495,24.807643,59.489098,9.702052487129215,125.86449022043084,209.1324734366589,-2.927054442096513,0.0024286803245810408,0.2054926767137868
2025-09-03T17:41:51+03:00,,286.15,-93.00164986894255,8.30088,335.5126256727075,333.79948186526633,2.199986045963822,4.80168,4.74336,-0.49847328176381617,154.20013140355846,1.902219879834333,24.807607,59.489137,9.80484894121779,122.28001649557933,213.23260917712815,-2.564373256007241,0.0025888629184809093,0.2080815396322677
2025-09-03T17:41:53+03:00,,286.15,-95.99821913747672,7.60104,339.9988852085818,338.4003329601668,0.3999818367808277,4.45176,4.78224,0.09740282517223994,159.2994557802228,2.200157933302361,24.80765,59.48917,9.20141041894946,124.75967011452505,215.23921509405673,-2.5381060939179583,0.002378321657922987,0.21045986129019068
2025-09-03T17:41:57+03:00,,286.15,-89.00240445892939,7.40664,340.99583177210945,337.99926250357527,1.1000216708716675,4.704479999999999,4.68504,0.29793805346802804,159.40258818334632,3.5007721282493303,24.807512,59.489255,8.70500633842119,121.71000353262518,219.28582823948426,-2.4727696717887255,0.0024962439487143722,0.21295610523890504
2025-09-03T17:41:59+03:00,,286.15,-91.99897372746359,8.00928,338.2628230893354,337.39765681868784,0.09998113525032865,4.89888,4.68504,0.0,157.0018950217482,3.701307356545118,24.807573,59.489283,9.533354863320861,122.89986888861284,215.36295420072258,-2.6609370370343224,0.002509539485249534,0.21546564472415458
2025-09-03T17:42:03+03:00,,286.15,-101.00014068896883,7.892639999999999,348.9943225921357,339.9014823834096,0.6999825383113268,4.52952,4.723920000000001,0.0,159.5973938336908,3.5007721282493303,24.80752,59.489365,9.821063271338522,127.9191654237671,221.0751571683686,-2.783612503546302,0.0028474809536198826,0.21831312567777447
2025-09-03T17:42:05+03:00,,286.15,-106.00206224046092,8.00928,354.99892028510675,340.60049089346916,1.200002806121996,4.21848,4.78224,-0.6016056848873644,161.49961371352515,4.400315866604722,24.807516,59.489402,10.028578631513545,129.852248660468,225.14667162463874,-2.70324433564655,0.002227332869745169,0.22054045854751964
2025-09-03T17:42:09+03:00,,286.15,-104.00243953545433,8.00928,346.9946998871292,346.19828855189735,0.600001403060998,4.49064,4.91832,-0.49847328176381617,166.30100003672143,2.8017636181897254,24.807471,59.489485,10.085618229297697,129.59834904598887,217.3963508411403,-2.8623419628665876,0.003661143086258669,0.2242016016337783
2025-09-03T17:42:11+03:00,,286.15,-108.99863150899512,7.60104,342.99545447711597,347.8025703782636,0.6999825383113268,4.97664,4.89888,-0.6016056848873644,168.10008751343221,2.498095986770389,24.807435,59.489524,10.35239083030451,136.03377691795862,206.96167755915735,-3.5819326050884532,0.0025888575750003967,0.22679045920877872
2025-09-03T17:42:13+03:00,,286.15,-97.99784184248331,7.892639999999999,347.39004076576947,348.19791125690386,-0.6999825383113268,5.1127199999999995,4.87944,-0.40107045659157625,167.89955228513642,2.6012283898939375,24.807401,59.489572,9.983122080434846,128.47235188527452,218.91768888049495,-3.1808118537452277,0.003066061854353389,0.22985652106313212
2025-09-03T17:42:15+03:00,,286.15,-93.99859643247017,7.3094399999999995,345.27009692378533,347.40149992167204,-0.8000209693411684,4.82112,4.859999999999999,-0.49847328176381617,167.20054377507685,5.001921551492087,24.807374,59.489615,9.032484791118419,126.1700203850008,219.10007653878455,-2.8453447545866815,0.002712784977638299,0.23256930604077042
2025-09-03T17:42:17+03:00,,286.15,-99.00051798396224,7.3094399999999995,344.9950771821226,346.8972970619569,-0.2000195662801704,4.7628,4.82112,-0.8021409131831525,166.79947331848524,3.5981749534215695,24.80734,59.489663,9.327637972020364,129.28703184632985,215.70804533579275,-3.0158321448709717,0.0030660609080117415,0.23563536694878215
2025-09-03T17:42:21+03:00,,286.15,-93.99859643247017,8.10648,337.99926250357527,341.00156135006074,-3.600008418365989,5.5598399999999994,4.80168,-1.0026761414789407,160.19899951857818,7.597420363434716,24.807275,59.489759,10.144584103980847,127.14127527204715,210.8579872315281,-3.356933550938477,0.0024177957957151144,0.23805316274449725
2025-09-03T17:42:23+03:00,,286.15,-97.00089527895568,8.49528,324.36859655741296,334.89956083191754,-1.7000230739326654,4.87944,4.80168,-0.29793805346802804,153.79906094696688,6.600473799907084,24.807229,59.489803,10.299684935027383,125.04910943808306,199.3194871193299,-2.8021566950910097,0.0029941858389289956,0.24104734858342625
2025-09-03T17:42:27+03:00,,286.15,-91.99897372746359,9.408959999999999,324.9988501320569,334.00001709356206,2.7000063137744914,5.42376,4.97664,0.0,154.20013140355846,1.7990874767107847,24.807123,59.489874,11.022969286290285,121.45413078802304,203.54471934403384,-2.8302036648193125,0.0019303914348876225,0.24297774001831388
2025-09-03T17:42:31+03:00,,286.15,-91.00202716393596,8.10648,344.73724617431367,339.9988852085818,2.3000244769936637,5.01552,5.09328,-0.6016056848873644,160.69747280034198,2.498095986770389,24.807015,59.489964,9.606898706352528,122.4681941548568,222.26905201945686,-2.692488346937065,0.0014593469932652878,0.24443708701157915
2025-09-03T17:42:32+03:00,,286.15,-104.00243953545433,8.70912,341.9985079135884,344.30179825001426,0.09998113525032865,5.3654399999999995,5.09328,-1.0026761414789407,164.7998506134787,3.9992454100131463,24.806986,59.490007,11.280503419678476,131.48670178449333,210.51180612909508,-3.554315336702561,0.002731937787471369,0.2471690247990505
2025-09-03T17:42:34+03:00,,286.15,-108.00168494546749,8.00928,343.998130618595,346.1008857267251,-1.2999839413723246,5.1127199999999995,5.07384,-1.1000789666511805,165.0003858417745,4.199780638308934,24.806966,59.490048,10.75168654814517,134.88975252919653,209.10837808939846,-3.6082759184860755,0.00253886553684822,0.24970789033589874
2025-09-03T17:42:38+03:00,,286.15,-101.00014068896883,8.203679999999999,337.99926250357527,341.9985079135884,-0.6999825383113268,4.78224,5.01552,-0.29793805346802804,161.40221088835293,4.199780638308934,24.806924,59.490138,10.253877235995008,128.24631695569397,209.7529455478813,-2.960414429038428,0.0014493232545886138,0.25115721359048737
2025-09-03T17:42:40+03:00,,286.15,-99.99746454748988,7.795439999999999,336.0282876883252,342.39957837018,-0.300000701530499,5.20992,5.0544,-0.49847328176381617,162.59969268017633,4.199780638308934,24.8069,59.490174,10.100176884634466,130.5276385765879,205.5006491117373,-3.3854830214777687,0.002284458105644471,0.25344167169613185
2025-09-03T17:42:42+03:00,,286.15,-95.00127257394911,8.00928,334.99696365708974,340.801026121765,-0.300000701530499,5.09328,5.0544,0.49847328176381617,160.80060520346555,5.202456779787875,24.806878,59.490214,9.859140380518646,125.97453664946227,209.02242700762747,-2.9919233222070125,0.0024962789829859173,0.2559379506791178
2025-09-03T17:42:44+03:00,,286.15,-89.00240445892939,8.203679999999999,331.99466481060426,340.60049089346916,-0.2000195662801704,5.0544,5.03496,-0.40107045659157625,160.89800802863775,4.497718691776963,24.806851,59.490254,9.560517123113904,120.91292407734615,211.08174073325813,-2.5966211262212,0.0025415654859375953,0.2584795161650554
2025-09-03T17:42:46+03:00,,286.15,-91.99897372746359,8.49528,333.9942875156107,341.4026318066523,-0.600001403060998,4.957199999999999,5.07384,-0.6990085100596044,161.9006841701167,5.597797658428142,24.806809,59.490302,9.984064182086636,121.74848383336047,212.24580368225025,-2.608436113976361,0.0031570342697770978,0.26163655043483247
2025-09-03T17:42:48+03:00,,286.15,-91.99897372746359,8.59248,336.99658636209637,339.50041192681795,0.9999832398418258,5.326560000000001,5.151599999999999,-0.40107045659157625,159.20205295505053,5.500394833255903,24.806775,59.490352,10.266250574977546,123.23240854156339,213.76417782053298,-2.919148978182714,0.0031794372751819764,0.26481598771001447
2025-09-03T17:42:50+03:00,,286.15,-93.99859643247017,9.29232,333.9942875156107,341.7005698601203,3.6999895536163168,5.26824,5.26824,-1.1974817918234204,162.19862222358475,2.2975607584746007,24.80674,59.490398,10.996768247443525,122.54729131954198,211.44699619606874,-2.834289684047571,0.002964068744413331,0.2677800564544278
2025-09-03T17:42:54+03:00,,286.15,-102.9997633939754,9.60336,344.9950771821226,347.8025703782636,2.7000063137744914,6.006959999999999,5.443199999999999,-0.8995437383553924,168.39802556690026,3.3976397251257815,24.806581,59.490533,12.42019042392101,131.1151933550247,213.8798838270979,-3.950027011239775,0.0032247284653159746,0.2710047849197438
2025-09-03T17:42:56+03:00,,286.15,-108.99863150899512,9.29232,345.9977533236015,353.199832808396,5.79999446432981,5.67648,5.50152,-0.6990085100596044,175.19903459510311,1.598552248414997,24.806574,59.490583,12.36580672569442,134.72288913284632,211.27486419075518,-3.9944175247362095,0.003012967398280704,0.2740177523180245
2025-09-03T17:42:58+03:00,,286.15,-117.99979847050034,9.00072,355.9958668486344,1.902219879834333,9.600022448975968,4.74336,5.5404,-0.49847328176381617,-176.20171073658207,-0.49847328176381617,24.806581,59.490636,11.98328308516582,138.45647668381568,217.53939016481874,-3.5501780466051587,0.003192862369198584,0.2772106146872231
2025-09-03T17:43:00+03:00,,286.15,-136.99907895703842,7.60104,5.998868115019719,19.600886171425465,12.60002946428096,5.09328,5.404319999999999,0.20053522829578813,-155.99921888026924,-4.497718691776963,24.806622,59.490677,11.8466891956051,154.0498207500607,211.94904736495903,-4.57974946343328,0.0027638161325989493,0.27997443081982204
2025-09-03T17:43:02+03:00,,286.15,-174.000693366587,4.89888,58.642230331639766,41.00085981956171,8.59998191335463,4.957199999999999,5.1710400000000005,-0.40107045659157625,-135.0977185138968,-7.2020794847944485,24.806675,59.490678,9.842576179021082,177.0181123450389,241.62411798660088,-4.950488096457155,0.0016184326811560243,0.28159286350097806
2025-09-03T17:43:04+03:00,,286.15,148.00072806024295,5.50152,54.99821875460771,54.499745472843905,8.899982614885129,3.8296799999999998,4.957199999999999,0.09740282517223994,-122.09730614237843,-7.797955591730505,24.806753,59.49072,8.981570535612494,161.05943712408094,216.05765587868865,-3.6223250499554864,0.0034696645080685806,0.28506252800904663
2025-09-03T17:43:06+03:00,,286.15,121.9999033172062,7.1928,64.99633227964058,78.00247422911028,12.000028061219961,4.33512,4.80168,0.8021409131831525,-95.90167574899719,-11.60239535139917,24.806805,59.490725,10.177281722841132,143.17598709898675,208.17231937862732,-3.4701779298273023,0.0016150087405887898,0.2866775367496354
2025-09-03T17:43:08+03:00,,286.15,95.00213201064179,8.30088,86.9979116126642,106.99986824068124,10.000004285756797,4.19904,4.704479999999999,0.49847328176381617,-67.59756066953453,-14.10049133816956,24.8069,59.490709,9.623662681364042,120.76596860747264,207.76388022013685,-2.147945793649699,0.0030543211869556402,0.28973185793659106
2025-09-03T17:43:10+03:00,,286.15,76.99979808763133,10.1088,137.29787644719917,131.70007878877104,8.100018941323475,4.58784,4.6655999999999995,0.29793805346802804,-43.602088209455644,-11.201324894807593,24.80697,59.490716,10.117827539775181,103.21980812751553,240.5176845747147,-1.0491813814166289,0.0021771203930797734,0.29190897832967083
2025-09-03T17:43:14+03:00,,286.15,50.998973344594575,13.10256,141.99613036727192,154.80173708844583,3.399988852085818,4.723920000000001,4.6655999999999995,0.6016056848873644,-23.898069634906637,-8.30215845144563,24.807069,59.490615,10.774351178033085,70.92020137971531,212.91633174698723,1.544177209828592,0.0026302393547664765,0.2945392176844373
2025-09-03T17:43:16+03:00,,286.15,41.99780638308934,13.19976,148.99767462377056,157.9014387601036,1.5000035076524951,4.64616,4.62672,0.09740282517223994,-21.89844692990006,-8.19902604832208,24.807107,59.490579,10.230633422937629,59.68784148708316,208.6855161108537,2.3449672710340455,0.0024549971885516747,0.296994214872989
2025-09-03T17:43:18+03:00,,286.15,35.99893826806962,13.802399999999999,157.9988415852758,163.29870119023593,4.500010522957486,4.68504,4.6655999999999995,0.40107045659157625,-14.10049133816956,-8.399561276617868,24.807182,59.490579,10.38386242936785,51.377356906214914,209.37619849149073,2.924347631696236,0.0022886615526471355,0.2992828764256361
2025-09-03T17:43:20+03:00,,286.15,28.997394011570965,14.30784,160.99541085381,167.49848182854487,1.899985344433323,4.58784,4.6655999999999995,0.0,-11.60239535139917,-8.19902604832208,24.807214,59.490538,10.53261372193293,41.18762115777568,202.18303201158568,3.452612034612945,0.0026508287126945124,0.3019337051383306
2025-09-03T17:43:22+03:00,,286.15,28.000447448043335,14.79384,169.99657781531528,167.89955228513642,0.3999818367808277,4.29624,4.62672,0.20053522829578813,-12.501939089754565,-6.89841185337511,24.807228,59.490501,11.183884798203348,38.390482477983795,208.38706029329907,3.367378419376068,0.0022646470796295086,0.30419835221796016
2025-09-03T17:43:24+03:00,,286.15,24.99814860155782,14.30784,164.99465626382317,166.79947331848524,0.2000195662801704,4.31568,4.60728,-0.6016056848873644,-12.702474318050351,-7.9984908200262925,24.807247,59.490463,10.555197754099245,34.947817073088544,199.94247333691172,3.537451107728253,0.002356532446007244,0.3065548846639674
2025-09-03T17:43:26+03:00,,286.15,22.001579333023614,13.5108,163.9977097002955,172.09933292344536,2.3000244769936637,4.64616,4.60728,0.20053522829578813,-6.302535746439056,-7.098947081670899,24.807273,59.490419,9.366160571290745,32.71164985126171,196.7093595515572,3.9092832911526125,0.002761184543523375,0.3093160692074908
2025-09-03T17:43:28+03:00,,286.15,24.001202038030186,12.79152,176.99812207181392,168.300622741728,-1.5000035076524951,3.73248,4.49064,-0.8021409131831525,-14.902632251352712,1.1974817918234204,24.807276,59.490373,9.503810178113108,33.19343037920336,210.1915524510173,3.123440385789612,0.002766470088310137,0.31208253929580093
2025-09-03T17:43:30+03:00,,286.15,24.001202038030186,14.696639999999999,164.99465626382317,152.89951720861148,-3.50002728311566,4.23792,4.374,0.0,-27.702509394575305,-7.402614713090236,24.80729,59.490335,10.961533444098702,33.04903005222425,198.04368631604743,3.552242316928354,0.0023237036170896458,0.3144062429128906
2025-09-03T17:43:32+03:00,,286.15,24.99814860155782,12.59712,164.34148437737403,160.80060520346555,0.600001403060998,4.21848,4.374,0.6990085100596044,-16.99965778153153,-10.198648753328653,24.807324,59.490283,8.953094227594162,36.48328026319135,200.82476464056538,3.391786179834515,0.003293305603406873,0.31769954851629745
2025-09-03T17:43:34+03:00,,286.15,35.99893826806962,13.8996,160.99541085381,160.5026671499975,-1.5000035076524951,4.89888,4.31568,0.20053522829578813,-21.89844692990006,-2.498095986770389,24.807297,59.490243,10.345070676256901,52.159915200369426,213.15532605417943,3.005265481247906,0.0025415652572714272,0.3202411137735689
2025-09-03T17:43:36+03:00,,286.15,31.999692858056477,12.79152,160.99541085381,157.20243025004396,1.2999839413723246,4.548959999999999,4.257359999999999,0.29793805346802804,-22.001579333023614,-7.500017538262475,24.807377,59.490196,9.253272600130435,47.099959810413196,208.0953706642232,3.096574341475011,0.0037337318884254544,0.32397484566199436
2025-09-03T17:43:38+03:00,,286.15,30.0000701530499,12.402719999999999,156.99616544379688,162.80022790847212,3.600008418365989,4.00464,4.19904,0.20053522829578813,-13.99735893504601,-7.299482309966689,24.807395,59.490164,9.156223230068125,42.631850199773965,199.62801564357085,2.946296561052682,0.002000340564725732,0.3259751862267201
2025-09-03T17:43:40+03:00,,286.15,30.0000701530499,12.30552,150.99729732877717,189.70059638986427,13.799974974623444,4.0824,4.14072,0.6016056848873644,15.802175989708104,-7.700552766558264,24.807423,59.490133,9.004469688494899,43.10222281129154,194.0995201400687,2.9807062601345216,0.002049904504948178,0.3280250907316683
2025-09-03T17:43:42+03:00,,286.15,18.999280486538098,12.091679999999998,219.54023836027756,210.20102629964512,9.19998331641563,3.34368,3.96576,0.09740282517223994,33.1971746498799,-3.0997016716577535,24.80731,59.490113,8.996255809764994,25.94915761226818,245.48939597254574,3.0065791718901034,0.0036518385478593197,0.33167692927952763
2025-09-03T17:43:44+03:00,,286.15,7.0015442564986605,12.49992,242.4700093214131,220.89814833473758,9.300021747445468,3.12984,3.86856,0.40107045659157625,43.20101775286407,0.8995437383553924,24.807424,59.490081,9.40116409445937,9.327343393322735,251.79735271473584,3.088458762467084,0.0039751482275765405,0.3356520775071042
2025-09-03T17:43:46+03:00,,286.15,-14.002229076304623,12.30552,250.73779030515087,232.20260563266874,7.299997971982305,2.97432,3.57696,-0.09740282517223994,55.399289211199296,-2.6986312150661775,24.807399,59.490063,9.447029597662642,18.3711977920116,232.36659251313927,2.8227324916014602,0.0013238603059023749,0.33697593781300655
2025-09-03T17:43:48+03:00,,286.15,-24.000342601337486,12.091679999999998,272.64769639095357,248.89859578278092,8.100018941323475,2.8771199999999997,3.36312,-0.09740282517223994,71.900473710967,2.8017636181897254,24.807361,59.490054,9.535389684170186,31.049830620207672,241.5978657707459,2.4648834948538108,0.0012795838927324916,0.338255521705739
2025-09-03T17:43:50+03:00,,286.15,-37.00075497285587,11.197439999999999,269.9949017994978,264.5976393693655,6.60001543367098,2.7993599999999996,3.2464799999999996,0.20053522829578813,87.70264970067511,6.697876625079324,24.807316,59.490055,9.11877474106824,47.64752142355849,222.34738037593934,1.8858999340533478,0.0013745331346851266,0.33963005484042413
2025-09-03T17:43:52+03:00,,286.15,-50.00116734437425,11.00304,273.99987678746226,277.0021756339478,2.9000258800546614,3.05208,3.34368,0.09740282517223994,98.80084219235916,9.40223741809681,24.807252,59.490063,9.33866903168681,64.50023517228584,209.49964161517642,1.3139430013283697,0.002011347828870887,0.34164140266929505
2025-09-03T17:43:54+03:00,,286.15,-59.00233430587948,11.39184,283.9979903124951,284.89753405085054,1.5999846429028237,3.71304,3.47976,0.0,106.30085973062164,9.700175471564837,24.807171,59.49007,9.999655475421578,77.56178066692311,206.436209645572,0.7997396988418216,0.0025073471272343928,0.34414874979652943
2025-09-03T17:43:56+03:00,,286.15,-61.99890357441368,11.29464,289.9968584275149,287.40135961557223,0.300000701530499,4.1796,3.6352800000000003,-0.6990085100596044,108.39788526080044,10.3017811564522,24.807101,59.490075,10.035516573546273,83.57440599838861,206.42245242912628,0.46775089268576225,0.0021571545358888993,0.3463059043324183
2025-09-03T17:43:58+03:00,,286.15,-59.00233430587948,11.702879999999999,285.99761301750175,283.49951703073134,-4.999973494988642,4.4712,3.86856,-0.20053522829578813,100.69733249424219,11.000789666511807,24.807025,59.490081,10.15150261130111,81.18409954118172,204.81351347632003,0.6852564649719154,0.00234708489856378,0.3486529892309821
2025-09-03T17:44:00+03:00,,286.15,-52.00079004938082,12.20832,286.9945595810294,273.79934155916646,-0.9999832398418258,4.5684000000000005,4.04352,-0.6016056848873644,92.69884167421588,12.79987714322259,24.806936,59.490091,10.061839890946695,72.96508899495682,214.0294705860726,1.3383325993681559,0.002781637021290727,0.35143462625227284
2025-09-03T17:44:04+03:00,,286.15,-52.997736612908454,12.79152,274.9968233509899,275.50102621070505,0.2000195662801704,4.510079999999999,4.510079999999999,-0.49847328176381617,95.59800811757786,14.702097023056925,24.806594,59.490154,10.701486391221419,72.66579389477462,202.3310294562153,1.3437549827702115,0.002830529950449798,0.35426515620272264
2025-09-03T17:44:06+03:00,,286.15,-50.00116734437425,11.99448,281.99836760748855,277.9017193723032,3.0000070153049903,4.60728,4.80168,-1.701684651538545,99.70038593071456,14.598964619933378,24.806681,59.490113,9.69808947678204,71.34301594704637,210.6553516604422,1.473876996122292,0.003622395448455473,0.35788755165117814
2025-09-03T17:44:08+03:00,,286.15,-48.99849120289531,11.89728,283.9979903124951,282.89791134584397,0.5000202678106694,4.704479999999999,5.01552,-0.29793805346802804,102.30161432060851,11.000789666511807,24.806596,59.490127,9.49922387615631,70.94621726494651,213.0517730475486,1.5358036329631282,0.0027269401073951277,0.36061449175857324
2025-09-03T17:44:10+03:00,,286.15,-50.00116734437425,11.702879999999999,287.9972357225083,287.4987624407445,3.0000070153049903,4.5684000000000005,5.20992,0.29793805346802804,108.39788526080044,5.700930061551691,24.806515,59.490144,9.439177823244814,71.76358298383445,216.23365273867387,1.4296289497322718,0.0026746718789763552,0.3632891636375496
2025-09-03T17:44:12+03:00,,286.15,-54.99735931791503,10.4976,286.9945595810294,290.3979288841064,0.9000021045914972,5.598719999999999,5.38488,-0.40107045659157625,111.60071933558174,7.797955591730505,24.80641,59.490161,8.609243678166623,87.18472312812378,199.80983645290564,0.2749871875247216,0.0033631566830243874,0.366652320320574
2025-09-03T17:44:16+03:00,,286.15,-57.00271160087291,11.197439999999999,294.99877997900694,295.6003856638943,-3.099988150555319,5.443199999999999,5.52096,-0.8021409131831525,114.29935055064793,13.99735893504601,24.806235,59.490192,9.414060329623164,86.010818213448,208.98796176555894,0.37867318533005345,0.0040381676754109586,0.3706904879959849
2025-09-03T17:44:18+03:00,,286.15,-54.99735931791503,12.49992,286.3528468504828,286.5992187023891,0.2000195662801704,5.326560000000001,5.52096,-1.3006141949469687,105.60185122056203,12.301403861458775,24.806148,59.490207,10.403651781810057,79.79304163805159,206.55980521243123,0.9438891548628638,0.002803798160365155,0.37349428615635005
2025-09-03T17:44:24+03:00,,286.15,-63.001579715892625,11.60568,296.9984026840135,300.9002452688544,3.8000279846461584,6.1624799999999995,5.754239999999999,-0.49847328176381617,122.80204423038934,11.401860123103383,24.805846,59.490252,10.379445501446702,94.94053648874204,202.05786619527146,-0.5307239391529415,0.003586222227179888,0.37708050838352997
2025-09-03T17:44:28+03:00,,286.15,-84.0004829074373,11.00304,309.9988150555319,328.6027546634297,7.599998673512805,5.7153599999999996,5.81256,0.40107045659157625,150.99729732877717,2.6986312150661775,24.805682,59.490308,11.856916106863887,112.645879997447,197.3529350580849,-2.2006105880684608,0.004098386442769655,0.38117889482629963
2025-09-03T17:44:30+03:00,,286.15,-97.00089527895568,10.808639999999999,325.9957966955845,339.7009471551138,8.29998121182413,6.18192,5.67648,0.40107045659157625,161.29907848522936,-1.1974817918234204,24.805615,59.490367,13.089349628959448,124.95505588024292,201.04074081534156,-3.54183028852717,0.004093510682523619,0.38527240550882325
2025-09-03T17:44:32+03:00,,286.15,-112.00093035548062,9.00072,348.9943225921357,351.89921861344897,10.099985421007126,5.832,5.48208,0.49847328176381617,174.50002608504352,-3.300236899953542,24.805586,59.490418,12.423953188150074,137.80098137250576,211.19334121962993,-4.3204395041241055,0.003190673008241103,0.38846307851706435
2025-09-03T17:44:34+03:00,,286.15,-136.99907895703842,7.095599999999999,3.9992454100131463,10.702851613043778,13.999994540903614,4.97664,5.28768,0.6016056848873644,-164.50191256001065,-6.302535746439056,24.80559,59.490463,11.259005087600855,154.5442829194815,209.45496249053164,-4.49349658806234,0.0027076000120531555,0.3911706785291175
2025-09-03T17:44:36+03:00,,286.15,-162.9999037000752,4.704479999999999,18.999280486538098,34.102447966186595,12.799991734781615,4.5684000000000005,4.87944,-0.20053522829578813,-141.49765708550808,-11.000789666511807,24.805629,59.490504,9.171046324358818,171.3742901523044,207.6249903342337,-4.516727658058552,0.0027367322884554587,0.39390741081757297
2025-09-03T17:44:38+03:00,,286.15,138.00261453521009,5.307119999999999,41.99780638308934,61.002816447578745,10.099985421007126,4.35456,4.548959999999999,0.40107045659157625,-113.30240398712029,-10.3017811564522,24.805675,59.490537,9.026490841460102,156.8340875672432,198.83189395033253,-4.003449861057646,0.002430000905361061,0.396337411722934
2025-09-03T17:44:40+03:00,,286.15,101.99794668918915,6.7068,70.99520039466032,80.70110544417646,4.299990956677315,4.35456,4.35456,0.49847328176381617,-96.49755185593325,-8.898034558381685,24.805742,59.490562,8.722700336406742,131.22790923593064,202.22310963059095,-2.8698984134180896,0.0025373662533282443,0.39887477797626225
2025-09-03T17:44:42+03:00,,286.15,86.00096504913657,8.70912,89.9944808811984,90.8997541975051,2.499986747494321,4.58784,4.276800000000001,-0.09740282517223994,-87.70264970067511,-5.500394833255903,24.805827,59.490564,9.556359325822926,114.61543107992738,204.60991196112576,-1.9109530633046634,0.0025966019680003236,0.4014713799442626
2025-09-03T17:44:44+03:00,,286.15,80.99904349764448,9.79776,101.99794668918915,100.5025268438977,4.299990956677315,4.19904,4.21848,0.0,-77.20033331592711,-7.402614713090236,24.8059,59.490552,10.037673153083835,105.4035855407773,207.40153222996645,-1.1153340963917007,0.002341496781058923,0.4038128767253215
2025-09-03T17:44:46+03:00,,286.15,73.00055267761819,10.206,104.99451595772337,110.79857842239859,2.7999874490248207,4.31568,4.23792,0.20053522829578813,-67.50015784436228,-9.29910501497326,24.805974,59.490539,9.850524535139309,97.77040586358522,202.76492182130858,-0.5834964137581805,0.002389523010992318,0.40620239973631384
2025-09-03T17:44:48+03:00,,286.15,69.00130726760504,11.10024,117.99492832924174,116.29897325565449,1.1000216708716675,4.29624,4.23792,0.20053522829578813,-63.099841977757556,-6.497341396783535,24.806042,59.490522,10.367951004648331,91.76041846083228,209.75534679007404,-0.13198162846069364,0.0023130060237697863,0.4085154057600836
2025-09-03T17:44:50+03:00,,286.15,67.00168456259847,11.197439999999999,125.99914872721935,117.10111416883765,0.6999825383113268,4.49064,4.276800000000001,0.0,-62.40083346769795,-6.199403343315507,24.806102,59.490502,10.308076452270186,90.643417238114,216.64256596533335,-0.050427701359265886,0.0021903173795979215,0.4107057231396815
2025-09-03T17:44:52+03:00,,286.15,65.0020618575919,11.508479999999999,120.99722717572726,118.49913118895687,1.8000042091829944,4.5684000000000005,4.276800000000001,0.09740282517223994,-60.401210762691385,-7.597420363434716,24.806173,59.490482,10.43456862139425,88.38039937093697,209.37762654666423,0.12911942666655343,0.002477771793645675,0.4131834949333272
2025-09-03T17:44:54+03:00,,286.15,61.002816447578745,11.702879999999999,116.99798176571409,124.60113170710014,0.9999832398418258,4.60728,4.33512,0.49847328176381617,-54.797683526311936,-8.30215845144563,24.806244,59.490461,10.291195457105706,84.05506701331794,201.05304877903203,0.4771878738764668,0.0025074866302661146,0.4156909815635933
2025-09-03T17:44:56+03:00,,286.15,60.0001403060998,11.99448,125.23138528174405,123.30051751215316,-0.6999825383113268,4.89888,4.45176,-0.09740282517223994,-57.398911916205876,-7.299482309966689,24.806313,59.490435,10.445444306885506,83.96421277645844,209.1955980582025,0.5151154001491106,0.002622174565365321,0.41831315612895864
2025-09-03T17:45:00+03:00,,286.15,61.002816447578745,11.508479999999999,125.99914872721935,118.90020164554844,-0.9000021045914972,4.97664,4.6655999999999995,-0.09740282517223994,-61.39815732621903,-7.402614713090236,24.806468,59.490375,10.08382044668736,86.57579627339192,212.57494500061125,0.2972450497043125,0.0017132145522835373,0.42002637068124216
2025-09-03T17:45:02+03:00,,286.15,63.002439152585325,11.39184,122.99684988073382,117.59958745060148,-0.2000195662801704,5.03496,4.74336,-0.09740282517223994,-62.89930674946178,-7.500017538262475,24.806542,59.490349,10.151340276696834,89.23014162552367,212.2269915062575,0.06765052363901129,0.002746203742678459,0.42277257442392063
2025-09-03T17:45:04+03:00,,286.15,61.002816447578745,10.90584,118.99760447072069,118.00065790719304,0.300000701530499,4.723920000000001,4.87944,0.6016056848873644,-61.30075450104678,-9.499640243269049,24.806615,59.490329,9.555315068500763,86.62296861341547,205.62057308413614,0.27826815980211433,0.00253132051906524,0.42530389494298587
2025-09-03T17:45:06+03:00,,286.15,63.999385716112954,11.10024,124.99647258574039,118.49913118895687,-0.600001403060998,4.97664,4.957199999999999,0.0,-61.70182495763835,-7.500017538262475,24.806734,59.490298,9.977389458403664,90.63461259856591,215.6310851843063,-0.055120532342161084,0.004081530639154603,0.4293854255821405
2025-09-03T17:45:08+03:00,,286.15,63.002439152585325,11.702879999999999,117.31883813098737,116.60264088707383,-0.300000701530499,5.1710400000000005,5.0544,0.29793805346802804,-63.50091243434914,-8.399561276617868,24.806767,59.490285,10.428528790887388,89.22248727548389,206.54132540647126,0.07016967109069279,0.001274627413434064,0.4306600529955745
