time,dpt,mtw,awa,aws,cog,hdg,rot,sog,stw,pitch,yaw,roll,lng,lat,tws,twa,twd,vmg,dist,cum_dist
2026-05-13T18:22:52+03:00,21.48,280.83,67.99863112612611,11.60568,23.995472460078876,11.023707978317038,-4.520751595141221,4.31568,4.276800000000001,0.8766254265501595,-176.70018401834588,-9.379319106291577,24.799623,59.484357,10.760543247568267,89.8288594327549,113.82433189283377,0.012890771907621586,0.0014971458899962022,0.0014971458899962022
2026-05-13T18:22:54+03:00,21.37,280.82,78.00247422911028,11.80008,17.996604345059158,356.50006970834954,-3.30000771683549,5.0544,4.43232,1.3349916626548182,175.89804310516274,-4.5034482697282705,24.799634,59.484467,11.831872757365796,102.70164572218262,120.69825006724177,-1.111332281853826,0.0012118016943647796,0.002708947584360982
2026-05-13T18:22:55+03:00,21.33,280.826,80.99904349764448,12.402719999999999,9.998113525032863,0.590146528984748,-1.2314581890746785,5.1127199999999995,4.510079999999999,1.3750987083139758,174.2020880315755,-4.9675440837842375,24.799636,59.484488,12.654080282347323,104.51858624993915,114.51669977497201,-1.2817284807866762,0.0012637371540947166,0.003972684738455698
2026-05-13T18:22:56+03:00,21.33,280.82,82.99866620265107,12.30552,0.962569095819783,353.8988413184556,-1.2999839413723246,4.78224,4.52952,0.7792226013779195,173.3025442932201,-6.84111607386203,24.799637,59.48451,12.647110357997434,105.04210772728987,106.00467682310966,-1.24112925664139,0.0013227219341060462,0.005295406672561745
2026-05-13T18:22:57+03:00,21.33,280.826,84.99828890765764,11.60568,4.996191973540778,352.00235101657256,-3.600008418365989,4.957199999999999,4.78224,1.1000789666511805,170.30024544673458,-7.574502051629484,24.799637,59.484532,12.216128062757866,108.84218822048894,113.83838019402971,-1.6009904374917632,0.0013223697609189365,0.006617776433480682
2026-05-13T18:22:58+03:00,21.18,280.82,88.00058775414314,11.508479999999999,355.41144989760096,346.70249141161247,-4.299990956677315,4.957199999999999,4.723920000000001,-0.09740282517223994,165.40145629836607,-7.700552766558264,24.799635,59.484555,12.370856570972663,111.60827810994485,107.01972800754584,-1.82553293581781,0.001383824442501116,0.008001600875981797
2026-05-13T18:22:59+03:00,21.18,280.826,90.99715702267736,11.80008,4.996191973540778,342.80064882677146,-4.899992359738313,5.22936,4.82112,1.2375888374825783,161.09854325693357,-4.95608492788162,24.79963,59.484578,12.989835944466098,114.73248247608913,119.7286744496299,-2.1878704284775194,0.0013908745961219917,0.00939247547210379
2026-05-13T18:23:00+03:00,21.18,280.82,95.00213201064179,12.30552,357.99548955364094,339.5978147519903,-2.3000244769936637,5.42376,4.91832,1.2433184154338865,158.8983853236312,-3.3518031015153165,24.799623,59.484603,13.873783655567296,117.92222624151194,115.91771579515284,-2.5397982532474708,0.0015178045733515377,0.010910280045455327
2026-05-13T18:23:01+03:00,21.18,280.826,97.99870127917599,12.30552,347.7280858648966,339.39727952369446,-0.9999832398418258,5.26824,4.97664,0.7792226013779195,159.49999100851855,-2.887707287459349,24.799617,59.484627,14.043575501017585,119.8059703166607,107.53405618155733,-2.618654454296624,0.0014541619254840733,0.0123644419709394
2026-05-13T18:23:02+03:00,21.18,280.82,101.0010001256615,11.508479999999999,348.9943225921357,338.89880624193063,0.3999818367808277,5.65704,4.89888,1.2146705256773451,158.80098249845895,-4.532096159484812,24.79961,59.484652,13.758425642361521,124.80526695613966,113.79958954827532,-3.228976487470425,0.001517804529730441,0.013882246500669842
2026-05-13T18:23:03+03:00,21.18,280.826,101.99794668918915,10.5948,350.4095283461089,337.99926250357527,0.9000021045914972,5.26824,4.84056,0.865166270647543,157.7009035318078,-6.262428700779898,24.799606,59.484676,12.77535922445506,125.78676853680395,116.19629688291286,-3.08071059249712,0.0014477418218951448,0.015329988322564986
2026-05-13T18:23:04+03:00,21.11,280.82,103.99756939419571,10.1088,348.9943225921357,337.50078922181143,3.600008418365989,5.20992,4.93776,0.20053522829578813,157.7009035318078,-6.89841185337511,24.799602,59.484701,12.44222264185105,127.96989216330661,116.9642147554423,-3.205389243216606,0.0015076439568851062,0.016837632279450093
2026-05-13T18:23:05+03:00,21.03,280.827,101.99794668918915,10.206,346.9946998871292,339.20247387334996,5.499993762799311,5.38488,4.6655999999999995,3.0481354700959793,160.5026671499975,-8.846468356819912,24.799599,59.484725,12.490331159646022,126.94028792109306,113.93498780822222,-3.2362180016977016,0.001445488051644424,0.018283120331094516
2026-05-13T18:23:06+03:00,21.03,280.82,97.99870127917599,11.10024,350.99967487509366,342.60011359847573,6.0000140306099805,5.1127199999999995,4.93776,0.9969465635276323,163.9003068751233,-9.963736057325017,24.799605,59.484748,12.851050788728308,121.2006997825248,112.20037465761845,-2.6485804637462964,0.0013945531892448765,0.019677673520339393
2026-05-13T18:23:07+03:00,21.03,280.827,93.00250930563523,11.197439999999999,353.99624414362785,345.29874481354193,6.0000140306099805,5.3654399999999995,4.84056,0.9511099399171665,166.3984028618937,-12.152434834724762,24.799614,59.484772,12.66745705025421,118.02534800627814,112.02159214990598,-2.5210171112738595,0.0014685042854128048,0.021146177805752196
2026-05-13T18:23:08+03:00,21.03,280.81,86.9979116126642,12.30552,14.770851958472623,348.5015788883232,4.6999727934581434,5.1710400000000005,5.07384,1.208940947726037,170.20284262156233,-11.44196716876254,24.799621,59.484763,13.095813319295766,110.22149348460427,124.99234544307689,-1.7873711835853308,0.0005816289242879701,0.021727806730040166
2026-05-13T18:23:09+03:00,21.03,280.827,82.00171963912342,13.10256,3.9992454100131463,350.5986044185021,3.600008418365989,5.754239999999999,5.1127199999999995,0.09740282517223994,171.10238635991774,-14.301026566465348,24.799622,59.48479,13.557538487124006,106.85539199444315,110.8546374044563,-1.6684831577950308,0.0016231953066872704,0.023351002036727436
2026-05-13T18:23:10+03:00,20.92,280.81,78.00247422911028,13.608,8.995437383553925,350.7991396467978,6.399995867390808,5.81256,5.46264,0.40107045659157625,171.40032441338573,-14.702097023056925,24.799631,59.484816,13.641102824704248,102.63511402267449,111.6305514062284,-1.271446908417622,0.0015867571964781257,0.024937759233205563
2026-05-13T18:23:11+03:00,20.88,280.824,73.00055267761819,14.59944,13.99735893504601,355.6979287951664,5.79999446432981,5.57928,5.5404,0.985487407625016,178.0982010384651,-14.478643482955903,24.79968,59.484862,14.022967378827271,95.3641877588824,109.3615466939284,-0.5215847230216248,0.0031434909398565174,0.02808125017306208
2026-05-13T18:23:12+03:00,20.85,280.82,67.00168456259847,14.79384,21.995849755072307,0.0,2.499986747494321,5.42376,5.5404,1.1631043241155712,-178.69980672335248,-14.959928030865793,24.799669,59.484864,13.622630559144488,88.50145356011683,110.49730331518913,0.14183993466917647,0.00035660131137899194,0.028437851484441074
2026-05-13T18:23:13+03:00,20.73,280.826,63.999385716112954,14.91048,24.99814860155782,31.128797009457625,2.365513552977117,5.404319999999999,5.443199999999999,1.306343772898277,-178.29873626676087,-15.956874594393428,24.799731,59.484905,13.449117447697565,85.17112158046369,110.1692701820215,0.4549361359072624,0.0031070997816105227,0.0315449512660516
2026-05-13T18:23:14+03:00,20.73,280.82,61.002816447578745,15.396479999999999,36.06196362553401,33.483653547445314,1.6855272417158558,5.754239999999999,5.5404,1.065701498943331,-176.29911356175433,-16.05427741956567,24.799761,59.484928,13.574499474229,82.76543707575671,118.82740070129071,0.724641172748432,0.0016581919612813608,0.03320314322733296
2026-05-13T18:23:15+03:00,20.66,280.826,58.000517601093236,15.20208,32.996639421584106,34.85875225575929,1.3596861436249568,5.6376,5.57928,0.09740282517223994,-176.09857833345853,-18.500807204774283,24.79979,59.484949,13.116992068011015,79.376579014326,112.3732184359101,1.0393092224485283,0.0015416556429500904,0.034744798870283054
2026-05-13T18:23:16+03:00,20.58,280.82,56.99784145961429,15.49368,38.66892159337927,36.325524211294194,1.0533256105685054,6.0264,5.7153599999999996,0.20053522829578813,-176.99812207181392,-19.801421399721253,24.799819,59.484969,13.215846956563688,79.48167634609858,118.15059793947785,1.100119133440956,0.0014928398202427638,0.03623763869052582
2026-05-13T18:23:17+03:00,20.58,280.826,56.00089489608667,15.70752,36.99588483159726,2.2975607584746007,0.600001403060998,5.81256,5.98752,-0.09740282517223994,-177.89766581016931,-21.199438419840458,24.79985,59.48499,13.356824821015632,77.14902935258961,114.14491418418686,1.292805811271946,0.0015774918955607533,0.03781513058608657
2026-05-13T18:23:18+03:00,20.43,280.82,54.99821875460771,15.396479999999999,30.99701671657754,35.821321351579066,-0.941713432077021,6.57072,5.94864,0.20053522829578813,-179.5019476365356,-22.001579333023614,24.799878,59.485013,12.812805491393451,79.83735554782966,110.8343722644072,1.159357742988994,0.0016252821456888204,0.03944041273177539
2026-05-13T18:23:19+03:00,20.43,280.826,56.00089489608667,15.20208,34.996262126590686,358.40228958818386,0.300000701530499,6.4152,5.96808,0.0,177.80026298499706,-22.700587843083216,24.79991,59.485036,12.774610230035004,80.60421473924228,115.60047686583297,1.047303137835608,0.001692661037959222,0.041133073769734615
2026-05-13T18:23:20+03:00,20.36,280.81,54.99821875460771,15.49368,34.996262126590686,356.0015964265857,1.5000035076524951,6.08472,6.14304,0.09740282517223994,175.10163176993086,-23.600131581438607,24.799909,59.485038,12.997139594903508,77.54791065486619,112.54417278145687,1.3120065598112345,0.00012402923409921424,0.04125710300383383
2026-05-13T18:23:21+03:00,20.28,280.811,54.00127219108009,15.70752,35.99893826806962,355.39999074169833,0.9000021045914972,6.25968,6.10416,0.09740282517223994,175.19903459510311,-24.402272494621762,24.799976,59.485082,13.05091794039735,76.83382663410381,112.83276490217344,1.4258051399517697,0.0033430746392283583,0.04460017764306219
2026-05-13T18:23:22+03:00,20.28,280.81,52.99859604960115,15.396479999999999,35.99893826806962,354.59784982851517,0.9999832398418258,6.62904,6.318,0.09740282517223994,174.2020880315755,-25.697157111617422,24.800012,59.485102,12.575556382799057,77.89522751051325,113.89416577858287,1.390109736204764,0.0016286178164634773,0.04622879545952567
2026-05-13T18:23:23+03:00,20.28,280.821,52.99859604960115,15.29928,38.995507536603824,354.09937654675133,0.0,7.1150400000000005,6.4152,-0.6016056848873644,173.8010175749839,-26.201359971332543,24.800049,59.485123,12.396223886602854,80.28141260660554,119.27692014320937,1.2010838115871338,0.001693671814176427,0.0479224672737021
2026-05-13T18:23:24+03:00,20.17,280.82,54.99821875460771,15.49368,40.9951302416104,352.3976918952128,0.9999832398418258,6.940079999999999,6.74568,0.0,171.60085964168155,-25.50235146127294,24.800087,59.485146,12.839899236313448,81.27765086781851,122.2727811094289,1.0524380542209408,0.0018045285274159658,0.049726995801118064
2026-05-13T18:23:25+03:00,20.13,280.818,54.00127219108009,15.29928,40.9951302416104,351.89921861344897,2.1000049107134933,6.82344,6.74568,0.09740282517223994,172.00193009827314,-24.402272494621762,24.800113,59.485154,12.566179826787076,80.06072838798535,121.05585862959575,1.1777548966214972,0.0009278568085220695,0.05065485260964013
2026-05-13T18:23:26+03:00,20.13,280.81,54.00127219108009,15.49368,38.995507536603824,355.4973935668706,-0.6999825383113268,7.1150400000000005,6.68736,-0.29793805346802804,177.3991925284055,-22.001579333023614,24.800174,59.485188,12.692090197622477,80.9718536295497,119.96736116615352,1.1164895503785655,0.0027645329438932263,0.05341938555353336
2026-05-13T18:23:27+03:00,20.02,280.818,54.99821875460771,15.29928,43.99742908809592,358.4996924133561,-2.7000063137744914,7.17336,6.10416,0.29793805346802804,179.10087717994404,-19.89882422489349,24.800216,59.485212,12.6341840762716,82.71381439569873,126.71124348379465,0.909764628127419,0.0019298195243465971,0.05534920507787996
2026-05-13T18:23:28+03:00,19.98,280.82,56.00089489608667,14.79384,40.9951302416104,33.69564793164371,-1.220170920510601,6.9984,6.78456,0.0,179.5019476365356,-18.002333923010465,24.800239,59.485222,12.330770993673045,84.06960035184194,125.06473059345234,0.7230766874326493,0.000924149538643846,0.0562733546165238
2026-05-13T18:23:29+03:00,19.98,280.832,56.99784145961429,14.91048,37.13912428037996,0.6016056848873644,-0.8000209693411684,6.8623199999999995,6.72624,0.20053522829578813,-178.90034195164822,-16.701719728063498,24.800294,59.48526,12.567892558170467,84.25078925406709,121.38991353444705,0.6874284854961692,0.0028345788751508163,0.05910793349167462
2026-05-13T18:23:30+03:00,19.98,280.82,56.00089489608667,14.91048,39.998183678082775,33.042476045194576,0.8047765190407543,7.13448,6.82344,1.0141352973815572,-177.1986573001097,-17.933578987594768,24.800332,59.485285,12.419893123057312,84.4408251275239,124.43900880560668,0.6911437804549965,0.0018981976238734552,0.061006131115548076
2026-05-13T18:23:31+03:00,19.98,280.821,54.99821875460771,14.59944,35.99893826806962,35.2139860887404,4.31328357752435,7.01784,6.68736,0.8995437383553924,-179.59935046170784,-21.176520108035223,24.80037,59.48531,12.035580623494868,83.52893809176682,119.52787635983644,0.7909202596420554,0.0018981970992283798,0.06290432821477646
2026-05-13T18:23:32+03:00,19.91,280.81,52.99859604960115,14.502239999999999,35.99893826806962,43.47603749452687,11.562803967755631,6.76512,6.59016,-0.011459155902616466,179.30141240823983,-24.60280772291755,24.800414,59.485332,11.746938303074094,80.38116450212618,116.3801027701958,1.130403353698587,0.0018846794930601639,0.06478900770783662
2026-05-13T18:23:33+03:00,19.83,280.815,46.99972793458143,15.10488,36.99588483159726,55.857655447303955,13.376559164021764,7.095599999999999,6.14304,0.05729577951308232,179.5019476365356,-26.447731823238804,24.800464,59.485347,11.50276053253469,73.81666014975872,110.81254498135598,1.9776279118772928,0.0017724618360555715,0.0665614695438922
2026-05-13T18:23:34+03:00,19.83,280.81,41.00085981956171,15.901919999999999,44.99437565162355,69.36800025648877,12.812825989392547,6.74568,6.006959999999999,0.2578310078088704,-174.70056131333934,-23.370948463386277,24.800516,59.485354,11.681741676330608,63.26339503546728,108.25777068709084,3.0348116914425867,0.0016418785104406093,0.0682033480543328
2026-05-13T18:23:35+03:00,19.83,280.81,37.001614409548566,16.69896,62.99670957463401,78.19727987945475,3.9993027057926596,6.29856,5.81256,0.31512678732195276,-145.6000348986448,-13.842660330360689,24.800568,59.485354,12.269094522209372,54.9984279499709,117.99513752460491,3.6128471605061763,0.0015870509066860934,0.06979039896101889
2026-05-13T18:23:36+03:00,19.72,280.81,35.99893826806962,17.496,75.99712194615239,78.87337007770913,-1.8698477644094416,5.94864,5.7153599999999996,0.6016056848873644,-129.00144757370484,-9.29910501497326,24.80062,59.485356,13.156492206369805,51.410894063592735,127.40801600974513,3.710351111934765,0.0015915973678465648,0.07138199632886545
2026-05-13T18:23:37+03:00,19.68,280.818,33.00236899953541,17.3016,88.99753431767077,75.89398954302884,-4.242924360282285,5.52096,5.79312,0.664631042351755,-119.30127210214,-4.732631387780601,24.80067,59.48536,13.023387458153557,46.35253098790835,135.3500653055791,3.8106730169909646,0.001544834766603631,0.07292683109546909
2026-05-13T18:23:38+03:00,19.68,280.82,30.0000701530499,16.407359999999997,90.99715702267736,72.02079484794447,-1.2662367272391195,5.42376,5.79312,0.49847328176381617,-116.60264088707383,-5.2998596049601145,24.800722,59.485366,12.020160763686802,43.03890564637183,134.0360626690492,3.964174303517968,0.0016275119017659437,0.07455434299723503
2026-05-13T18:23:39+03:00,19.68,280.815,30.0000701530499,15.804720000000001,83.99561276617868,72.75991040366324,2.000195662801704,5.598719999999999,5.28768,1.0943493886998723,-112.50026307393715,-7.763578124022655,24.80077,59.485373,11.308065736403448,44.332934963880916,128.3285477300596,4.004714866911659,0.0015241946299754381,0.07607853762721047
2026-05-13T18:23:40+03:00,19.68,280.82,28.997394011570965,15.396479999999999,79.93907157665245,69.90085100596043,2.499986747494321,5.20992,5.03496,-0.40107045659157625,-108.90208812051559,-7.597420363434716,24.800817,59.485379,11.130008285733874,42.113151132889215,122.05222270954167,3.864832951371997,0.0014790907565836878,0.07755762838379415
2026-05-13T18:23:41+03:00,19.53,280.812,28.000447448043335,15.29928,81.78972525492502,73.29849073108622,0.6999825383113268,5.79312,4.89888,-0.09740282517223994,-105.80238644885782,-7.402614713090236,24.800862,59.485382,10.54118445872865,42.952541738362044,124.74226699328706,4.240090842781765,0.0013851956407904327,0.07894282402458458
2026-05-13T18:23:42+03:00,19.53,280.8,28.000447448043335,15.10488,77.99674465115896,73.69956118767779,-1.200002806121996,5.5598399999999994,4.97664,-0.40107045659157625,-106.39826255579388,-7.0015442564986605,24.800872,59.485386,10.524670746958407,42.36024140808232,120.35698605924128,4.1082940614512555,0.0003885294789876476,0.07933135350357223
2026-05-13T18:23:43+03:00,19.53,280.811,26.00082474303676,15.10488,77.99674465115896,72.89742027449465,-1.1000216708716675,5.19048,4.87944,-0.20053522829578813,-107.29780629414927,-7.098947081670899,24.800952,59.485392,10.684836436549773,38.2965932177658,116.29333786892477,4.0735573270173395,0.002468105729580536,0.08179945923315277
2026-05-13T18:23:44+03:00,19.53,280.81,26.00082474303676,14.59944,79.99636735616555,72.19841176443504,-0.3999818367808277,5.01552,4.7628,0.09740282517223994,-107.89941197903663,-7.098947081670899,24.800995,59.485397,10.328301521994783,38.292206463346645,118.2885738195122,3.9364843745506453,0.0013463401315888528,0.08314579936474162
2026-05-13T18:23:45+03:00,19.53,280.811,24.99814860155782,14.30784,78.48948835497147,73.40162313420976,1.1000216708716675,4.996079999999999,4.78224,0.20053522829578813,-105.9971920992023,-8.502693679741416,24.801039,59.485401,10.005085914295506,37.180370615343634,115.6698589703151,3.9805618177129984,0.0013642410622345877,0.08451004042697621
2026-05-13T18:23:46+03:00,19.53,280.79,22.001579333023614,14.21064,80.99904349764448,74.50170210086094,0.09998113525032865,4.74336,4.704479999999999,-0.20053522829578813,-105.40131599226623,-9.40223741809681,24.801079,59.485405,9.972326674800982,32.26619963146669,113.26524312911117,4.010875717358571,0.0012442571279031526,0.08575429755487937
2026-05-13T18:23:47+03:00,19.53,280.807,20.99890319154467,13.802399999999999,77.532648837103,73.40162313420976,0.0,4.704479999999999,4.60728,-0.29793805346802804,-106.99986824068124,-9.797578296737077,24.801116,59.485408,9.560173482488016,31.15561001671273,108.68825885381573,4.025930952787467,0.0011435527874520172,0.08689785034233138
2026-05-13T18:23:48+03:00,19.46,280.81,20.99890319154467,13.8996,77.12011922460881,74.71942606301066,0.6270450109911729,4.52952,4.60728,-0.09740282517223994,-107.80200915386439,-10.702851613043778,24.801154,59.485412,9.806165968334339,30.526567556310397,107.64668678091921,3.901700112877004,0.0011844257195064197,0.0880822760618378
2026-05-13T18:23:49+03:00,19.38,280.81,22.998525896551243,13.8996,77.99674465115896,72.1010089392628,0.9000021045914972,4.68504,4.45176,0.09740282517223994,-107.80200915386439,-12.100868633162985,24.801172,59.485412,9.760137477727872,33.808163459217155,111.80490811037612,3.89282409943788,0.0005493628317629471,0.08863163889360075
2026-05-13T18:23:50+03:00,19.38,280.8,20.99890319154467,13.8996,76.39819240274396,76.08306561542203,1.307031322252434,4.64616,4.276800000000001,0.20053522829578813,-107.89941197903663,-14.501561794761136,24.80123,59.485418,9.705873827842412,30.87631034246465,107.27450274520861,3.9876930210214403,0.0018065336769852035,0.09043817257058595
2026-05-13T18:23:51+03:00,19.38,280.805,15.00003507652495,13.296959999999999,75.99712194615239,71.99787653613924,1.4000223724021665,4.276800000000001,4.393439999999999,0.29793805346802804,-108.00254438216018,-16.100114043176134,24.801267,59.485422,9.232485827407874,21.88602117015489,97.88314311630728,3.9685591626240653,0.0011545572836516105,0.09159272985423757
2026-05-13T18:23:52+03:00,19.38,280.8,13.00041237151838,12.79152,77.50973052529777,71.900473710967,-0.09998113525032865,4.1796,4.276800000000001,-0.09740282517223994,-108.50101766392399,-14.702097023056925,24.801289,59.485427,8.769599082028218,19.155223899694363,96.66495442499213,3.9481884544073282,0.0007356353898918559,0.09232836524412942
2026-05-13T18:23:53+03:00,19.38,280.808,16.002711218003892,12.20832,82.99866620265107,71.00092997261162,-0.3999818367808277,3.9851999999999994,4.35456,0.09740282517223994,-109.2000261739836,-11.79720100174365,24.801343,59.485428,8.449284583866069,23.473974119143662,106.47264032179473,3.65538925752334,0.0016491834745670318,0.09397754871869646
2026-05-13T18:23:54+03:00,19.23,280.81,20.99890319154467,12.20832,77.13730795846273,71.20146520090739,-0.8000209693411684,3.96576,4.35456,0.09740282517223994,-108.70155289221978,-9.001166961505232,24.80138,59.48543,8.623837537848065,30.483993907656384,107.62130186611911,3.417576612900308,0.0011356260787400959,0.09511317479743656
2026-05-13T18:23:55+03:00,19.23,280.818,24.001202038030186,12.59712,85.99523547118525,71.79734130784347,0.0,3.8296799999999998,4.21848,0.09740282517223994,-107.80200915386439,-7.9984908200262925,24.801419,59.485433,9.230951730142763,33.71648668170465,119.7117221528899,3.1855065039357973,0.0012038670551303332,0.09631704185256688
2026-05-13T18:23:56+03:00,19.23,280.81,22.998525896551243,12.79152,79.99636735616555,72.70261462415016,0.300000701530499,4.859999999999999,4.1212800000000005,0.20053522829578813,-106.902465415509,-8.898034558381685,24.801456,59.485437,8.531803758648172,35.85796424203568,115.85433159820123,3.9388920816532207,0.0011545567931451526,0.09747159864571203
2026-05-13T18:23:57+03:00,19.23,280.807,18.002333923010465,13.00536,76.99979808763133,73.40162313420976,-1.1000216708716675,4.276800000000001,4.33512,0.20053522829578813,-106.59879778408965,-10.198648753328653,24.801492,59.48544,9.035140438601658,26.414442275934647,103.41424036356598,3.830300603222121,0.001113423830877152,0.09858502247658918
2026-05-13T18:23:58+03:00,19.23,280.8,18.002333923010465,12.79152,74.06052459861021,72.19841176443504,-1.5000035076524951,3.96576,4.29624,0.20053522829578813,-108.50101766392399,-9.998113525032863,24.801493,59.485448,9.10279827678831,25.740392074726202,99.80091667333642,3.572241913277114,0.0004818293092107927,0.09906685178579998
2026-05-13T18:23:59+03:00,19.23,280.811,20.00195662801704,12.49992,78.9994207926379,69.90085100596043,-0.9000021045914972,4.0824,4.101839999999999,-0.09740282517223994,-110.59804319410281,-9.29910501497326,24.801562,59.485447,8.77557785989668,29.157937505212487,108.1573582978504,3.565078247281819,0.002106746284668265,0.10117359807046825
2026-05-13T18:24:00+03:00,19.23,280.8,22.001579333023614,12.30552,77.61859250637262,68.89817486448149,-0.2000195662801704,4.548959999999999,4.02408,0.09740282517223994,-111.19964887899017,-7.797955591730505,24.801599,59.48545,8.265439141164803,33.900293714615856,111.51888622098848,3.7756796781462345,0.001143551400548482,0.10231714947101672
2026-05-13T18:24:01+03:00,19.16,280.808,22.998525896551243,11.89728,77.99674465115896,69.40237772419663,-0.6999825383113268,4.101839999999999,3.96576,0.09740282517223994,-110.50064036893058,-5.798332886723932,24.801638,59.485454,8.278088394047455,34.16134657872922,112.15809122988819,3.394106820213711,0.00121432480401161,0.10353147427502833
2026-05-13T18:24:02+03:00,19.08,280.81,24.001202038030186,11.29464,72.67969631234492,69.09871009277728,-1.2999839413723246,4.1796,3.9851999999999994,-0.09740282517223994,-111.10224605381794,-5.500394833255903,24.801639,59.485464,7.667276726804745,36.81195327062096,109.49164958296588,3.3462144378335448,0.0006018515055444009,0.10413332578057273
2026-05-13T18:24:03+03:00,19.08,280.802,24.001202038030186,10.90584,77.99674465115896,68.39970158271767,-0.6999825383113268,3.8491199999999997,3.8296799999999998,0.09740282517223994,-111.698122160754,-7.0015442564986605,24.801704,59.485467,7.553566811581118,35.96380416210968,113.96054881326864,3.1154321480297154,0.0019919856879862616,0.106125311468559
2026-05-13T18:24:04+03:00,19.08,280.8,22.998525896551243,10.303199999999999,72.99482309966687,67.2996226160665,-0.9000021045914972,3.888,3.8296799999999998,-0.09740282517223994,-113.30240398712029,-8.600096504913656,24.801708,59.485474,6.893689333822697,35.72850974115664,108.72333284082352,3.156251428044001,0.0004381068015453528,0.10656341827010435
2026-05-13T18:24:05+03:00,19.08,280.811,22.998525896551243,10.692,60.99708686962744,65.7010703676515,-1.200002806121996,3.7519199999999997,3.61584,0.0,-114.99835906070751,-9.499640243269049,24.801744,59.485484,7.385247697070317,34.44723978490563,95.44432665453307,3.0940111043700362,0.0012523925303348147,0.10781581080043916
2026-05-13T18:24:06+03:00,18.97,280.8,22.001579333023614,11.00304,65.0020618575919,63.1972448029298,-1.4000223724021665,4.04352,3.86856,-0.20053522829578813,-118.09806073236527,-9.700175471564837,24.801796,59.485487,7.410476740572878,33.79699308796259,98.79905494555449,3.3602203658477725,0.00159725621055834,0.1094130670109975
2026-05-13T18:24:07+03:00,18.93,280.807,22.001579333023614,11.508479999999999,65.99900842111953,61.10021927275099,-0.300000701530499,4.16016,3.9851999999999994,1.111538122553797,-118.99760447072069,-9.694445893613528,24.801828,59.485495,7.808408928766208,33.51493326318547,99.513941684305,3.4684998685463917,0.0010886041821804812,0.11050167119317798
2026-05-13T18:24:08+03:00,18.93,280.8,24.001202038030186,11.39184,63.810309643719776,60.29807835956783,-0.8000209693411684,4.1212800000000005,4.19904,1.1344564343590302,-120.09768343737186,-10.966412198803956,24.80186,59.485502,7.808952944266638,36.39741965826522,100.207729301985,3.317302846565877,0.0010634211666889746,0.11156509235986696
2026-05-13T18:24:09+03:00,18.93,280.807,26.997771306564392,11.39184,62.99670957463401,58.20105282938902,-0.6999825383113268,4.04352,4.1796,1.082890232797256,-122.60150900209356,-12.89727996839483,24.801891,59.48551,8.002333529258095,40.25837513664334,103.25508471127735,3.0857638275850765,0.0010613082981954366,0.1126264006580624
2026-05-13T18:24:10+03:00,18.93,280.8,31.002746294528848,11.00304,64.99633227964058,55.80035966779087,-0.6999825383113268,3.92688,4.101839999999999,1.260507149287811,-125.59807827062775,-14.564587152225526,24.801909,59.48552,7.9004490428379475,45.83663775133749,110.83297003097807,2.735882947559166,0.000814304265675983,0.11344070492373838
2026-05-13T18:24:11+03:00,18.93,280.807,33.00236899953541,11.00304,61.99976301110639,52.29958753954155,0.09998113525032865,4.02408,4.02408,1.277695883141736,-128.8983151705813,-15.750609788146331,24.801956,59.48553,7.936893596306945,49.03320843650954,111.03297144761592,2.638273332503059,0.0015552875341370825,0.11499599245787546
2026-05-13T18:24:12+03:00,18.93,280.8,35.99893826806962,11.508479999999999,66.37143098795457,50.597902888003,0.8000209693411684,4.31568,3.73248,1.1516451682129547,-129.40251803029645,-15.131815369405041,24.801972,59.485542,8.408707633531247,53.55668390153397,119.92811488948854,2.563631408105437,0.0008710454297284823,0.11586703788760394
2026-05-13T18:24:13+03:00,18.93,280.807,35.99893826806962,11.10024,65.99900842111953,50.70103529112655,0.2000195662801704,4.21848,4.101839999999999,1.065701498943331,-129.0988503988771,-15.412564689019145,24.802025,59.485547,8.07735072449427,53.87560728803028,119.87461570914981,2.4869639310621463,0.0016452447341426507,0.1175122826217466
2026-05-13T18:24:14+03:00,18.93,280.79,35.00199170454199,11.508479999999999,65.99900842111953,49.89889437794339,-0.09998113525032865,4.21848,4.16016,0.962569095819783,-130.59999982211983,-16.59858732493995,24.802061,59.485555,8.408671416644735,51.72632760055066,117.72533602167019,2.6130039592174024,0.0011993398809071688,0.11871162250265377
2026-05-13T18:24:15+03:00,18.78,280.801,33.99931556306306,11.80008,64.99633227964058,49.19988586788379,-0.3999818367808277,4.45176,4.19904,0.911002894258009,-131.402140735303,-17.228840899583854,24.802099,59.485565,8.48285341252073,51.06432125684378,116.06065353648437,2.797697695708553,0.0013062691498834447,0.1200178916525372
2026-05-13T18:24:16+03:00,18.78,280.8,33.00236899953541,12.30552,65.0020618575919,47.60133361946879,0.0,4.58784,4.41288,0.0,-132.70275493024997,-17.102790184655074,24.802137,59.485575,8.819358123795714,49.462009518356496,114.4640713759484,2.981876240353976,0.0013062688449655658,0.12132416049750278
2026-05-13T18:24:17+03:00,18.78,280.802,33.00236899953541,12.59712,64.99633227964058,45.80224614275801,0.300000701530499,4.704479999999999,4.510079999999999,0.8766254265501595,-134.50184240696075,-18.030981812767006,24.802175,59.485585,9.023199823565802,49.500245632790694,114.49657791243128,3.0553000180712457,0.0013062685400476752,0.12263042903755045
2026-05-13T18:24:18+03:00,18.78,280.8,33.00236899953541,12.908159999999999,64.06241107357735,45.699113739634456,-0.300000701530499,4.7628,4.6655999999999995,0.09740282517223994,-134.599245232133,-18.79874525824231,24.80221,59.485589,9.283662952176657,49.22880161054087,113.29121268411822,3.1102988784422885,0.0010949238231356567,0.1237253528606861
2026-05-13T18:24:19+03:00,18.67,280.802,31.002746294528848,13.39416,63.890523735038094,44.501631947811035,-0.3999818367808277,4.80168,4.68504,-0.20053522829578813,-135.89985942707997,-19.297218540006124,24.802256,59.485606,9.602411513195507,45.92837417759881,109.81889791263691,3.339842513847097,0.0017364126784059216,0.12546176553909202
2026-05-13T18:24:20+03:00,18.63,280.79,31.999692858056477,13.7052,67.99863112612611,42.59941206797671,-1.1000216708716675,4.957199999999999,4.89888,-0.40107045659157625,-138.00261453521009,-18.90187766136586,24.802297,59.485617,9.857695758237444,47.45469334939108,115.45332447551719,3.3519247884478953,0.0014152614002459973,0.12687702693933803
2026-05-13T18:24:21+03:00,18.63,280.798,35.00199170454199,14.094,70.99520039466032,57.79425279484613,0.26596700849972815,5.03496,4.87944,-0.09740282517223994,-141.40025426033588,-18.90187766136586,24.802338,59.485628,10.379593610735041,51.15752501144337,122.15272540610368,3.1578331836898386,0.0014152610398568768,0.1282922879791949
2026-05-13T18:24:22+03:00,18.63,280.79,39.00123711455514,14.094,66.86990426971838,58.62504159778584,1.1860226359208041,5.19048,4.87944,0.29793805346802804,-141.6981923138039,-18.500807204774283,24.802383,59.485638,10.57734672663391,56.989744361066954,123.85964863078533,2.827717155359035,0.0014991717963290972,0.129791459775524
2026-05-13T18:24:23+03:00,18.63,280.789,43.000482524568284,14.094,63.999385716112954,59.66782478492394,0.6625683942892839,5.13216,4.723920000000001,0.09740282517223994,-138.70162304526968,-14.501561794761136,24.802429,59.485648,10.916923167120054,61.700753631924385,125.70013934803734,2.4330371059857643,0.0015271799100112769,0.13131863968553528
2026-05-13T18:24:24+03:00,18.48,280.79,46.00278137105379,14.79384,67.99863112612611,58.54482750646752,-3.0575892737156383,5.20992,4.78224,-0.09740282517223994,-132.19855207053484,-9.40223741809681,24.802475,59.485656,11.78665128493044,64.54337951487535,132.54201064100147,2.2393674738702156,0.0014839850658947959,0.13280262475143007
2026-05-13T18:24:25+03:00,18.48,280.802,45.00010522957485,14.502239999999999,59.83971212346317,55.92068080476835,-1.1209346303939427,4.80168,4.80168,-0.29793805346802804,-130.80053505041565,-10.198648753328653,24.802502,59.485656,11.614316664232698,61.99808906283312,121.83780118629629,2.2543936131599467,0.0008240382935813921,0.13362666304501145
2026-05-13T18:24:26+03:00,18.48,280.8,39.998183678082775,13.5108,63.999385716112954,57.47339642957289,3.1594611696898984,4.52952,4.78224,-0.09740282517223994,-132.5022197019542,-14.197894163341799,24.802537,59.485666,10.454465945975294,56.1679743394794,120.16736005559235,2.5218556005886827,0.0012256997730561337,0.1348523628180676
2026-05-13T18:24:27+03:00,18.48,280.785,35.99893826806962,13.296959999999999,68.86952697472495,61.598692554514805,4.4958279310530305,5.07384,4.78224,0.0,-133.29863103718603,-18.300271976478495,24.802603,59.48569,9.663756986628218,53.97392354729595,122.8434505220209,2.9841962023259847,0.0024776026744458128,0.1373299654925134
2026-05-13T18:24:28+03:00,18.48,280.79,33.00236899953541,13.296959999999999,59.994410728148495,65.63804501018711,4.2046507795675465,4.996079999999999,4.91832,-0.09740282517223994,-133.69970149377758,-21.39997364813625,24.802649,59.485698,9.504877307434182,49.63885910202262,109.63326983017112,3.235477705625746,0.0014839834138137115,0.1388139489063271
2026-05-13T18:24:29+03:00,18.48,280.798,31.002746294528848,13.608,74.65067112759496,68.90963402038412,2.8015344350716735,4.996079999999999,4.84056,0.09740282517223994,-131.402140735303,-22.500052614787425,24.802657,59.485698,9.67419031893294,46.42938615782779,121.08005728542275,3.4435383277643212,0.0002441591907306968,0.1390581080970578
2026-05-13T18:24:30+03:00,18.45,280.8,30.0000701530499,14.502239999999999,76.43256987045181,70.93217503719592,1.899985344433323,4.957199999999999,4.859999999999999,-0.40107045659157625,-127.79823620393013,-21.801044104727822,24.80274,59.48571,10.505754573047705,43.64642181038718,120.078991680839,3.5870937924748416,0.0026338408794362492,0.14169194897649404
2026-05-13T18:24:31+03:00,18.33,280.805,30.0000701530499,14.696639999999999,76.99979808763133,72.22133007624026,1.200002806121996,4.89888,4.93776,-0.20053522829578813,-125.30014021715974,-20.09935945318928,24.802737,59.48571,10.737213208239243,43.18687892256759,120.18667701019892,3.5718977107185146,9.155966396355816e-05,0.1417835086404576
2026-05-13T18:24:32+03:00,18.33,280.8,28.997394011570965,15.29928,79.99636735616555,56.69990340614627,0.9000021045914972,4.78224,5.22936,-0.09740282517223994,-121.90250049203395,-18.999280486538098,24.802777,59.485713,11.355692808152943,40.77724778989176,120.77361514605731,3.621372616235879,0.0012340413311499364,0.14301754997160754
2026-05-13T18:24:33+03:00,18.33,280.805,28.000447448043335,15.20208,76.99979808763133,60.09754313127205,0.6999825383113268,4.89888,5.42376,0.0,-118.69966641725263,-18.500807204774283,24.802877,59.485724,11.117149047566919,39.94003702127722,116.93983510890855,3.756053272689527,0.0031227866386178377,0.14614033661022538
2026-05-13T18:24:34+03:00,18.33,280.8,28.997394011570965,14.696639999999999,79.25725180044678,63.79885048781716,1.2999839413723246,5.1710400000000005,4.93776,-0.09740282517223994,-115.19889428900332,-18.90187766136586,24.802921,59.485729,10.478107387824796,42.838980519935745,122.09623232038253,3.79175528729273,0.001376094159435943,0.1475164307696613
2026-05-13T18:24:35+03:00,18.18,280.795,26.997771306564392,15.10488,73.99749924114583,67.2996226160665,1.7000230739326654,4.89888,4.87944,-0.29793805346802804,-111.80125456387754,-19.698288996597704,24.802901,59.485727,10.967688995017905,38.696529359882646,112.69402860102848,3.823420444665253,0.0006221228001377351,0.14813855356979905
2026-05-13T18:24:36+03:00,18.18,280.78,26.00082474303676,14.30784,75.99712194615239,69.70031577766464,2.3000244769936637,5.0544,4.91832,-0.09740282517223994,-108.79895571739203,-20.500429909780856,24.802944,59.485733,10.013241085557603,38.78527548299053,114.78239742914292,3.9398995986376693,0.0013610069217909815,0.14949956049159002
2026-05-13T18:24:37+03:00,18.18,280.795,24.001202038030186,14.21064,87.62816518730811,73.00055267761819,3.0000070153049903,5.0544,5.19048,-0.20053522829578813,-105.09764836084692,-20.597832734953094,24.803053,59.485735,9.811084009624047,36.09714804483559,123.7253132321437,4.084052298761744,0.00332883682617699,0.152828397317767
2026-05-13T18:24:38+03:00,18.18,280.79,20.99890319154467,14.094,79.99636735616555,78.90201796746567,2.3000244769936637,4.82112,4.91832,-0.20053522829578813,-98.8982450175314,-18.197139573354946,24.8031,59.485735,9.747391473346335,31.208067697420887,111.20443505358644,4.123462037548503,0.001434433673936892,0.1542628309917039
2026-05-13T18:24:39+03:00,18.18,280.792,22.998525896551243,14.094,96.22253211427045,84.49981562589382,0.9000021045914972,5.01552,4.7628,-0.29793805346802804,-93.90205304399062,-13.899956109873772,24.803145,59.485733,9.67761340616216,34.68101680097962,130.90354891525007,4.124425648147903,0.0013786452716716144,0.15564147626337552
2026-05-13T18:24:40+03:00,18.18,280.79,24.001202038030186,14.40504,94.99640243269049,86.90050878749194,-1.200002806121996,4.97664,4.93776,0.7620338675239948,-92.69884167421588,-8.863657090673835,24.803136,59.485743,10.064371676847784,35.60442340717043,130.60082583986093,4.046286100980605,0.0006608647220793965,0.15630234098545492
2026-05-13T18:24:41+03:00,18.18,280.792,26.00082474303676,14.21064,95.99907857416943,86.29890310260458,-2.199986045963822,4.78224,4.62672,0.5614986392282068,-93.99945586916286,-8.216214782176005,24.803231,59.485733,10.131694453792306,37.942786341741254,133.94186491591068,3.771394688002543,0.0029610367232304523,0.15926337770868537
2026-05-13T18:24:42+03:00,18.03,280.78,24.001202038030186,14.79384,96.99602513769707,85.19882413595342,-1.5000035076524951,4.7628,4.58784,0.7505747116213785,-95.30007006410983,-8.577178193108423,24.803276,59.485734,10.62102431975671,34.51090559323379,131.50693073093086,3.924634667753314,0.0013747087066261815,0.16063808641531155
2026-05-13T18:24:43+03:00,18.03,280.799,18.999280486538098,14.21064,89.9944808811984,85.30195653907695,0.9000021045914972,4.82112,4.60728,0.7792226013779195,-94.40052632575443,-12.582153181072878,24.803271,59.485736,9.778941723770762,28.23535252769119,118.22983340888959,4.247463184915216,0.0001942634933769085,0.16083234990868844
2026-05-13T18:24:44+03:00,18.03,280.79,13.99735893504601,14.094,89.14077376645349,85.89783264601301,0.6999825383113268,4.374,4.5684000000000005,0.5844169510334397,-93.90205304399062,-13.424401139915188,24.803315,59.485737,9.906532855045608,20.12796790562774,109.26874167208123,4.106864025109381,0.0013442185708092936,0.16217656847949774
2026-05-13T18:24:45+03:00,18.03,280.792,13.99735893504601,13.9968,91.99983316415629,84.99828890765764,-1.2999839413723246,4.957199999999999,4.4712,0.8307888029396938,-95.59800811757786,-13.115003930544542,24.803354,59.485736,9.264711497736288,21.433402522995635,113.43323568715192,4.614374623786411,0.0011917914220712755,0.163368359901569
2026-05-13T18:24:46+03:00,18.03,280.79,16.002711218003892,13.7052,90.99715702267736,82.79813097435526,-4.2000098214269865,4.45176,4.510079999999999,0.6073352628386726,-98.49717456093981,-9.642879692051755,24.8034,59.485736,9.505512431611093,23.4209810575924,114.41813808026976,4.084975634592085,0.0014039137669372335,0.16477227366850625
2026-05-13T18:24:47+03:00,18.03,280.798,18.999280486538098,13.5108,72.37029910297427,77.69880659769095,-6.799977704171636,4.4712,4.58784,0.8594366926962348,-104.79971030737887,-9.49391066531774,24.803477,59.485743,9.396609187303767,27.91084789705519,100.28114700002946,3.9510966935501877,0.002387398533859683,0.16715967220236594
2026-05-13T18:24:48+03:00,18.03,280.79,22.998525896551243,13.39416,84.99828890765764,69.90085100596043,-7.699979808763134,4.6655999999999995,4.45176,0.8479775367936184,-113.60034204058832,-11.241431940466752,24.803477,59.48574,9.280198907133775,34.326641987783916,119.32493089544155,3.8530212393755865,0.00018032314918145931,0.1673399953515474
2026-05-13T18:24:49+03:00,18.03,280.795,30.0000701530499,13.19976,78.9994207926379,60.2006755343956,-7.999980510293633,4.58784,4.68504,0.911002894258009,-123.79899079391697,-11.957629184380282,24.803547,59.485764,9.507460812645368,43.96195037701665,122.96137116965456,3.302331628045959,0.0025778309000310698,0.16991782625157847
2026-05-13T18:24:50+03:00,17.92,280.79,37.001614409548566,13.10256,45.29804328304288,49.60095632447536,-8.100018941323475,4.52952,4.68504,0.9682986737710912,-134.70237763525654,-12.51339824565718,24.803565,59.48575,9.869159589781917,53.03619991161396,98.33424319465684,2.7236471163297695,0.0010049522969141174,0.17092277854849258
2026-05-13T18:24:51+03:00,17.88,280.79,43.000482524568284,13.10256,60.99708686962744,37.998560973076195,-8.700020344384471,4.548959999999999,4.74336,0.7849521793292279,-146.70011386529598,-12.398806686631014,24.803607,59.485796,10.256169837607043,60.60783403193983,121.60492090156727,2.2325596425987215,0.003047633754062663,0.17397041230255525
2026-05-13T18:24:52+03:00,17.88,280.78,50.002026781066945,13.10256,53.995542613128784,28.097850273215574,-8.800001479634801,4.74336,4.80168,0.790681757280536,-155.50074559850543,-10.559612164261072,24.803628,59.485774,10.690238851302594,69.87349365082815,123.86903626395693,1.632162211317128,0.001469501750055869,0.1754399140526111
2026-05-13T18:24:53+03:00,17.88,280.795,56.00089489608667,12.79152,45.997051793102486,19.497753768301912,-8.29998121182413,4.723920000000001,5.26824,0.8594366926962348,-163.79717447199974,-9.648609270003062,24.803652,59.485838,10.879350033834742,77.09986267211123,123.09691446521371,1.0546267246634207,0.003916007183692482,0.1793559212363036
2026-05-13T18:24:54+03:00,17.88,280.79,63.002439152585325,12.908159999999999,37.998560973076195,11.201324894807593,-6.699996568921307,4.84056,5.3654399999999995,1.0943493886998723,-171.89879769514957,-9.01262611740785,24.803667,59.485861,11.54656791409407,84.93632505829662,122.93488603137281,0.42724136516662026,0.0014563040699422504,0.18081222530624583
2026-05-13T18:24:55+03:00,17.88,280.79,69.00130726760504,12.59712,26.997771306564392,3.9018425848409057,-4.800011224487984,5.13216,5.03496,1.0771606548459478,-178.90034195164822,-9.069921896920931,24.803677,59.485884,11.77675527644556,93.00816773543653,120.00593904200092,-0.2693271051142602,0.001415764611728598,0.18222798991797443
2026-05-13T18:24:56+03:00,17.73,280.78,75.00017538262475,12.79152,9.688716315662221,358.90076286994764,-2.7999874490248207,5.3654399999999995,5.09328,1.111538122553797,177.3991925284055,-9.115758520531397,24.803688,59.485909,12.525363462407409,99.44206518582556,109.13078150148777,-0.8802016969323346,0.0015397375842509593,0.1837677275022254
2026-05-13T18:24:57+03:00,17.81,280.798,78.00247422911028,12.49992,8.451127478179641,356.0015964265857,-1.899985344433323,5.57928,5.1710400000000005,0.9453803619658584,174.9010965416351,-8.20475562627339,24.803701,59.485935,12.585011090358423,103.70148921849027,112.15261669666991,-1.3215272206604465,0.0016123774882439567,0.18538010499046934
2026-05-13T18:24:58+03:00,17.73,280.79,80.00209693411685,12.402719999999999,13.99735893504601,353.60090326498755,-0.3999818367808277,5.22936,5.1710400000000005,1.0313240312354817,173.19941189009654,-7.511476694165093,24.803754,59.4859,12.59576507132974,104.13555312021339,118.1329120552594,-1.277097507024792,0.0026537327522440854,0.18803383774271343
2026-05-13T18:24:59+03:00,17.73,280.793,82.99866620265107,12.30552,9.998113525032863,4.60085109490051,-0.09138676832336631,5.443199999999999,5.26824,1.0313240312354817,173.4973499435646,-7.2020794847944485,24.803764,59.485926,12.834531287374267,107.89283142571254,117.8909449507454,-1.6723554672549021,0.0015923225286933022,0.18962616027140672
2026-05-13T18:25:01+03:00,17.73,280.785,88.00058775414314,11.99448,7.9984908200262925,6.06189347248411,0.833023338340704,5.26824,5.1710400000000005,1.008405719430249,172.59780620520917,-8.634473972621507,24.803774,59.485982,12.931071665786234,112.02722739451048,120.02571821453677,-1.9758384290801398,0.0021107374394759635,0.19173689771088268
2026-05-13T18:25:03+03:00,17.73,280.793,86.9979116126642,12.091679999999998,7.9984908200262925,7.494287960311168,0.20093629875237973,5.42376,5.3654399999999995,1.1172677005051053,174.29949085674772,-8.903764136332994,24.803787,59.486033,12.990630905990473,111.63947287731959,119.63796369734588,-2.000092952641427,0.0018485607201009719,0.19358545843098365
2026-05-13T18:25:05+03:00,17.73,280.798,84.00134234412998,11.60568,10.995060088560496,8.5599894592545,1.4660844061807503,5.5404,5.03496,1.0943493886998723,174.29949085674772,-8.686040174183281,24.803794,59.486134,12.326737343951512,110.55276929074574,121.54782937930624,-1.9450677055229952,0.0015541877260268175,0.19513964615701046
2026-05-13T18:25:06+03:00,17.73,280.79,82.99866620265107,11.80008,13.99735893504601,9.385048684242886,0.9055597952042661,5.404319999999999,5.151599999999999,1.105808544602489,175.10163176993086,-8.30215845144563,24.803819,59.486109,12.365357107213502,108.70726561138241,122.70462454642842,-1.7333443212856543,0.0016853001279214161,0.19682494628493188
2026-05-13T18:25:07+03:00,17.73,280.793,82.99866620265107,11.99448,10.995060088560496,9.579854334587363,0.7004409045474314,5.5598399999999994,5.01552,1.065701498943331,177.30178970323325,-6.743713248689789,24.803827,59.486134,12.59055172751025,108.99384328784268,119.98890337640317,-1.8095419543350704,0.0015223988298747756,0.19834734511480667
2026-05-13T18:25:09+03:00,17.7,280.793,80.00209693411685,11.39184,11.997736230039438,1.7990874767107847,0.5428775108864551,5.346,4.996079999999999,-0.49847328176381617,-177.80026298499706,-5.202456779787875,24.803862,59.486231,11.713560810235514,106.71135484550788,118.70909107554732,-1.537244090542317,0.001456302493837028,0.1998036476086437
2026-05-13T18:25:10+03:00,17.58,280.79,80.99904349764448,11.29464,14.994305498573642,1.902219879834333,3.2316538518763824,5.28768,4.7628,0.29793805346802804,-177.7028601598248,-5.397262430132355,24.803876,59.486253,11.697913766837072,107.5153679773492,122.50967347592284,-1.5913886138700437,0.0013896844572209152,0.2011933320658646
2026-05-13T18:25:11+03:00,17.58,280.795,76.0028515241037,11.29464,17.996604345059158,4.297183463481174,3.399988852085818,5.20992,4.723920000000001,0.0,-174.79796413851156,-5.998868115019719,24.803895,59.486274,11.235944804726612,102.74111478335854,120.7377191284177,-1.1490279536083579,0.0013890834365765247,0.20258241550244113
2026-05-13T18:25:12+03:00,17.58,280.79,71.99787653613924,11.00304,18.999280486538098,7.500017538262475,3.30000771683549,5.0544,4.80168,-0.20053522829578813,-171.49772723855799,-6.801009028202872,24.803892,59.486251,10.59427821448194,98.98124973541594,117.98053022195404,-0.7890486102862926,0.0013855059991685144,0.20396792150160964
2026-05-13T18:25:13+03:00,17.58,280.785,69.00130726760504,10.692,18.999280486538098,10.101245928156414,2.7000063137744914,4.7628,4.64616,-0.09740282517223994,-169.4007017083792,-7.2020794847944485,24.803934,59.486315,10.025285053985959,95.33051374758485,114.32979423412294,-0.44246822937702635,0.0040548290050248246,0.20802275050663446
2026-05-13T18:25:14+03:00,17.58,280.78,67.99863112612611,10.206,23.995472460078876,12.100868633162985,3.0000070153049903,5.03496,4.74336,-0.09740282517223994,-167.20054377507685,-7.700552766558264,24.803926,59.486292,9.539984910729073,97.2957892962972,121.29126175637607,-0.6393981967842584,0.0014038716282451576,0.20942662213487961
2026-05-13T18:25:15+03:00,17.58,280.79,65.99900842111953,10.303199999999999,26.997771306564392,14.501561794761136,2.3000244769936637,5.03496,4.704479999999999,-0.09740282517223994,-165.0977886669467,-7.9984908200262925,24.803979,59.486355,9.450143349626295,95.12461819389095,122.12238950045534,-0.44973398686181,0.00411778281447152,0.21354440494935115
2026-05-13T18:25:16+03:00,17.47,280.78,63.999385716112954,9.992159999999998,28.997394011570965,16.30064927147192,1.5999846429028237,4.74336,4.80168,1.1573747461642627,-163.29870119023593,-7.924006306659286,24.80397,59.486333,8.988179632071487,92.31452868385291,121.31192269542387,-0.19156135409763397,0.001350595239225381,0.21489500018857652
2026-05-13T18:25:17+03:00,17.43,280.77,63.002439152585325,10.206,30.99701671657754,18.300271976478495,1.5000035076524951,4.957199999999999,4.704479999999999,0.0,-161.2016756600571,-7.098947081670899,24.804029,59.486393,9.099585537748657,92.04151447837422,123.03853119495176,-0.17659336161368025,0.004030989273520011,0.21892598946209652
2026-05-13T18:25:18+03:00,17.43,280.77,61.002816447578745,10.692,28.997394011570965,31.20901110077594,1.0819735003250468,4.89888,4.64616,1.1229972784564135,-158.30250921669514,-7.276563998161455,24.804054,59.486411,9.35600751878009,88.25902959995047,117.25642361152143,0.14883282471397266,0.0013239080936760387,0.22024989755577257
2026-05-13T18:25:19+03:00,17.43,280.792,60.0001403060998,11.00304,33.99931556306306,32.068447793472174,0.7290314985244595,4.80168,4.68504,1.0943493886998723,-157.50036830351198,-7.104676659622208,24.804037,59.486392,9.55458879522893,85.79966443687954,119.79897999994259,0.35169443276521295,0.0012543733130773028,0.22150427086884986
2026-05-13T18:25:20+03:00,17.43,280.79,58.99746416462087,11.197439999999999,39.998183678082775,22.797990668255455,0.8000209693411684,4.548959999999999,4.78224,1.0427831871380984,-157.09929784692042,-6.795279450251563,24.804103,59.486447,9.674872000309767,82.7642446703608,122.76242834844356,0.5729521408276569,0.003871229900434497,0.22537550076928436
2026-05-13T18:25:21+03:00,17.43,280.792,56.99784145961429,11.60568,38.995507536603824,23.800666809734395,1.2999839413723246,4.60728,4.62672,1.082890232797256,-155.2028075450374,-6.445775195221762,24.804128,59.486462,9.882868386287596,80.01265100234758,119.0081585389514,0.7990439165025623,0.0011811223526854177,0.22655662312196978
2026-05-13T18:25:22+03:00,17.43,280.78,56.00089489608667,11.60568,40.9951302416104,25.59975428644518,1.200002806121996,4.74336,4.5684000000000005,0.9052733163067008,-153.70165812179465,-6.972896366742118,24.804127,59.486446,9.778836879698805,79.71294664612635,120.70807688773675,0.8470687085207218,0.0009622075872418792,0.22751883070921167
2026-05-13T18:25:23+03:00,17.28,280.79,56.00089489608667,11.39184,42.99475294661698,26.997771306564392,0.9999832398418258,4.87944,4.510079999999999,1.082890232797256,-152.40104392684768,-5.735307529259541,24.804163,59.486463,9.561277283820475,81.03072726512079,124.02548021173777,0.7607278892808067,0.0015004207765169707,0.22901925148572863
2026-05-13T18:25:24+03:00,17.28,280.79,56.00089489608667,11.702879999999999,45.997051793102486,28.997394011570965,0.9000021045914972,4.93776,4.374,1.0370536091867901,-150.29828881871757,-5.357155384473197,24.804217,59.486513,9.834292761686108,80.59964224539087,126.59669403849335,0.8064948206569635,0.0034275890259727513,0.2324468405117014
2026-05-13T18:25:25+03:00,17.28,280.802,56.00089489608667,11.89728,42.99475294661698,30.699078663109514,0.3999818367808277,4.64616,4.548959999999999,1.1459155902616465,-148.99767462377056,-6.663499157371475,24.804246,59.486528,10.065429273511159,78.5009488967246,121.49570184334158,0.9262199199895848,0.0012634216267118114,0.2337102621384132
2026-05-13T18:25:26+03:00,17.28,280.79,56.00089489608667,11.80008,44.99437565162355,30.802211066233056,-0.5000202678106694,4.393439999999999,4.5684000000000005,1.208940947726037,-149.59928030865794,-7.299482309966689,24.804254,59.486505,10.028216863713338,77.29846092102343,122.29283657264699,0.9659962369402374,0.0014038713604232673,0.23511413349883648
2026-05-13T18:25:27+03:00,17.28,280.793,56.00089489608667,11.60568,45.997051793102486,29.10052641469451,0.09998113525032865,4.41288,4.60728,1.2662367272391195,-151.19783255707296,-7.391155557187619,24.804304,59.486563,9.843226330279059,77.81985541550128,123.81690720860377,0.9310561986428192,0.003805583694835718,0.2389197171936722
2026-05-13T18:25:28+03:00,17.28,280.79,58.000517601093236,11.508479999999999,41.99780638308934,28.802588361226483,-0.09998113525032865,4.68504,4.6655999999999995,1.1229972784564135,-150.8998945036049,-6.6463104235175505,24.804336,59.48658,9.861617186849866,81.75958221840249,123.75738860149183,0.671493240808807,0.0014134740822721132,0.2403331912759443
2026-05-13T18:25:29+03:00,17.25,280.788,58.99746416462087,11.39184,41.99780638308934,29.39846446816254,-0.2000195662801704,4.510079999999999,4.60728,1.1974817918234204,-150.4014212218411,-6.881223119521186,24.804329,59.486548,9.858375956435031,82.08472347004323,124.08252985313257,0.6210769671849645,0.0019352745231171653,0.24226846579906147
2026-05-13T18:25:30+03:00,17.13,280.79,60.0001403060998,11.39184,41.99780638308934,29.39846446816254,-0.300000701530499,4.78224,4.60728,0.9969465635276323,-150.69935927530912,-6.233780811023356,24.804349,59.486563,9.90785325636972,84.70893440376203,126.70674078685137,0.44099578345217744,0.001088796455427995,0.24335726225448948
2026-05-13T18:25:32+03:00,17.13,280.78,60.0001403060998,11.508479999999999,39.998183678082775,29.10052641469451,-0.09998113525032865,4.704479999999999,4.6655999999999995,1.0026761414789407,-150.69935927530912,-5.162349734128718,24.804404,59.486602,10.021779264619935,83.98750001612184,123.98568369420462,0.49277278766768223,0.0018370413146080956,0.24519430356909758
2026-05-13T18:25:33+03:00,17.13,280.78,61.99976301110639,11.80008,40.9951302416104,29.598999696458325,-0.09998113525032865,4.87944,4.58784,1.1401860123103382,-150.4014212218411,-6.016056848873643,24.804432,59.48662,10.439738465835195,86.37311734740699,127.36824758901739,0.3086674095741058,0.001378702375158272,0.24657300594425585
2026-05-13T18:25:35+03:00,17.06,280.774,61.99976301110639,11.89728,38.995507536603824,29.702132099581874,0.0,4.723920000000001,4.60728,1.105808544602489,-150.29828881871757,-6.056163894532801,24.804539,59.486697,10.539923543417542,85.31127708140795,124.30678461801178,0.38614430633114827,0.0013518337237055941,0.24792483966796144
2026-05-13T18:25:36+03:00,16.98,280.78,65.99900842111953,12.30552,37.998560973076195,29.702132099581874,-0.09998113525032865,4.996079999999999,4.548959999999999,1.1573747461642627,-150.29828881871757,-6.016056848873643,24.804567,59.486713,11.24156905965301,89.9530054255713,127.9515663986475,0.00409783458889211,0.001286521052871853,0.2492113607208333
2026-05-13T18:25:37+03:00,16.98,280.783,69.00130726760504,12.402719999999999,39.998183678082775,29.702132099581874,-0.09998113525032865,4.78224,4.45176,1.2032113697747289,-150.29828881871757,-6.1936737653642,24.804544,59.486694,11.583963410054627,91.67087530620016,131.66905898428294,-0.13944123398561417,0.0013405169513475358,0.25055187767218084
2026-05-13T18:25:38+03:00,16.98,280.78,71.00092997261162,12.20832,39.998183678082775,29.902667327877666,-0.5000202678106694,4.91832,4.43232,1.1287268564077217,-150.09775359042175,-5.660823015892533,24.804619,59.486745,11.581782545842524,94.67455209573612,134.67273577381889,-0.40082264117950156,0.0038257574302737675,0.2543776351024546
2026-05-13T18:25:39+03:00,16.98,280.783,67.99863112612611,11.89728,37.998560973076195,29.50159687128609,-0.600001403060998,4.84056,4.35456,1.0313240312354817,-150.6019564501369,-5.723848373356923,24.804604,59.486732,11.037523727431985,91.99113307709214,129.98969405016834,-0.16818445153584569,0.0009056229818854122,0.25528325808434
2026-05-13T18:25:40+03:00,16.98,280.78,65.0020618575919,11.702879999999999,36.99588483159726,28.699455958102938,-0.3999818367808277,4.7628,4.43232,1.1000789666511805,-151.9999734702561,-6.170755453558966,24.804673,59.486778,10.608162118382156,89.01333647256682,126.00922130416407,0.08201387314333206,0.003475543045261327,0.2587588011296013
2026-05-13T18:25:41+03:00,16.87,280.793,61.99976301110639,11.508479999999999,36.99588483159726,28.29838550151136,-0.2000195662801704,4.80168,4.374,1.111538122553797,-151.90257064508384,-5.529042723012444,24.804702,59.486795,10.179135821610135,86.61365400956001,123.60953884115727,0.28362795793307144,0.0013518320426261579,0.2601106331722275
2026-05-13T18:25:42+03:00,16.83,280.78,61.99976301110639,11.508479999999999,37.998560973076195,29.10052641469451,-0.09998113525032865,4.78224,4.35456,1.1344564343590302,-150.6019564501369,-4.669606030316209,24.80469,59.486784,10.180302609213577,86.50443468202425,124.50299565510045,0.29157931279303206,0.0007558357124602202,0.26086646888468773
2026-05-13T18:25:43+03:00,16.83,280.78,61.002816447578745,11.39184,38.995507536603824,29.197929239866756,0.0,4.35456,4.29624,1.0427831871380984,-151.19783255707296,-6.073352628386726,24.804754,59.48683,10.03200417484188,83.31505174095935,122.31055927756317,0.5069135663570129,0.003385262586642531,0.26425173147133024
2026-05-13T18:25:44+03:00,16.83,280.77,61.99976301110639,11.00304,35.99893826806962,28.000447448043335,0.300000701530499,4.257359999999999,4.548959999999999,1.1401860123103382,-152.29791152372414,-6.1421075638024245,24.804778,59.486847,9.757453620018664,84.65876031752026,120.65769858558988,0.39630595370280053,0.0012572295384666314,0.2655089610097969
2026-05-13T18:25:45+03:00,16.83,280.786,61.002816447578745,11.10024,38.995507536603824,27.501974166279513,0.300000701530499,4.43232,4.393439999999999,1.1860226359208041,-153.10005243690728,-6.480152662929611,24.80477,59.486833,9.754995192814878,84.41897241851056,123.41447995511439,0.4310579399133386,0.0008762108439088704,0.26638517185370575
2026-05-13T18:25:46+03:00,16.83,280.78,61.99976301110639,11.197439999999999,37.998560973076195,27.599376991451756,0.0,4.21848,4.31568,1.180293057969496,-152.2005086985519,-5.861358244188322,24.804794,59.486849,9.941117022814202,84.00399370725498,122.00255468033117,0.440658799298264,0.001208883407360066,0.26759405526106583
2026-05-13T18:25:47+03:00,16.76,280.783,61.002816447578745,11.702879999999999,37.998560973076195,27.702509394575305,-0.09998113525032865,4.45176,4.41288,1.065701498943331,-152.29791152372414,-6.216592077169432,24.80482,59.486867,10.308463681954953,83.19528322717387,121.19384420025007,0.5274699533380587,0.0013417221507705432,0.2689357774118364
2026-05-13T18:25:48+03:00,16.68,280.78,61.99976301110639,11.508479999999999,39.998183678082775,27.100903709687937,-1.1000216708716675,4.33512,4.4712,1.0198648753328654,-153.1974552620795,-6.182214609461583,24.80485,59.486883,10.21731558438742,84.0009821084627,123.99916578654546,0.45306953027765406,0.0013278446389255868,0.270263622050762
2026-05-13T18:25:49+03:00,16.68,280.773,63.002439152585325,11.39184,41.99780638308934,26.00082474303676,-1.5999846429028237,4.4712,4.45176,1.1344564343590302,-154.40066663185422,-5.832710354431781,24.804881,59.4869,10.174542882473846,86.05410710658666,128.051913489676,0.30768292741120634,0.0013925562125513267,0.2716561782633133
2026-05-13T18:25:50+03:00,16.68,280.78,63.999385716112954,11.29464,36.99588483159726,24.20173726632597,-1.7000230739326654,4.43232,4.33512,1.0542423430407146,-156.89876261862463,-6.703606203030633,24.804905,59.486914,10.164762187616894,87.07308983819583,124.06897466979308,0.22632314123388828,0.001115625717515915,0.2727718039808292
2026-05-13T18:25:51+03:00,16.68,280.78,69.00130726760504,11.60568,36.99588483159726,21.801044104727822,-0.2000195662801704,4.4712,4.33512,1.277695883141736,-158.6978500953354,-7.167702017086597,24.804931,59.486929,10.839431674539497,91.65123415925761,128.64711899085486,-0.1288397901511194,0.00120105584540317,0.2739728598262323
2026-05-13T18:25:52+03:00,16.68,280.77,67.99863112612611,11.60568,33.99931556306306,21.199438419840458,0.3999818367808277,4.60728,4.21848,0.9281916281119336,-159.098920551927,-7.912547150756669,24.804951,59.486945,10.763622843508575,91.38125674029273,125.38057230335579,-0.11105914282111388,0.0011390655673721858,0.2751119253936045
2026-05-13T18:25:53+03:00,16.53,280.783,73.00055267761819,11.508479999999999,32.28044217767058,20.299894681485068,0.6999825383113268,4.548959999999999,4.43232,0.9224620501606254,-159.5973938336908,-7.740659812217421,24.804976,59.486963,11.06918483374612,96.14193607399618,128.42237825166677,-0.4867015149113135,0.0013239009063552305,0.2764358262999598
2026-05-13T18:25:54+03:00,16.53,280.78,76.0028515241037,11.80008,29.994340575098594,20.09935945318928,0.9999832398418258,4.45176,4.374,1.111538122553797,-159.90106146511013,-8.852197934771219,24.805001,59.486982,11.56063451315314,97.94346326963031,127.9378038447289,-0.6152149097752171,0.001373459741317158,0.2778092860412769
2026-05-13T18:25:55+03:00,16.53,280.783,76.0028515241037,11.99448,31.999692858056477,20.299894681485068,1.2999839413723246,4.4712,4.43232,0.9511099399171665,-160.10159669340592,-10.616907943774153,24.805023,59.487,11.743762300316035,97.68301507666207,129.68270793471856,-0.597765502097499,0.0012733365360784509,0.2790826225773554
