time,dpt,mtw,awa,aws,cog,hdg,rot,sog,stw,pitch,yaw,roll,lng,lat,tws,twa,twd,vmg,dist,cum_dist
2025-09-24T17:28:03+03:00,,283.65,-108.99863150899512,17.398799999999998,86.9979116126642,73.90009641597358,-9.1000021811653,7.83432,6.2208000000000006,-3.0997016716577535,-108.90208812051559,29.10052641469451,24.820351,59.474454,21.280121965148847,129.36962170546963,317.6282899071946,-4.969471500689564,0.0027516547210723187,0.0027516547210723187
2025-09-24T17:28:09+03:00,,283.65,-69.00044783091235,18.895680000000002,57.99478802314193,63.50091243434914,-3.9000091198964877,6.72624,6.95952,-3.9018425848409057,-118.6022635920804,22.700587843083216,24.820748,59.474587,17.640747899782422,89.85310210753991,328.141685915602,0.017245064227966747,0.0034877106606576885,0.006239365381730007
2025-09-24T17:28:11+03:00,,283.65,-59.999280869407116,17.90424,42.920268433249966,56.298832949554686,-5.79999446432981,7.07616,7.01784,-3.9992454100131463,-125.30014021715974,23.30219352797058,24.820839,59.47463,15.61850918591621,83.10075274724356,319.8195156860064,0.8500152007271548,0.003794580799500853,0.01003394618123086
2025-09-24T17:28:19+03:00,,283.65,-61.99890357441368,18.195839999999997,44.99437565162355,54.098675016252336,0.0,7.2122399999999995,7.056719999999999,-0.8995437383553924,-124.49799930397657,18.500807204774283,24.820951,59.474621,16.120808349083173,85.26582878736298,319.7285468642606,0.5952470014080163,0.0034618778577816894,0.01349582403901255
2025-09-24T17:28:23+03:00,,283.65,-61.00195701088606,20.10096,36.07915235938794,48.90194781441576,-2.1000049107134933,6.201359999999999,6.8623199999999995,-3.002298846485514,-132.19855207053484,21.801044104727822,24.821092,59.47477,17.9345108342784,78.60557099434071,317.4735813650472,1.2251532426286813,0.0035133364207274643,0.017009160459740016
2025-09-24T17:28:25+03:00,,283.65,-54.00041275438739,20.606399999999997,34.996262126590686,42.59941206797671,-3.2000265815851607,7.23168,6.7068,-1.1000789666511805,-139.29749915220575,24.20173726632597,24.821191,59.474768,17.370677620224978,73.68292988553382,321.31333224105686,2.0317596669237137,0.0030248375885925747,0.020033998048332592
2025-09-24T17:28:29+03:00,,283.65,-46.0019219343611,22.60872,24.99814860155782,37.001614409548566,-2.9000258800546614,6.82344,6.92064,-3.5007721282493303,-143.19934173704664,17.102790184655074,24.821251,59.474934,18.53084333352662,61.362004735665536,323.6361438658923,3.2702972490682094,0.0036356007767248634,0.023669598825057456
2025-09-24T17:28:31+03:00,,283.65,-42.999623087875584,22.20048,21.995849755072307,32.49816613982029,-1.5999846429028237,6.29856,6.804,-3.3976397251257815,-146.90064909359177,18.500807204774283,24.821341,59.474934,18.1107701609123,56.71999541354316,325.27585434152917,3.4562157551311588,0.0027476663960895906,0.026417265221147047
2025-09-24T17:28:35+03:00,,283.65,-42.002676524347955,24.202799999999996,10.318969890306127,26.201359971332543,-2.3000244769936637,5.326560000000001,6.57072,-1.3006141949469687,-157.79830635698005,10.800254438216017,24.821338,59.475102,20.555944043499185,51.988092298052095,318.330877592254,3.280230054176922,0.003268884000223549,0.029686149221370597
2025-09-24T17:28:37+03:00,,283.65,-37.9977015363835,22.29768,17.996604345059158,17.200193009827313,-0.3999818367808277,6.39576,6.43464,1.501149423242757,-166.30100003672143,12.599341914926804,24.821439,59.475089,17.701069091032533,50.85007156057401,327.14653278448515,4.037974760284776,0.0031809464380357475,0.03286709565940635
2025-09-24T17:28:41+03:00,,283.65,-37.00075497285587,22.20048,11.997736230039438,18.397674801650734,-6.09999516586031,5.5598399999999994,6.0652800000000004,-1.7990874767107847,-165.0003858417745,9.900710699860626,24.821418,59.475243,18.072690584530505,47.6702943566861,324.32744187335334,3.743973422431554,0.0030091409718707067,0.03587623663127706
2025-09-24T17:28:43+03:00,,283.65,-33.99845612637036,20.5092,10.995060088560496,11.098192491684046,-4.899992359738313,4.374,5.69592,-6.302535746439056,-168.79909602349184,8.19902604832208,24.821479,59.475222,17.059165014731935,42.24149125612368,328.7535688324368,3.23815079884442,0.0022497627380424286,0.038125999369319485
2025-09-24T17:28:45+03:00,,283.65,-31.99883342136378,19.303919999999998,358.9981656951199,1.598552248414997,0.600001403060998,4.02408,5.346,1.0026761414789407,178.69980672335248,6.399938571611295,24.821488,59.475262,16.033690763788567,39.641412010162696,319.3567536849572,3.098752167393102,0.002419957735780921,0.04054595710510041
2025-09-24T17:28:47+03:00,,283.65,-29.999210716357208,20.8008,16.621505636745184,358.4996924133561,4.299990956677315,3.6935999999999996,5.09328,1.3980170201192088,177.3991925284055,6.600473799907084,24.821423,59.475357,17.69863626628889,35.98861433990385,340.6328912968413,2.988616535249746,0.002560082359316632,0.04310603946441704
2025-09-24T17:28:52+03:00,,283.65,-33.99845612637036,19.59552,1.9996227050065731,9.797578296737077,1.899985344433323,4.276800000000001,4.33512,1.3006141949469687,-171.10238635991774,13.401482828109954,24.821521,59.475498,16.22701612539366,42.473305475279346,319.5263172297272,3.154533547803772,0.0022054804193730303,0.04531151988379007
2025-09-24T17:28:56+03:00,,284.15,-33.99845612637036,20.39256,11.997736230039438,15.601640761412316,-0.8000209693411684,4.393439999999999,4.4712,2.200157933302361,-166.79947331848524,18.099736748182707,24.821556,59.475571,16.929364475026,42.34231813750904,329.6554180925304,3.247340056796753,0.0031284323248208343,0.04843995220861091
2025-09-24T17:29:00+03:00,,284.15,-31.99883342136378,20.19816,17.939308565546074,11.900333404867197,2.3000244769936637,4.62672,4.78224,-3.300236899953542,-164.7998506134787,11.79720100174365,24.821559,59.475647,16.45806525710897,40.56589933080582,337.3734092347403,3.5147271447951796,0.0031206968971221787,0.05156064910573309
2025-09-24T17:29:03+03:00,,284.15,-29.999210716357208,21.40344,12.99468279356707,15.20057030482074,-1.1000216708716675,5.2488,4.957199999999999,-0.09740282517223994,-164.50191256001065,16.501184499767707,24.821484,59.475791,17.060858561494403,38.847700013099,334.1469827804681,4.087849595479717,0.002845359335502916,0.054406008441236005
2025-09-24T17:29:05+03:00,,284.15,-31.00188685783615,20.10096,6.995814678547352,13.99735893504601,3.2000265815851607,4.68504,5.03496,1.3980170201192088,-164.89725343865092,11.098192491684046,24.821581,59.475789,16.265176934559832,39.53380128151133,327.462013397036,3.6133333464608803,0.0029637378462961383,0.05736974628753214
2025-09-24T17:29:07+03:00,,284.15,-33.99845612637036,22.394879999999997,7.9984908200262925,15.49850835828877,-0.600001403060998,5.5404,5.07384,1.598552248414997,-167.00000854678103,12.198271458335228,24.821598,59.475837,18.069162352563797,43.87081953212703,324.12767128789926,3.994097432817934,0.0029314772624781417,0.06030122355001029
2025-09-24T17:29:10+03:00,,284.15,-33.00150956284272,22.00608,7.9984908200262925,17.89920151988692,-1.7000230739326654,4.64616,5.07384,-3.3976397251257815,-161.29907848522936,14.902632251352712,24.821605,59.475887,18.28550286482109,40.95636733038802,327.04212348963824,3.5088217193165843,0.0030129739903018878,0.06331419754031217
2025-09-24T17:29:12+03:00,,284.15,-33.99845612637036,22.394879999999997,0.9969465635276323,17.801798694714677,0.3999818367808277,4.80168,5.09328,-0.29793805346802804,-163.20129836506368,14.197894163341799,24.821613,59.475932,18.608752439444213,42.29431561823205,318.7026309452956,3.551792428580101,0.0027158510373645793,0.06603004857767675
2025-09-24T17:29:14+03:00,,284.15,-35.99807883137692,22.60872,15.830823879464644,17.801798694714677,0.5000202678106694,5.13216,5.20992,-2.4006931615981495,-159.70052623681437,16.501184499767707,24.821626,59.47598,18.701489010589537,45.2801869365193,330.55063694294535,3.6111954102455983,0.002912338657316781,0.06894238723499353
2025-09-24T17:29:16+03:00,,284.15,-37.00075497285587,22.394879999999997,17.137167652362923,15.699043586584558,3.6999895536163168,5.50152,5.20992,-0.40107045659157625,-163.0007631367679,18.099736748182707,24.821642,59.47602,18.303173074736783,47.42265919987662,329.7145084524863,3.722244846395027,0.002453424531812627,0.07139581176680616
2025-09-24T17:29:18+03:00,,284.15,-35.00113226784929,22.20048,17.996604345059158,19.497753768301912,-1.4000223724021665,5.48208,5.346,1.1974817918234204,-159.2994557802228,22.29951738649164,24.821673,59.476063,17.986878241094114,45.06936289270655,332.92724145235263,3.871720272332897,0.002752448125257818,0.07414825989206399
2025-09-24T17:29:22+03:00,,284.15,-37.00075497285587,21.79224,11.997736230039438,21.697911701604276,-1.5000035076524951,5.38488,5.50152,-4.898789148368539,-156.49769216203305,20.597832734953094,24.821623,59.476217,17.789407079071104,47.49714001281791,324.5005962172215,3.6381703674255856,0.003031476541424455,0.07717973643348844
2025-09-24T17:29:24+03:00,,284.15,-39.997324241390075,21.092399999999998,9.998113525032863,23.600131581438607,-0.300000701530499,4.859999999999999,5.57928,-3.5007721282493303,-153.79906094696688,17.801798694714677,24.821652,59.476273,17.64793998918094,50.19268310129175,319.8054304237411,3.111409942622006,0.003480513216571752,0.08066024965006019
2025-09-24T17:29:26+03:00,,284.15,-41.00000038286902,20.39256,16.99965778153153,21.89844692990006,-6.60001543367098,6.10416,5.67648,-2.6986312150661775,-158.6978500953354,20.90150036637243,24.821673,59.476327,16.285748624900993,55.235113659140865,321.76454412239065,3.480654417113867,0.003308523891849552,0.08396877354190974
2025-09-24T17:29:28+03:00,,284.15,-33.99845612637036,20.7036,0.590146528984748,16.902254956359283,3.099988150555319,5.326560000000001,5.87088,1.3980170201192088,-165.80252675495763,13.699420881577984,24.821678,59.476377,16.557691744249478,44.36143027549517,316.22871625348955,3.8081894981711732,0.003009259614812134,0.08697803315672187
2025-09-24T17:29:30+03:00,,284.15,-35.00113226784929,19.809359999999998,9.998113525032863,22.901123071379004,1.5999846429028237,5.81256,5.832,-2.899166443361966,-154.89913991361806,18.099736748182707,24.821707,59.476423,15.412975271451055,47.49375747559745,322.5043560494354,3.9273755068524334,0.0029032341852950816,0.08988126734201694
2025-09-24T17:29:32+03:00,,284.15,-39.997324241390075,19.10952,16.988198625628907,25.198683829853607,-1.5000035076524951,6.39576,5.773680000000001,-3.3976397251257815,-154.80173708844583,19.600886171425465,24.821735,59.476472,14.792579457681555,56.132349765835244,320.8558488597937,3.564206024467911,0.0030668112415051193,0.09294807858352207
2025-09-24T17:29:34+03:00,,284.15,-39.00037767786244,19.90656,17.996604345059158,27.501974166279513,2.9000258800546614,5.6181600000000005,6.08472,-0.09740282517223994,-150.99729732877717,21.697911701604276,24.821757,59.476528,15.937581653099667,51.817720743401594,326.17888360165756,3.472951628054901,0.003432382048704014,0.09638046063222608
2025-09-24T17:29:36+03:00,,284.15,-37.9977015363835,20.39256,13.99735893504601,30.699078663109514,-2.6000251785241626,6.492959999999999,6.29856,-1.7990874767107847,-148.6023337451303,22.2021145613194,24.821851,59.476521,15.790203185085943,52.66158111328525,321.33577782176076,3.9381208622815076,0.002900331685082488,0.09928079231730856
2025-09-24T17:29:38+03:00,,284.15,-39.997324241390075,20.7036,8.995437383553925,26.90036848139215,-1.4000223724021665,6.1624799999999995,6.318,-2.6986312150661775,-154.1027285783862,14.398429391637588,24.821863,59.476579,16.46618335751892,53.916345935152975,315.07909144840096,3.629490096488796,0.0035054422716086003,0.10278623458891716
2025-09-24T17:29:42+03:00,,284.15,-33.99845612637036,20.9952,7.368237245382387,21.89844692990006,2.7999874490248207,5.57928,6.318,0.6990085100596044,-157.59777112868423,16.30064927147192,24.821897,59.476695,16.66431778204818,44.78861144704308,322.5796257983393,3.9596751666209737,0.0028721523384882502,0.10565838692740541
2025-09-24T17:29:44+03:00,,284.15,-37.00075497285587,20.7036,20.99890319154467,19.497753768301912,-1.2999839413723246,6.2208000000000006,6.35688,1.1000789666511805,-161.9006841701167,21.89844692990006,24.821925,59.476748,16.17473937487386,50.383911814637855,330.6149913769068,3.966632892837755,0.0032983932253115916,0.108956780152717
2025-09-24T17:29:48+03:00,,284.15,-35.00113226784929,20.7036,353.96186667592,20.700965138076644,-3.50002728311566,5.773680000000001,6.27912,0.20053522829578813,-163.20129836506368,16.30064927147192,24.821868,59.47691,16.31382510489868,46.71369932330359,307.2481673526164,3.9586909211621064,0.0031862939976944364,0.11214307415041143
2025-09-24T17:29:50+03:00,,284.15,-35.99807883137692,20.606399999999997,351.9966214386213,11.201324894807593,3.30000771683549,6.39576,6.2208000000000006,0.6990085100596044,-171.6982624668538,2.8017636181897254,24.821863,59.476965,15.883254256386309,49.68842320077141,302.30819823784987,4.137697699970298,0.003309446304907778,0.1154525204553192
2025-09-24T17:29:52+03:00,,284.15,-33.00150956284272,18.99288,9.127217676434014,8.600096504913656,-3.099988150555319,4.374,6.08472,-3.0997016716577535,-172.99887666180075,8.800631733209444,24.821873,59.477012,15.508670984502064,41.837926732470436,327.2892909439636,3.258781461347416,0.002841509031044548,0.11829402948636375
2025-09-24T17:29:54+03:00,,284.15,-35.00113226784929,18.50688,12.009195385942055,12.599341914926804,0.8000209693411684,5.07384,5.96808,-0.29793805346802804,-165.89992958012988,9.001166961505232,24.821888,59.477057,14.642823544838942,46.46522788582877,325.5439675001133,3.494833947499981,0.0027433347552041293,0.12103736424156789
2025-09-24T17:29:56+03:00,,284.15,-37.9977015363835,19.303919999999998,5.998868115019719,9.700175471564837,0.0,4.91832,5.598719999999999,1.7990874767107847,-174.9010965416351,9.098569786677473,24.821903,59.477097,15.722421144468782,49.1012415556722,316.8976265593475,3.2201442821541364,0.0024475266252112883,0.12348489086677918
2025-09-24T17:29:58+03:00,,284.15,-33.99845612637036,18.798479999999998,349.0401592157462,10.198648753328653,0.5000202678106694,4.0629599999999995,5.38488,3.5007721282493303,-173.10200906492432,8.19902604832208,24.821917,59.47714,15.596429211965432,42.37437129517613,306.6657879205701,3.0015396765665376,0.0026197292485303377,0.1261046201153095
2025-09-24T17:30:00+03:00,,284.15,-37.00075497285587,18.798479999999998,15.647477385022782,11.699798176571411,2.000023775463165,4.00464,5.1710400000000005,-0.6016056848873644,-170.39764827190683,11.201324894807593,24.821935,59.477182,15.785334795996194,45.782985853970416,329.86449153105235,2.7927476768334034,0.002583634821256668,0.1286882549365662
2025-09-24T17:30:02+03:00,,284.15,-39.997324241390075,17.3016,21.995849755072307,28.89999118639872,2.6000251785241626,4.704479999999999,5.01552,-2.6986312150661775,-147.1985871470598,24.499675319793997,24.821977,59.477217,14.027408362695297,52.44597947563658,329.5498702794357,2.8674236550253593,0.002463692048697395,0.13115194698526358
2025-09-24T17:30:03+03:00,,284.15,-48.99849120289531,15.804720000000001,30.200605381345692,37.001614409548566,-8.700020344384471,5.42376,5.0544,-2.200157933302361,-142.29979799869125,32.80183377123963,24.822027,59.477255,12.91227543294452,67.48045329013095,322.72015209121474,2.0772924634068217,0.0027471639128469694,0.13389911089811055
2025-09-24T17:30:05+03:00,,284.15,-39.997324241390075,18.50688,20.99890319154467,23.898069634906637,-20.600009974574593,4.64616,5.151599999999999,2.6986312150661775,-159.2994557802228,20.700965138076644,24.82212,59.477233,15.242971065315015,51.295509081048465,329.7033941104962,2.905261622266907,0.003131921122243922,0.13703103202035447
2025-09-24T17:30:07+03:00,,284.15,-25.99996530634406,22.20048,324.9988501320569,336.20017502686443,-21.09997294660575,5.7348,5.19048,1.1974817918234204,140.99918380374427,3.5981749534215695,24.822103,59.477281,17.230458077447437,34.38951251979708,290.60933761225976,4.732453858704554,0.002931473335115773,0.13996250535547025
2025-09-24T17:30:11+03:00,,284.15,37.998560973076195,16.09632,244.99675319794,231.80153517607715,-12.000028061219961,4.43232,4.0824,0.40107045659157625,45.20064045787065,-18.999280486538098,24.821815,59.477272,12.89554297718711,50.21480314672809,295.2115563446681,2.836291128373895,0.0022916409480819478,0.1422541463035522
2025-09-24T17:30:13+03:00,,284.15,80.99904349764448,15.396479999999999,211.9943841984046,212.09751660152813,-10.099985421007126,3.5575200000000002,4.04352,3.300236899953542,28.699455958102938,-17.29759583499955,24.821778,59.477232,15.250209160362536,94.3199113907717,306.31429558917625,-0.2679711310468064,0.0026564097129171452,0.14491055601646935
2025-09-24T17:30:15+03:00,,284.15,99.00137742065495,15.20208,204.99856951985726,209.5020177895855,-0.600001403060998,5.81256,4.58784,1.0026761414789407,26.797236078268604,-12.398806686631014,24.821751,59.477187,17.103780993814848,118.6137727889103,323.61234230876755,-2.7836518061712976,0.0028276452058229556,0.1477382012222923
2025-09-24T17:30:17+03:00,,284.15,105.00024553567467,14.59944,206.9981922248638,210.49896435311317,0.5000202678106694,6.55128,5.01552,1.701684651538545,30.49854343481372,-15.699043586584558,24.821724,59.477135,17.480652587758424,126.22348472536865,333.22167695023245,-3.87138968465883,0.003232454790557424,0.15097065601284973
2025-09-24T17:30:19+03:00,,284.15,108.99949094568781,13.39416,195.99740255835198,213.50126319959867,1.200002806121996,7.03728,5.48208,-0.6990085100596044,35.901535442897384,-18.70134243307007,24.821746,59.477103,17.03820267072965,131.98686302912995,327.9842655874819,-4.707660222203153,0.0020373281137484904,0.15300798412659822
2025-09-24T17:30:23+03:00,,284.15,101.99794668918915,15.20208,199.99664796836515,223.29884149633574,1.2999839413723246,6.24024,6.1236,0.40107045659157625,42.59941206797671,-20.597832734953094,24.821574,59.476965,17.592160501032453,122.2999420792638,322.29659004762897,-3.33448157258459,0.003842697195427353,0.15685068132202556
2025-09-24T17:30:25+03:00,,284.15,97.00175471564837,15.49368,213.99973648136248,224.50205286611046,2.7999874490248207,7.03728,6.39576,-1.3980170201192088,46.701789881113406,-18.79874525824231,24.821515,59.47691,17.7808803893491,120.13223457344213,334.1319710548046,-3.5326962030404365,0.003764737121264817,0.1606154184432904
2025-09-24T17:30:27+03:00,,284.15,86.00096504913657,16.407359999999997,216.9963057498967,231.60099994778136,-1.5999846429028237,6.6679200000000005,6.6679200000000005,2.1027551081301215,49.19988586788379,-25.89769233991321,24.821425,59.476859,17.274349937837087,108.64851623215267,325.6448219820494,-2.132145666746738,0.004116557967768031,0.1647319764110584
2025-09-24T17:30:29+03:00,,284.15,78.00247422911028,16.69896,210.99743763487695,232.7984817396048,4.2000098214269865,6.6095999999999995,6.8623199999999995,-2.498095986770389,54.90081592943548,-24.098604863202425,24.821466,59.476825,16.632965520915715,100.8760706824184,311.8735083172953,-1.2471344645728257,0.002396490878050208,0.16712846728910863
2025-09-24T17:30:35+03:00,,284.15,76.99979808763133,17.398799999999998,208.9978149298704,219.40272848944613,0.9000021045914972,8.04816,6.9984,-0.8995437383553924,37.20214963784435,-18.300271976478495,24.821189,59.476657,17.44967392114587,103.70497972463255,312.70279465450295,-1.9067908718705868,0.0021046558801261065,0.16923312316923472
2025-09-24T17:30:41+03:00,,284.15,73.00055267761819,17.496,222.99517386491638,219.99860459638222,-4.6999727934581434,6.97896,6.8623199999999995,-0.40107045659157625,39.00123711455514,-20.00195662801704,24.820936,59.47649,16.83504410042823,96.35617130580421,319.3513451707206,-0.7726316720578609,0.004133485264173801,0.17336660843340854
2025-09-24T17:30:49+03:00,,284.15,88.00058775414314,17.398799999999998,210.99743763487695,219.90120177120997,-2.7000063137744914,7.776,7.251119999999999,-0.8021409131831525,40.69719218814238,-25.59975428644518,24.82066,59.476242,18.808079951753935,112.4058219916605,323.4032596265374,-2.9639337539388566,0.0036250215162513554,0.1769916299496599
2025-09-24T17:30:57+03:00,,285.15,118.99760447072069,13.19976,181.9943140453547,208.20140359463852,7.500017538262475,6.35688,7.13448,-0.29793805346802804,33.1971746498799,-20.99890319154467,24.820526,59.475969,17.204578255600982,137.852268204376,319.8465822497307,-4.713099322184843,0.0036212521756075794,0.18061288212526747
2025-09-24T17:30:59+03:00,,285.15,101.0010001256615,12.402719999999999,195.99740255835198,232.20260563266874,9.000021045914972,6.74568,6.88176,0.29793805346802804,55.50242161432285,-27.501974166279513,24.820458,59.475914,15.207317795938724,126.813650365048,322.8110529234,-4.042108261968028,0.0039036797721666546,0.18451656189743412
2025-09-24T17:31:01+03:00,,285.15,80.00209693411685,14.696639999999999,228.9711236681309,241.70224587593776,6.09999516586031,6.337439999999999,6.804,-1.3006141949469687,64.1025181192365,-26.602430427924123,24.820445,59.475848,14.960421984878023,104.65882197002882,333.6299456381597,-1.6037697492131584,0.003986911719087585,0.1885034736165217
2025-09-24T17:31:02+03:00,,285.15,67.99863112612611,17.70984,225.9974727114019,245.3978236545316,3.600008418365989,7.44552,6.74568,-0.8021409131831525,66.19954364941532,-22.901123071379004,24.820349,59.475805,16.44013021735697,92.82724565143253,318.82471836283446,-0.36724821059218676,0.003907648292903616,0.1924111219094253
2025-09-24T17:31:06+03:00,,285.15,67.99863112612611,16.31016,237.99520894144138,251.59722699784712,3.9999902551468165,7.3094399999999995,6.6679200000000005,-0.09740282517223994,72.19841176443504,-25.198683829853607,24.820142,59.475726,15.169843475368966,94.53399629089463,332.52920523233604,-0.5778156176647029,0.0034801205879955205,0.19589124249742082
2025-09-24T17:31:10+03:00,,285.15,65.0020618575919,17.496,234.99863967290713,233.49749024966442,-5.599974898049641,7.814879999999999,6.76512,-0.6990085100596044,50.901570519422336,-13.802553284701533,24.819838,59.475673,15.862623391399435,91.52199189634187,326.520631569249,-0.20756825996836464,0.004032490717742656,0.19992373321516346
2025-09-24T17:31:12+03:00,,285.15,69.99825383113267,17.90424,219.75796232242723,222.6972358114484,-3.2000265815851607,7.4844,6.84288,1.1974817918234204,40.599789362970135,-15.802175989708104,24.819755,59.475619,16.87919648043006,94.62241871550609,314.3803810379333,-0.6031598491957262,0.0041177668191084826,0.20404150003427193
2025-09-24T17:31:27+03:00,,284.65,65.0020618575919,17.80704,228.9825828240335,242.60178961429318,3.9000091198964877,7.6788,7.251119999999999,-0.29793805346802804,63.002439152585325,-30.49854343481372,24.819137,59.475228,16.13966264858245,90.54599975816771,319.52858258220124,-0.07317396713539644,0.004092743449279199,0.20813424348355114
2025-09-24T17:31:29+03:00,,284.65,60.0001403060998,18.00144,225.18960222026743,239.50208794263546,-3.9000091198964877,7.42608,7.40664,-1.3980170201192088,58.000517601093236,-29.902667327877666,24.819129,59.475177,15.669043993909092,84.23254044663148,309.42214266689894,0.7462560649275144,0.003075207536872875,0.21120945102042402
2025-09-24T17:31:39+03:00,,284.65,61.99976301110639,19.809359999999998,235.97266792462955,248.60065772931287,1.2999839413723246,6.82344,7.095599999999999,-2.899166443361966,68.10176352924965,-31.100149119701083,24.818533,59.474935,17.665051505788725,81.94083163855979,317.91349956318936,0.9566166694378526,0.004156027635025275,0.2153654786554493
2025-09-24T17:31:41+03:00,,284.65,63.002439152585325,20.7036,240.05212742596103,249.00172818590448,0.5000202678106694,6.9984,6.95952,-3.5981749534215695,69.09871009277728,-25.198683829853607,24.818434,59.474904,18.602913673154227,82.58733117174265,322.63945859770365,0.902897628279854,0.0035506537851740525,0.21891613244062336
2025-09-24T17:31:43+03:00,,284.65,63.999385716112954,18.99288,233.99596353142817,241.19804301622264,-1.1000216708716675,7.3094399999999995,6.88176,-3.0997016716577535,61.10021927275099,-30.0000701530499,24.81834,59.474865,17.100846415973862,86.59166132706156,320.58762485848973,0.43455829835974724,0.00370553202227841,0.22262166446290177
2025-09-24T17:31:45+03:00,,284.65,69.99825383113267,18.50688,233.99596353142817,236.20185104268185,-4.2000098214269865,6.76512,6.97896,-2.2975607584746007,54.499745472843905,-26.098227568209,24.818245,59.474824,17.396021853185314,91.43242413622019,325.4283876676484,-0.16911388264966054,0.0038059449547265325,0.2264276094176283
2025-09-24T17:31:48+03:00,,284.65,76.0028515241037,18.798479999999998,211.86833348347582,219.70066654291415,-6.09999516586031,6.940079999999999,6.95952,-1.3006141949469687,38.898104711431586,-23.502728756266368,24.818164,59.474769,18.396642904331493,97.47480753664867,309.3431410201245,-0.9028367408726821,0.004128488722900041,0.23055609814052833
2025-09-24T17:31:52+03:00,,284.65,91.99983316415629,17.5932,207.99513878839142,217.79844666307986,-4.800011224487984,8.0676,7.387199999999999,-1.598552248414997,36.199473496365414,-24.299140091498213,24.818112,59.474657,19.609001583275607,116.27835687674825,324.27349566513965,-3.5717888546752237,0.0032103359068957633,0.2337664340474241
2025-09-24T17:31:58+03:00,,284.65,97.99870127917599,15.901919999999999,202.82132989836012,215.39775350148167,-0.8000209693411684,8.456399999999999,7.23168,-0.09740282517223994,34.29725361653108,-18.197139573354946,24.81789,59.474452,19.021192695398376,124.11870050524466,326.9400304036048,-4.743272825176995,0.0034209655785369976,0.23718739962596108
2025-09-24T17:32:12+03:00,,284.65,76.99979808763133,16.31016,226.99441927492956,240.09796404957146,3.50002728311566,7.8732,7.3094399999999995,-0.40107045659157625,61.50128972934256,-25.697157111617422,24.817315,59.47405,16.438806765066804,104.81778366292818,331.8122029378577,-2.0135380815560424,0.0038262702344874495,0.24101366986044853
2025-09-24T17:32:16+03:00,,284.65,73.00055267761819,16.407359999999997,230.99939426289401,238.20147374768845,1.4000223724021665,7.75656,7.03728,-1.501149423242757,58.20105282938902,-18.300271976478495,24.817107,59.473961,15.967180551225416,100.6820742486916,331.68146851158565,-1.4377496224875979,0.004092075634370746,0.24510574549481928
2025-09-24T17:32:20+03:00,,284.65,82.00171963912342,17.009999999999998,219.99860459638222,234.70070161943914,4.999973494988642,6.88176,6.940079999999999,-2.6986312150661775,57.70257954762521,-24.900745776385577,24.816915,59.473865,17.43911763736909,105.00461006178111,325.0032146581633,-1.7816653904105584,0.0039660871286277275,0.249071832623447
2025-09-24T17:32:30+03:00,,284.65,28.997394011570965,22.60872,287.9972357225083,299.5022282487352,16.199980586867436,5.151599999999999,6.59016,-1.701684651538545,122.80204423038934,-14.301026566465348,24.816247,59.473797,18.274360703253528,36.851907555438885,324.8491432779472,4.122250315956596,0.0028668659165091846,0.2519386985399562
2025-09-24T17:32:32+03:00,,284.65,11.000789666511807,21.90888,319.99692858056477,323.89877116540566,10.600005688817795,4.97664,5.6181600000000005,-4.898789148368539,150.29828881871757,-2.8017636181897254,24.816293,59.473776,17.050155340432124,14.193687031003435,334.1906156115682,4.824714987839054,0.0018882993391038424,0.25382699787906005
2025-09-24T17:32:36+03:00,,284.65,-48.99849120289531,15.29928,24.99814860155782,28.498920729807146,13.399993137842614,2.31336,3.6547199999999997,-1.0026761414789407,-140.7986485754485,18.197139573354946,24.816257,59.473839,13.891678797936274,56.2183880834656,328.77976051809225,1.2862950088176857,0.001476694295879445,0.2553036921749395
2025-09-24T17:32:38+03:00,,284.65,-54.00041275438739,15.20208,48.999350639587995,43.40155298115986,-0.2000195662801704,4.276800000000001,3.57696,1.3006141949469687,-136.39833270884378,19.698288996597704,24.816322,59.473861,13.15157100270417,69.25379178042843,339.7455588591596,1.5149672323951788,0.002384713814579145,0.25768840598951864
2025-09-24T17:32:40+03:00,,284.65,-67.9977716894334,15.007679999999999,42.99475294661698,54.7002807011397,5.199993061268812,4.374,3.96576,-2.8017636181897254,-122.6989118272658,12.100868633162985,24.816389,59.473884,13.970560328075967,84.87276678778674,318.1219861588302,0.39089438238351865,0.0024689098252997123,0.2601573158148184
2025-09-24T17:32:44+03:00,,284.65,-76.001992087411,13.802399999999999,61.99976301110639,56.00089489608667,0.6999825383113268,6.39576,4.97664,-0.8021409131831525,-122.49837659897,18.70134243307007,24.816593,59.473972,13.737021075890846,102.85863210971769,319.1411309013887,-1.4233525609748447,0.003457593205683122,0.2636149090205015
2025-09-24T17:32:46+03:00,,284.65,-78.99856135594521,14.502239999999999,56.99784145961429,60.401210762691385,0.6999825383113268,6.25968,5.50152,-0.6016056848873644,-118.99760447072069,18.300271976478495,24.816689,59.473964,14.657797872667103,103.78305301645842,313.21478844315584,-1.491345000816591,0.002970112238194461,0.266585021258696
2025-09-24T17:32:50+03:00,,284.65,-69.00044783091235,15.007679999999999,55.99516531813535,55.399289211199296,-3.9999902551468165,7.36776,6.045839999999999,-2.6012283898939375,-125.50067544545551,25.10128100468137,24.816855,59.474073,14.15147811055178,98.08215893586998,317.9130063822654,-1.0358550859350149,0.0034272705009970555,0.27001229175969305
2025-09-24T17:32:52+03:00,,284.65,-69.00044783091235,16.09632,44.99437565162355,56.298832949554686,-1.5999846429028237,6.57072,6.1624799999999995,-2.4006931615981495,-123.50105274044896,21.697911701604276,24.816935,59.474113,15.04866345018923,93.05660347465128,311.93777217697226,-0.35036717539618706,0.0034272684402634453,0.27343956019995647
2025-09-24T17:32:54+03:00,,284.65,-61.00195701088606,16.50456,43.99742908809592,50.002026781066945,-2.3000244769936637,6.901199999999999,6.43464,-3.2028340747813018,-129.99839413723248,25.198683829853607,24.817049,59.474107,14.477327281632295,85.64290739750803,318.3545216905879,0.5243003020787446,0.003499097559969302,0.27693865775992577
2025-09-24T17:32:56+03:00,,284.65,-61.00195701088606,15.901919999999999,37.998560973076195,48.598280182996426,2.7000063137744914,7.03728,6.804,-1.701684651538545,-130.59999982211983,18.90187766136586,24.817133,59.47416,13.924603742046799,87.23528390770016,310.76327706537603,0.3394409165997112,0.004089701122906566,0.28102835888283234
2025-09-24T17:32:58+03:00,,284.65,-67.00082512590576,16.09632,44.99437565162355,54.098675016252336,1.899985344433323,6.337439999999999,6.82344,-1.3980170201192088,-125.59807827062775,17.498131063295343,24.817212,59.474206,14.8169100445572,90.18685020983357,314.80752544179,-0.020667314502765686,0.003669088325286477,0.2846974472081188
2025-09-24T17:33:00+03:00,,284.65,-61.99890357441368,16.31016,46.99972793458143,52.70065799613312,-1.7000230739326654,7.2122399999999995,6.6679200000000005,-3.5981749534215695,-127.2997629221663,23.697534406610853,24.817307,59.474246,14.407749719374127,88.22930871895831,318.7704192156231,0.22285442060530747,0.00376734350108541,0.2884647907092042
2025-09-24T17:33:01+03:00,,284.65,-57.00271160087291,16.19352,35.99893826806962,47.10286033770498,-0.09998113525032865,6.47352,6.57072,-2.1027551081301215,-133.99763954724563,23.399596353142822,24.817379,59.474294,13.78248380213072,80.20189549857096,315.79704276949866,1.1016435600421208,0.00362714588892668,0.2920919365981309
2025-09-24T17:33:04+03:00,,284.65,-59.00233430587948,17.5932,34.92750719117499,50.20256200936274,-4.6999727934581434,6.7068,6.43464,-3.5007721282493303,-131.70007878877104,18.59821002994652,24.817449,59.474339,15.26326349734494,81.12899701038374,313.79851018079125,1.034258086945478,0.0034472380594155454,0.2955391746575464
2025-09-24T17:33:06+03:00,,284.65,-54.99735931791503,17.2044,35.68954105869898,40.30185130950211,-2.6000251785241626,6.55128,6.53184,-2.4006931615981495,-138.99956109873773,17.60126346641889,24.817514,59.474387,14.477761322109831,76.75366155823912,318.93587950045986,1.5011484115033822,0.0035017548118355594,0.299040929469382
2025-09-24T17:33:10+03:00,,284.65,-52.00079004938082,17.009999999999998,41.99780638308934,39.00123711455514,-1.4000223724021665,7.29,6.47352,-3.3976397251257815,-142.50033322698704,20.397297506657306,24.817637,59.474487,13.776765879236184,76.64497044094277,325.35283594214656,1.6838756757360949,0.003879177178371023,0.302920106647753
2025-09-24T17:33:12+03:00,,284.65,-59.00233430587948,16.893359999999998,36.99588483159726,45.20064045787065,4.299990956677315,7.23168,6.4152,-0.09740282517223994,-133.99763954724563,22.797990668255455,24.817708,59.474535,14.555055569410039,84.20960042827673,312.7862844033205,0.7296012625064352,0.0036087159372177654,0.3065288225849708
2025-09-24T17:33:14+03:00,,284.65,-59.999280869407116,18.29304,44.99437565162355,45.80224614275801,-1.7000230739326654,6.4152,6.5124,-2.8017636181897254,-133.99763954724563,22.901123071379004,24.81777,59.474578,16.075883866788843,80.21717712201968,324.7771985296039,1.0900327345459626,0.003203628096590051,0.3097324506815608
2025-09-24T17:33:16+03:00,,284.65,-63.99852627942025,18.40968,26.997771306564392,49.40042109617958,4.2000098214269865,6.92064,6.57072,0.0,-131.2016055070072,22.901123071379004,24.817853,59.474624,16.586222690002383,86.02402590591313,300.97374540065124,0.47986442929061784,0.0037504734030957263,0.3134829240846565
2025-09-24T17:33:18+03:00,,284.65,-61.99890357441368,17.496,51.995919908122204,48.90194781441576,-1.4000223724021665,6.92064,6.57072,-1.0026761414789407,-129.40251803029645,25.50235146127294,24.817943,59.474662,15.501956198643894,85.21350146606835,326.7824184420539,0.577479118644794,0.0035730774604832783,0.3170560015451398
2025-09-24T17:33:20+03:00,,284.65,-63.99852627942025,18.29304,39.998183678082775,46.10018419622604,2.000023775463165,6.6095999999999995,6.39576,-2.1027551081301215,-134.70237763525654,18.90187766136586,24.818013,59.474704,16.501815249701643,85.09850313866582,314.899680539417,0.5647437407424434,0.003307623684705054,0.32036362522984485
2025-09-24T17:33:22+03:00,,284.65,-61.99890357441368,18.60408,34.996262126590686,44.79957000127907,-2.199986045963822,6.7068,6.5124,-1.9996227050065731,-136.7020003402631,19.400350943129673,24.818086,59.474752,16.55092745564957,82.96320176759032,312.0330603590004,0.8216284808541506,0.003645710680101715,0.32400933590994657
2025-09-24T17:33:24+03:00,,284.65,-59.999280869407116,18.701279999999997,27.99471787009202,41.201395047857496,0.9000021045914972,6.7068,6.62904,0.6990085100596044,-140.99918380374427,15.699043586584558,24.81814,59.474802,16.410075213572537,80.72790519500305,307.266812675089,1.0806208509622974,0.003427863855832849,0.3274371997657794
2025-09-24T17:33:26+03:00,,284.65,-59.999280869407116,17.80704,34.996262126590686,41.99780638308934,1.200002806121996,5.79312,6.57072,-0.49847328176381617,-138.00261453521009,13.99735893504601,24.818196,59.47485,15.731826046222874,78.59597753325815,316.4002845933325,1.1454513726725513,0.00335367873614753,0.3307908785019269
2025-09-24T17:33:28+03:00,,284.65,-57.00271160087291,18.00144,28.997394011570965,41.201395047857496,1.5999846429028237,5.67648,6.59016,-1.902219879834333,-141.19971903204006,10.3017811564522,24.818249,59.474899,15.651667704974242,74.7112368648327,314.2861571467383,1.496796246235648,0.0033604796588347884,0.3341513581607617
2025-09-24T17:33:30+03:00,,284.65,-57.00271160087291,18.60408,32.996639421584106,42.59941206797671,-1.4000223724021665,6.47352,6.5124,-0.49847328176381617,-137.8020793069143,12.501939089754565,24.818322,59.474951,16.02628545962143,76.80501785051858,316.1916215710655,1.4776819601167104,0.0038387919278933817,0.3379901500886551
2025-09-24T17:33:32+03:00,,284.65,-48.99849120289531,17.70984,46.99972793458143,36.10207067119317,-2.199986045963822,6.39576,6.37632,-2.6012283898939375,-143.69781501881047,15.699043586584558,24.818383,59.474996,14.349872392417522,68.65420820444794,338.3455197301335,2.328029383893264,0.003283957775336659,0.3412741078639917
2025-09-24T17:33:34+03:00,,284.65,-50.99811390790188,18.60408,16.99965778153153,37.798025744780404,-1.5000035076524951,5.6181600000000005,6.24024,-2.200157933302361,-144.0014826502298,13.99735893504601,24.818453,59.475038,15.68808954303156,67.15695437194738,309.84270340958415,2.181015003863879,0.003307610033670708,0.3445817178976624
2025-09-24T17:33:36+03:00,,284.65,-52.00079004938082,18.29304,31.999692858056477,33.00236899953541,-1.1000216708716675,5.443199999999999,6.1236,-2.8017636181897254,-146.00110535523638,14.398429391637588,24.818492,59.475084,15.545410325490344,68.01785521897193,323.9818376390846,2.0374857494068768,0.0030104195086219313,0.3475921374062843
2025-09-24T17:33:38+03:00,,284.65,-50.00116734437425,18.195839999999997,12.99468279356707,24.098604863202425,1.5999846429028237,6.43464,6.18192,1.701684651538545,-159.20205295505053,12.702474318050351,24.818542,59.475138,14.898891319114087,69.32156812186223,303.67311467170487,2.27221735453443,0.003586843570228477,0.3511789809765128
2025-09-24T17:33:40+03:00,,284.65,-46.99886849788874,19.49832,24.99814860155782,28.097850273215574,-14.99997778074544,6.201359999999999,6.0652800000000004,-2.498095986770389,-154.20013140355846,12.599341914926804,24.818589,59.475195,15.928235613192852,63.54179448887318,321.4563541126846,2.76298421748959,0.00371447468397194,0.35489345566048475
2025-09-24T17:33:42+03:00,,284.65,-27.002641447823002,19.90656,354.99892028510675,9.29910501497326,-27.50002610977607,5.46264,5.6181600000000005,-1.1974817918234204,-175.19903459510311,14.398429391637588,24.81861,59.475245,15.242565238328343,36.36722620669542,318.63169407841133,4.398698582641284,0.003073007418854521,0.35796646307933927
2025-09-24T17:33:44+03:00,,284.65,3.002298846485514,18.798479999999998,308.99613891405295,297.6000083689009,-23.000015586818584,4.393439999999999,4.84056,3.002298846485514,99.70038593071456,-1.902219879834333,24.818571,59.475277,14.412907334041558,3.9171000217101266,312.91323893576305,4.383176639133407,0.0022621408007800336,0.3602286038801193
2025-09-24T17:33:46+03:00,,284.65,39.00123711455514,16.19352,249.9986747494321,242.6991924394654,-12.19999033172062,3.6352800000000003,4.393439999999999,-1.701684651538545,57.50204431932942,-4.801386323196299,24.81851,59.475279,13.562777209042027,48.712521335411395,298.7111960848435,2.398693965366917,0.001866164332898945,0.3620947682130182
2025-09-24T17:33:48+03:00,,284.65,69.99825383113267,15.20208,242.99713049293345,224.1983852346911,-8.899982614885129,5.03496,4.16016,0.0,41.29879787302974,-4.60085109490051,24.818439,59.475262,14.286075576963931,89.3386651651572,332.33579565809066,0.05811458595221656,0.002396361878108451,0.36449113009112666
2025-09-24T17:33:50+03:00,,284.65,80.99904349764448,14.91048,208.9978149298704,223.40197389945928,1.899985344433323,5.26824,4.16016,-0.20053522829578813,46.30071942452182,-13.899956109873772,24.81837,59.475223,15.016580833616569,101.27292069624497,310.27073562611537,-1.0298495756937043,0.003151622696774166,0.3676427527879008
2025-09-24T17:33:52+03:00,,284.65,80.00209693411685,16.09632,241.85121490267179,233.40008742449214,1.5000035076524951,4.58784,4.35456,-1.701684651538545,55.30188638602706,-12.89727996839483,24.818311,59.475188,15.952999855879929,96.45442940523616,338.3056443079079,-0.5157325541766391,0.0027695289543450356,0.37041228174224583
2025-09-24T17:33:54+03:00,,284.65,80.00209693411685,16.19352,223.99785000639537,233.8011578810837,2.3000244769936637,5.90976,4.723920000000001,-0.40107045659157625,55.69722726466732,-16.701719728063498,24.818233,59.475148,16.24580112539176,100.99469498699227,324.99254499338764,-1.1270982326547818,0.003383971491250186,0.373796253233496
2025-09-24T17:33:56+03:00,,284.65,73.99749924114583,17.2044,231.99634082642166,239.59949076780768,0.300000701530499,6.14304,5.151599999999999,-0.8995437383553924,59.19799939291665,-13.097815196690618,24.818152,59.475112,16.59688844571795,94.83932506554507,326.83566589196676,-0.5182377171922319,0.0032859594249787143,0.37708221265847475
2025-09-24T17:33:58+03:00,,284.65,73.00055267761819,19.49832,229.99671812141503,230.79885903459822,-0.6999825383113268,6.97896,5.28768,-3.5981749534215695,48.50087735782419,-8.600096504913656,24.818053,59.475077,18.69016225388547,93.92201903047533,323.91873715189035,-0.4773517932423431,0.0036825077300308264,0.38076472038850556
2025-09-24T17:34:00+03:00,,284.65,76.0028515241037,17.009999999999998,225.59067267685904,230.701456209426,1.200002806121996,7.07616,5.832,2.4006931615981495,50.901570519422336,-14.501561794761136,24.817978,59.475036,16.768591902857974,100.17371403620189,325.76438671306096,-1.2498847545764928,0.003363946619489203,0.38412866700799475
2025-09-24T17:34:01+03:00,,284.65,71.99787653613924,16.407359999999997,228.9997715578874,235.30230730432646,0.0,6.43464,6.1236,1.701684651538545,55.19875398290351,-16.799122553235737,24.817883,59.474996,15.663632786202086,94.99534800078575,323.9951195586732,-0.5602953689148963,0.0037672912882185674,0.3878959582962133
2025-09-24T17:34:05+03:00,,284.65,61.99976301110639,15.901919999999999,229.1315518507675,230.701456209426,-3.9999902551468165,6.5124,6.37632,-0.20053522829578813,44.10056149121947,-12.501939089754565,24.817687,59.474931,14.072846997385481,86.1163699327366,315.2479217835041,0.4410864168737443,0.002076239892348366,0.38997219818856166
2025-09-24T17:34:07+03:00,,284.65,61.99976301110639,17.3016,242.99713049293345,232.00207040437294,-2.9000258800546614,6.6095999999999995,6.337439999999999,0.6990085100596044,50.397367659707214,-13.097815196690618,24.817588,59.474894,15.351121914307972,84.34349829769161,327.34062879062503,0.65147050761844,0.003752495785015381,0.39372469397357707
2025-09-24T17:34:09+03:00,,284.65,63.002439152585325,18.195839999999997,216.9963057498967,226.10060511452548,1.5999846429028237,6.97896,6.37632,-1.501149423242757,49.40042109617958,-16.59858732493995,24.817494,59.474854,16.263498475796062,85.48208694529087,302.47839269518755,0.5497380523136112,0.0037438475872840563,0.39746854156086114
2025-09-24T17:34:11+03:00,,284.65,60.0001403060998,19.40112,233.99596353142817,241.79964870111004,2.000023775463165,6.74568,6.4152,-0.6990085100596044,62.09716583627862,-18.397674801650734,24.817421,59.474816,17.059732232666995,80.0257558475379,314.02171937896605,1.1683886416859237,0.0031912456169637853,0.4006597871778249
2025-09-24T17:34:13+03:00,,284.65,61.002816447578745,19.49832,237.99520894144138,241.70224587593776,0.9000021045914972,6.76512,6.454079999999999,-1.3006141949469687,61.90236018593414,-14.799499848229162,24.817326,59.474785,17.264462891531867,81.0461719708339,319.04138091227526,1.0529130127978545,0.0034473067541694693,0.4041070939319944
2025-09-24T17:34:15+03:00,,284.65,60.0001403060998,19.809359999999998,233.99596353142817,235.8007805860903,-2.9000258800546614,6.88176,6.318,-0.29793805346802804,52.59752559300958,-15.49850835828877,24.817228,59.474753,17.419721043764323,80.00676258827232,314.00272611970047,1.194205164505999,0.00355685556611128,0.4076639494981057
2025-09-24T17:34:19+03:00,,284.65,54.99821875460771,20.19816,226.99441927492956,245.1972884262358,3.9000091198964877,6.648479999999999,6.25968,-1.0026761414789407,67.70069307265807,-20.700965138076644,24.817045,59.474679,17.265958540736193,73.38428026071317,300.37869953564274,1.9011413872530871,0.002165815258681766,0.40982976475678745
2025-09-24T17:34:23+03:00,,284.65,50.998973344594575,21.40344,253.99792015944524,254.5995258443326,1.5999846429028237,6.39576,6.27912,-0.8021409131831525,75.29811343609279,-14.398429391637588,24.816735,59.47463,18.075183207102253,66.9599705576252,320.9578907170704,2.503135067813113,0.0034027676741286584,0.4132325324309161
2025-09-24T17:34:25+03:00,,284.65,54.99821875460771,21.50064,246.9963759029466,252.39936791103023,-0.5000202678106694,6.53184,6.25968,-0.29793805346802804,71.60253565749898,-14.10049133816956,24.81663,59.474608,18.542669627200326,71.7692765085098,318.7656524114564,2.0434487386146825,0.003467678471783257,0.4167002109026994
2025-09-24T17:34:27+03:00,,284.65,56.00089489608667,20.39256,248.99599860795314,248.80119295760866,-1.7000230739326654,6.27912,6.25968,-1.0026761414789407,67.50015784436228,-12.100868633162985,24.816526,59.474587,17.66581018317224,73.13897415726726,322.13497276522037,1.8212667656936465,0.0034168182165249107,0.4201170291192243
2025-09-24T17:34:29+03:00,,284.65,54.99821875460771,19.809359999999998,241.99445435145452,245.00248277589128,-0.2000195662801704,6.5124,6.24024,0.6016056848873644,65.20259708588767,-14.598964619933378,24.816425,59.474555,16.935919732776828,73.35801639495655,315.3524707464111,1.865089515400717,0.003634250554430829,0.4237512796736551
2025-09-24T17:34:31+03:00,,284.65,54.99821875460771,18.99288,235.9955862364348,246.60103502430633,1.899985344433323,6.8623199999999995,6.2208000000000006,-1.0026761414789407,68.30229875754543,-21.199438419840458,24.816325,59.474524,16.07171011063617,75.4705497578073,311.4661359942421,1.7216023886298368,0.0035767068235659995,0.4273279864972211
2025-09-24T17:34:33+03:00,,284.65,52.00164948607352,18.50688,240.99750778792685,252.6973059644983,4.899992359738313,6.2208000000000006,6.318,-0.49847328176381617,75.00017538262475,-25.697157111617422,24.816221,59.474496,15.474137409732556,70.4710089462377,311.46851673416455,2.0795125574701654,0.00359359660107656,0.43092158309829764
2025-09-24T17:34:35+03:00,,284.65,50.998973344594575,19.59552,241.99445435145452,250.49714803119593,-1.7000230739326654,6.82344,6.37632,-0.20053522829578813,70.39932428772426,-23.697534406610853,24.816101,59.474468,16.194091386723983,70.11295973278862,312.10741408424315,2.3211081437042633,0.004031691812081355,0.434953274910379
2025-09-24T17:34:37+03:00,,284.65,48.00240407606037,19.59552,244.44098413666313,251.09875371608328,0.8000209693411684,7.01784,6.5124,0.29793805346802804,71.49940325437544,-24.299140091498213,24.815974,59.474444,15.78631537956897,67.294190400211,311.7351745368741,2.7088833108033183,0.004136984719540933,0.43909025962991993
2025-09-24T17:34:39+03:00,,284.65,48.00240407606037,18.895680000000002,243.9998066344124,248.89859578278092,-2.499986747494321,7.17336,6.648479999999999,1.0026761414789407,67.99863112612611,-24.797613373262028,24.815936,59.47442,15.070400266092477,68.71882200376616,312.7186286381786,2.603536183744198,0.0018512114789185968,0.4409414711088385
2025-09-24T17:34:44+03:00,,284.65,58.000517601093236,17.90424,235.9955862364348,247.30004353436593,3.30000771683549,7.6593599999999995,7.2122399999999995,-1.701684651538545,69.59718337454109,-16.701719728063498,24.815689,59.474359,15.29342111324013,83.1339579435022,319.129544179937,0.9156644812733887,0.0022485418825111793,0.4431900129913497
2025-09-24T17:34:46+03:00,,284.65,56.99784145961429,18.29304,245.99942933941892,249.0991310110767,-1.5999846429028237,7.42608,7.17336,0.6016056848873644,64.60099140100031,-17.69866629159113,24.815568,59.47433,15.549912632208429,80.60785347569984,326.60728281511877,1.2118674328696886,0.004084754509630855,0.44727476750098055
2025-09-24T17:34:48+03:00,,284.65,58.000517601093236,17.80704,239.99483164644792,247.20264070919367,3.399988852085818,7.17336,7.07616,-1.3006141949469687,69.49978054936886,-16.902254956359283,24.815458,59.474299,15.269900565574462,81.47813867448475,321.4729703209327,1.0629969871138907,0.0038406183944269933,0.45111538589540756
2025-09-24T17:34:50+03:00,,284.65,50.998973344594575,18.40968,241.99445435145452,250.69768325949167,2.400005612243992,6.97896,6.84288,-1.1000789666511805,72.39894699273083,-25.3992190581494,24.815347,59.474267,15.030233711428844,72.15110219156313,314.1455565430176,2.139105446901102,0.0038966624864275167,0.45501204838183507
2025-09-24T17:34:56+03:00,,284.65,46.99972793458143,20.29536,256.9944894279795,248.4975253261894,-5.700013329079481,6.5124,6.78456,0.20053522829578813,63.901982890940715,-12.100868633162985,24.814862,59.474218,16.553868956522937,63.72111564773415,320.71560507571365,2.88330500231038,0.003891636858017599,0.45890368523985264
2025-09-24T17:34:58+03:00,,284.65,41.99780638308934,18.60408,257.9971655694584,256.799683777635,6.699996568921307,6.47352,6.648479999999999,-0.6016056848873644,79.80156170582106,-20.397297506657306,24.81486,59.474192,14.457262811705492,59.43159485299934,317.42876042245774,3.2922166764584,0.0015639930282072012,0.46046767826805984
2025-09-24T17:35:00+03:00,,284.65,37.001614409548566,18.895680000000002,248.99599860795314,265.49718310772084,6.799977704171636,7.4844,6.492959999999999,-4.400315866604722,88.49906103590696,-20.99890319154467,24.81474,59.474169,13.681271088936475,56.22413925431384,305.220137862267,4.1609182346185625,0.0039157986860482805,0.46438347695410814
2025-09-24T17:35:03+03:00,,284.65,33.99931556306306,22.20048,272.99720064598336,265.1992450542528,-2.499986747494321,6.10416,6.318,1.3980170201192088,83.89820994100646,-11.499262948275621,24.814503,59.47416,17.476434139236773,45.26221641384103,318.2594170598244,4.296494110447802,0.001628517215095509,0.46601199416920364
2025-09-24T17:35:05+03:00,,284.65,35.00199170454199,21.597839999999998,265.9956563894847,262.0995433825951,4.800011224487984,6.57072,6.47352,-2.498095986770389,84.90088608248539,-17.29759583499955,24.814403,59.474155,16.64780695897332,48.086974536204394,314.08263092568905,4.389252445205318,0.003067789581790281,0.4690797837509939
2025-09-24T17:35:07+03:00,,284.65,35.00199170454199,22.394879999999997,262.5120729950892,259.8019826241205,-6.999997270451807,6.6679200000000005,6.29856,-0.09740282517223994,76.50132480586751,-15.802175989708104,24.814292,59.474145,17.359558983962362,47.73013732133526,310.24221031642446,4.484998873363923,0.0034417603976977643,0.4725215441486917
2025-09-24T17:35:09+03:00,,284.65,37.001614409548566,20.9952,258.99984171093735,261.2974024694119,0.8000209693411684,6.201359999999999,6.0264,-1.7990874767107847,82.20225486741923,-23.101658299674792,24.81419,59.474138,16.471094223568738,50.09810049243717,309.0979422033745,3.978017807742455,0.0031423910304339475,0.47566393517912564
2025-09-24T17:35:11+03:00,,284.65,37.001614409548566,19.49832,272.75082879407705,264.50023654419317,4.500010522957486,5.67648,5.87088,-2.899166443361966,86.60257073402393,-26.699833253096365,24.814082,59.474127,15.349976958967623,49.861159622240166,322.6119884163172,3.659297512024365,0.003362916441597086,0.4790268516207227
2025-09-24T17:35:15+03:00,,284.65,37.001614409548566,21.306240000000003,262.9990871209505,264.7981745976613,-2.1000049107134933,6.18192,5.98752,1.9996227050065731,81.60064918253184,-22.098982158195852,24.81387,59.474102,16.786731498936064,49.8066416905059,312.8057288114564,3.9896204226033296,0.002554307313390774,0.4815811589341135
2025-09-24T17:35:17+03:00,,284.65,39.00123711455514,20.9952,266.99833253096364,261.8990081542993,1.899985344433323,5.346,5.94864,-0.09740282517223994,83.49713948441487,-24.001202038030186,24.81378,59.474097,17.173436950866137,50.29908608451652,317.2974186154802,3.414918361135338,0.0027641213866307734,0.4843452803207443
2025-09-24T17:35:21+03:00,,284.65,37.001614409548566,21.79224,260.9994644159439,264.9013070007848,1.8000042091829944,5.79312,6.1624799999999995,-2.6012283898939375,86.40203550572814,-22.2021145613194,24.813451,59.474108,17.51624009800176,48.48272318310708,309.48218759905103,3.8399455864875245,0.0035135230969136166,0.4878588034176579
2025-09-24T17:35:23+03:00,,284.65,39.998183678082775,21.597839999999998,255.7798189023021,257.0002190059308,-4.099971390397145,6.25968,6.1624799999999995,-1.3006141949469687,75.69918389268436,-20.00195662801704,24.813338,59.474096,17.277533126442524,53.46453437514981,309.2443532774519,3.7265142855030686,0.0035245282120524727,0.4913833316297104
2025-09-24T17:35:25+03:00,,284.65,31.999692858056477,21.90888,255.99754286445182,263.8012280341336,1.899985344433323,5.404319999999999,6.045839999999999,0.8995437383553924,83.49713948441487,-21.199438419840458,24.813365,59.474072,17.56083222927708,41.38543582847453,297.3829786929264,4.054748594709567,0.0016614922780705962,0.493044823907781
2025-09-24T17:35:27+03:00,,284.65,30.0000701530499,20.29536,263.9960336844781,264.7981745976613,2.1000049107134933,5.6181600000000005,6.14304,-2.1027551081301215,85.50249176737275,-19.698288996597704,24.813256,59.474069,15.683513560716928,40.31803825418649,304.3140719386646,4.283648482676671,0.003332696331195513,0.4963775202389765
2025-09-24T17:35:29+03:00,,284.65,31.999692858056477,21.90888,265.9956563894847,266.4998592491998,-1.5999846429028237,6.006959999999999,6.1624799999999995,0.8021409131831525,86.0983678743088,-15.401105533116528,24.813141,59.474066,17.113322451378004,42.719468783446445,308.71512517293115,4.413218108789818,0.0035156247169029218,0.49989314495587944
2025-09-24T17:35:31+03:00,,284.65,35.99893826806962,20.8008,265.9956563894847,252.39936791103023,-3.50002728311566,6.29856,6.14304,-1.1974817918234204,71.20146520090739,-18.999280486538098,24.813029,59.474061,16.135532874268016,49.262931781467785,315.25858817095246,4.11036940841762,0.0034325883518361777,0.5033257333077156
2025-09-24T17:35:33+03:00,,284.65,35.00199170454199,21.209039999999998,255.99754286445182,260.0999206775885,0.5000202678106694,6.55128,6.006959999999999,0.09740282517223994,80.20263216241264,-16.39805209664416,24.812913,59.474045,16.282254122111787,48.3458134130704,304.3433562775222,4.354197757963236,0.0036697874549180966,0.5069955207626337
2025-09-24T17:35:35+03:00,,284.65,35.00199170454199,20.8008,260.9994644159439,262.90168429577824,5.899975599580139,5.404319999999999,6.1236,-1.701684651538545,84.7003508541896,-17.102790184655074,24.812815,59.474035,16.66480808015373,45.72244729358914,306.72191170953306,3.7729440694549825,0.003051762364325378,0.510047283126959
2025-09-24T17:35:37+03:00,,284.65,35.99893826806962,22.80312,262.9990871209505,268.4020791290342,-2.7999874490248207,5.598719999999999,5.94864,-0.40107045659157625,86.00096504913657,-12.198271458335228,24.812714,59.474025,18.56754004852324,46.207507640646725,309.2065947615972,3.874586301321301,0.003141612212618366,0.5131888953395773
2025-09-24T17:35:39+03:00,,284.65,33.00236899953541,22.394879999999997,263.9960336844781,261.4979376977077,1.5000035076524951,5.7348,5.96808,-1.9996227050065731,82.29965769259144,-16.39805209664416,24.812608,59.474021,17.860660091261003,43.074443246972606,307.0704769314507,4.189082024803024,0.0032451466285069305,0.5164340419680843
2025-09-24T17:35:43+03:00,,284.65,35.99893826806962,23.094720000000002,250.9956213129597,266.59726207437205,4.6999727934581434,5.98752,6.0264,-0.8995437383553924,88.40165821073471,-19.600886171425465,24.812411,59.473989,18.58686571183751,46.913362079625244,297.90898339258496,4.090095702399304,0.0014631155306086803,0.5178971574986929
2025-09-24T17:35:47+03:00,,284.65,35.00199170454199,24.202799999999996,256.9944894279795,270.49910465921295,0.600001403060998,5.96808,5.81256,0.6016056848873644,90.49868374091353,-17.60126346641889,24.81221,59.473966,19.615189702664704,45.05294669026702,302.04743611824654,4.2161682958285835,0.001985668152608564,0.5198828256513015
2025-09-24T17:35:51+03:00,,284.65,35.99893826806962,24.3,252.70876512040087,258.1977007977542,-4.599991658207815,5.9292,5.5598399999999994,-3.2028340747813018,77.89934182598672,-19.600886171425465,24.81191,59.473984,19.812032931098265,46.130183160195344,298.83894828059624,4.109066925724422,0.0030038110239908045,0.5228866366752923
2025-09-24T17:35:53+03:00,,284.65,39.00123711455514,22.394879999999997,250.9956213129597,257.69922751599034,0.09998113525032865,5.69592,5.46264,-2.498095986770389,77.89934182598672,-24.60280772291755,24.8118,59.473971,18.322472720883862,50.28349559543713,301.2791169083969,3.6396326247070214,0.003448061498742909,0.5263346981740352
2025-09-24T17:35:55+03:00,,284.65,37.001614409548566,24.61104,266.0873296367056,268.90055241079796,0.300000701530499,5.9292,5.52096,1.701684651538545,88.20112298243895,-22.2021145613194,24.811696,59.473968,20.193658143120874,47.179781251385464,313.26711088809105,4.030078326739794,0.0031802881146697757,0.529514986288705
2025-09-24T17:35:57+03:00,,284.65,37.001614409548566,24.70824,266.23056908548836,268.6026143573299,1.899985344433323,5.3654399999999995,5.6376,0.0,89.50173717738589,-20.99890319154467,24.81172,59.473923,20.677002251592697,45.986261040999466,312.2168301264878,3.7280731876825888,0.0028023375006486625,0.5323173237893536
2025-09-24T17:36:01+03:00,,284.65,37.001614409548566,24.61104,264.998709825957,276.1026318955924,10.399986122537625,5.96808,5.57928,3.798710181717358,98.6977097892356,-13.699420881577984,24.81138,59.47397,20.167251563427783,47.26080205521441,312.2595118811714,4.050310843270217,0.0031045989677748053,0.5354219227571284
2025-09-24T17:36:03+03:00,,284.65,28.997394011570965,25.408079999999998,274.9968233509899,297.69741119407314,14.500014808714283,5.13216,5.28768,-1.701684651538545,122.8994470555616,-11.401860123103383,24.811317,59.473993,21.06670224366043,35.77968734815684,310.7765106991468,4.163573338834822,0.002368710869502627,0.537790633626631
2025-09-24T17:36:05+03:00,,284.65,15.00003507652495,23.60016,320.9996047220437,318.5015087352734,13.499974273092944,2.5272,4.74336,-3.9992454100131463,147.1985871470598,0.8021409131831525,24.811298,59.47402,21.169180142442244,16.770651780324528,337.7702565023683,2.419711665569724,0.0017234624861256237,0.5395140961127567
2025-09-24T17:36:07+03:00,,284.65,-7.997631383333596,23.60016,316.9946297340793,344.3992010751865,8.800001479634801,3.1104000000000003,3.9074399999999994,2.6012283898939375,168.39802556690026,9.602772646392598,24.811301,59.474049,20.524575108571494,9.205791295843682,307.78883843823564,3.070338358078182,0.0017455284208009556,0.5412596245335577
2025-09-24T17:36:09+03:00,,284.65,-22.99766645985855,20.7036,13.99735893504601,14.598964619933378,-2.199986045963822,4.00464,3.7908,-2.8017636181897254,-161.9006841701167,28.000447448043335,24.811333,59.474076,17.08901944146361,28.250745268047126,345.7466136669989,3.527625630384115,0.00189428303777221,0.5431539075713299
2025-09-24T17:36:11+03:00,,284.65,-35.99807883137692,19.20672,22.998525896551243,22.098982158195852,-4.599991658207815,4.723920000000001,3.7713599999999996,-3.0997016716577535,-156.69822739032887,30.40114060964148,24.811341,59.474111,15.633428319431038,46.22817146179739,336.77035443475387,3.2679521690777267,0.0021179006615327624,0.5452718082328626
2025-09-24T17:36:13+03:00,,284.65,-35.00113226784929,20.9952,4.996191973540778,22.402649789615186,1.8000042091829944,4.14072,4.02408,0.49847328176381617,-160.60006997516973,23.399596353142822,24.81134,59.474149,17.762871091508366,42.685206500111065,322.3109854734297,3.0438004912322474,0.0022842972564850288,0.5475561054893476
2025-09-24T17:36:15+03:00,,284.65,-35.00113226784929,21.306240000000003,358.9981656951199,23.502728756266368,-0.09998113525032865,4.97664,4.35456,-1.902219879834333,-157.79830635698005,22.29951738649164,24.811342,59.474195,17.46453888303959,44.40828641799868,314.5898792771212,3.5551696979355305,0.0027656290974229347,0.5503217345867706
2025-09-24T17:36:17+03:00,,284.65,-29.999210716357208,21.50064,4.996191973540778,21.600508876432034,2.3000244769936637,6.14304,4.6655999999999995,-0.09740282517223994,-160.39953474687397,19.801421399721253,24.811419,59.474187,16.4695050871895,40.74739824923134,324.24879372430945,4.6539340842208325,0.002399509025789795,0.5527212436125604
2025-09-24T17:36:23+03:00,,284.65,-31.99883342136378,24.3972,0.9969465635276323,24.299140091498213,3.6999895536163168,7.15392,5.46264,-1.9996227050065731,-151.90257064508384,28.000447448043335,24.811467,59.474371,18.718145674939404,43.68343668148705,317.3135098820406,5.173477713250415,0.0036972844311408963,0.5564185280437013
2025-09-24T17:36:25+03:00,,284.65,-31.99883342136378,24.99984,358.16164731422896,29.902667327877666,-1.5999846429028237,6.62904,5.90976,-3.2028340747813018,-149.19820985206638,28.802588361226483,24.811476,59.47444,19.69383549794025,42.27352308209714,315.8881242321318,4.905105257537951,0.004156524371652146,0.5605750524153534
2025-09-24T17:36:27+03:00,,284.65,-33.99845612637036,25.310879999999997,5.998868115019719,24.299140091498213,1.200002806121996,8.08704,6.1236,-2.899166443361966,-154.89913991361806,21.39997364813625,24.811488,59.4745,19.147927522139785,47.6586520337145,318.34021608130524,5.446994244637997,0.0036250234911398066,0.5642000759064932
