time,dpt,mtw,awa,aws,cog,hdg,rot,sog,stw,pitch,yaw,roll,lng,lat,tws,twa,twd,vmg,dist,cum_dist
2026-05-20T18:20:38+03:00,13.98,282.511,101.0010001256615,9.00072,150.120671902227,143.800947421934,-2.000023775463165,4.14072,3.9851999999999994,0.1604281826366305,-37.59749051648462,-3.7643327140095084,24.810143,59.481018,10.601061116105257,123.54651536403621,273.6671872662632,-2.2882189743106998,0.002423607280146782,0.002423607280146782
2026-05-20T18:20:39+03:00,13.98,282.5,103.99756939419571,8.90352,157.9988415852758,141.40025426033588,-1.8000042091829944,4.35456,3.7908,0.13178029288008933,-38.39963142966778,-3.5637974857137205,24.810174,59.481022,10.816225518589413,126.99192786584837,284.99076945112415,-2.6201496434579115,0.0009763155935017721,0.003399922873648554
2026-05-20T18:20:40+03:00,13.98,282.507,103.99756939419571,8.39808,153.99959617526267,137.8651046643787,0.951339123035219,4.29624,3.7713599999999996,0.20053522829578813,-38.6975694831358,-1.598552248414997,24.810191,59.481004,10.3169579063859,127.82978884042652,281.8293850156892,-2.6349603917490705,0.0011999415115051602,0.004599864385153715
2026-05-20T18:20:41+03:00,13.98,282.5,103.99756939419571,8.203679999999999,152.99692003378374,143.1019389118744,1.7000230739326654,4.19904,3.6352800000000003,0.12605071492878112,-36.49741154983344,-3.300236899953542,24.810202,59.480985,10.079519558006313,127.83989072452235,280.8368107583061,-2.5759306086262996,0.00119038188524953,0.005790246270403245
2026-05-20T18:20:42+03:00,13.91,282.502,103.99756939419571,7.503839999999999,148.79713939547477,144.59735875716584,2.3000244769936637,3.71304,3.9851999999999994,0.13178029288008933,-34.400386019654626,-3.454935504638864,24.810218,59.480971,9.141819888311796,127.2073818103035,276.00452120577825,-2.24528172004459,0.0009729631382343182,0.006763209408637563
2026-05-20T18:20:43+03:00,13.83,282.49,101.0010001256615,7.503839999999999,145.99537577728506,146.70011386529598,1.7000230739326654,3.5964,4.101839999999999,0.13750987083139757,-32.899236596411875,-3.85600596123044,24.810233,59.480957,8.91859208655174,124.31920896195558,270.3145847392407,-2.0276610181129575,0.0009580052081661469,0.00772121461680371
2026-05-20T18:20:44+03:00,13.87,282.494,101.0010001256615,7.60104,152.5672016874356,142.74670507889329,0.30383951875787557,4.1212800000000005,3.6935999999999996,0.1604281826366305,-31.70175480458845,-4.2398876839680915,24.810286,59.480911,9.312164196249253,126.75046169808596,279.31766338552154,-2.4658898193184955,0.0032034664330812834,0.010924681049884994
2026-05-20T18:20:45+03:00,13.98,282.49,97.99870127917599,7.698239999999999,143.9957530722785,142.57481774035404,-0.17738773337250288,3.402,3.6547199999999997,0.16615776058793874,-31.999692858056477,-3.959138364353988,24.810264,59.480933,8.838837642814282,120.40349368775509,264.3992467600336,-1.7217057835186125,0.0014831109190136511,0.012407791968898645
2026-05-20T18:20:46+03:00,13.98,282.488,99.00137742065495,7.698239999999999,141.99613036727192,141.66954442404736,-0.6190808976388545,3.51864,3.8296799999999998,0.1546986046853223,-33.00236899953541,-3.477853816444097,24.810291,59.480878,8.950966343278386,121.84768189018898,263.8438122574609,-1.8566557819459288,0.0034071052703324818,0.015814897239231126
2026-05-20T18:20:47+03:00,13.83,282.48,99.00137742065495,7.60104,146.99805191876402,140.59811334715272,-0.3810169337619974,3.6352800000000003,3.6547199999999997,0.14896902673401402,-34.698324073122656,-3.0997016716577535,24.810294,59.48086,8.923987207526654,122.72615365982581,269.7242055785898,-1.9653210196959263,0.0010858072335638799,0.016900704472795007
2026-05-20T18:20:48+03:00,13.83,282.481,99.99832398418258,7.60104,155.99921888026924,139.55533016001462,-0.748168288881829,3.9074399999999994,3.6741599999999996,0.14896902673401402,-36.199473496365414,-2.733008682774027,24.810299,59.480892,9.130010845740953,124.92624753136988,280.92546641163915,-2.237093526258142,0.0019294925050590843,0.01883019697785409
2026-05-20T18:20:49+03:00,13.83,282.48,101.0010001256615,7.60104,157.9988415852758,138.66151599961054,-1.0010145638730612,4.0629599999999995,3.8296799999999998,0.1546986046853223,-36.4000087246612,-2.8476002418001913,24.810308,59.480874,9.277387212907067,126.46187002458184,284.46071160985764,-2.414567127039905,0.001116271423877215,0.019946468401731306
2026-05-20T18:20:50+03:00,13.83,282.481,103.99756939419571,7.60104,153.99959617526267,137.71613563764467,-0.34681135339268726,4.14072,3.53808,0.1432394487827058,-36.199473496365414,-2.864788975654116,24.810328,59.48082,9.494586477636307,129.03206335320888,283.03165952847155,-2.6076399185339527,0.003302728977672816,0.023249197379404122
2026-05-20T18:20:51+03:00,13.83,282.48,103.00062283066809,7.3094399999999995,157.9988415852758,137.1030707968547,-0.25679968377763496,3.6547199999999997,3.5575200000000002,0.13178029288008933,-37.70062291960817,-2.3262086482311424,24.810332,59.480843,8.877168618277706,126.65046388152766,284.64930546680347,-2.181618346326359,0.001387858674105609,0.024637056053509732
2026-05-20T18:20:52+03:00,13.83,282.47,101.99794668918915,7.40664,150.99729732877717,136.6332454048474,-0.16678801416258265,4.101839999999999,3.71304,0.14896902673401402,-38.600166657963555,-2.165780465594512,24.810372,59.480788,9.18228436925798,127.90763937992949,278.90493670870666,-2.5201311390914487,0.0035241892542406147,0.028161245307750347
2026-05-20T18:20:53+03:00,13.76,282.48,101.99794668918915,7.40664,149.99462118729824,135.45295234687794,-1.2918479406814671,3.81024,3.81024,0.12605071492878112,-40.399254134674344,-1.9308677695908742,24.810406,59.480764,9.00606738119669,126.44377646229898,276.4383976495972,-2.263410916055005,0.0017771152442715924,0.02993836055202194
2026-05-20T18:20:54+03:00,13.68,282.47,103.99756939419571,7.1928,149.99462118729824,134.28984802276233,-1.1136580663957811,4.31568,3.6352800000000003,0.14896902673401402,-40.80032459126592,-2.194428355351053,24.810431,59.480748,9.24003807247981,130.94636480089915,280.9409859881974,-2.828290597575924,0.0012277001114386957,0.031166060663460636
2026-05-20T18:20:55+03:00,13.76,282.47,103.99756939419571,7.40664,148.99767462377056,139.2000963270335,-0.3999818367808277,3.7713599999999996,3.51864,0.09740282517223994,-40.599789362970135,-1.0026761414789407,24.810464,59.480727,9.088147918546387,127.7417266383921,276.7394012621627,-2.3084611477192065,0.0016149204418998237,0.03278098110536046
2026-05-20T18:20:56+03:00,13.83,282.46,103.99756939419571,7.503839999999999,147.8288407217037,140.39757811885693,1.7574334450047742,4.0629599999999995,3.51864,-0.20053522829578813,-38.6975694831358,-1.1000789666511805,24.810408,59.480765,9.357568188943805,128.91406235996232,276.742903081666,-2.5521647645147545,0.0028528950936033185,0.03563387619896378
2026-05-20T18:20:58+03:00,13.65,282.47,103.00062283066809,7.40664,147.99499848229166,141.30285143516363,-0.09998113525032865,3.6741599999999996,3.6935999999999996,0.18334649444186346,-38.6975694831358,-2.3835044277442243,24.810448,59.480732,8.97784002562741,126.50115994438374,274.4961584266754,-2.1855338828570363,0.002998561392030459,0.03863243759099424
2026-05-20T18:21:00+03:00,13.68,282.45,103.00062283066809,7.3094399999999995,147.99499848229166,143.19934173704664,0.8000209693411684,3.71304,3.402,0.18907607239317165,-36.30260589948897,-2.807493196141034,24.810572,59.480649,8.912104503676414,126.95127532359737,274.94627380588906,-2.2320406810780558,0.000973111228164314,0.03960554881915855
2026-05-20T18:21:01+03:00,13.68,282.46,101.0010001256615,7.795439999999999,149.99462118729824,144.0014826502298,1.2999839413723246,3.73248,3.6935999999999996,0.18334649444186346,-35.901535442897384,-2.5267438765269303,24.810506,59.480683,9.263097188421657,124.30042744776384,274.2950486350621,-2.103372710352881,0.0028697078737320385,0.04247525669289059
2026-05-20T18:21:03+03:00,13.61,282.45,97.99870127917599,8.30088,146.99805191876402,142.90140368357862,-0.9999832398418258,3.73248,3.47976,0.18907607239317165,-36.69794677812923,-2.9793805346802804,24.810543,59.480651,9.56339838194393,120.73503673095671,267.73308864972074,-1.9075534308313267,0.002313434095450453,0.044788690788341044
2026-05-20T18:21:04+03:00,13.65,282.46,97.00175471564837,8.39808,146.99805191876402,142.50033322698704,-0.2000195662801704,4.0629599999999995,3.71304,0.16615776058793874,-37.798025744780404,-2.131402997886662,24.810565,59.480636,9.764941839881503,121.39350422789241,268.3915561466564,-2.1164481104564334,0.0011242217774982527,0.0459129125658393
2026-05-20T18:21:05+03:00,13.53,282.45,97.00175471564837,8.203679999999999,149.99462118729824,140.99918380374427,-0.3999818367808277,4.04352,3.9463199999999996,0.08021409131831525,-39.998183678082775,-1.1917522138721122,24.810642,59.480581,9.577978573283618,121.77448971694454,271.7691109042428,-2.129225999317359,0.004056285532588522,0.04996919809842782
2026-05-20T18:21:06+03:00,13.53,282.45,101.0010001256615,7.892639999999999,149.99462118729824,141.30285143516363,0.0,4.0629599999999995,3.6547199999999997,0.13750987083139757,-38.30222860449553,-2.423611473403382,24.810653,59.480565,9.54149027082887,125.70908945408064,275.70371064137885,-2.3714280000198946,0.0010186527384577976,0.05098785083688562
2026-05-20T18:21:07+03:00,13.53,282.45,97.99870127917599,7.40664,148.99767462377056,140.70124575027629,-0.6999825383113268,3.57696,3.46032,0.1604281826366305,-39.49971039631895,-2.3548565379876836,24.810673,59.480544,8.661758856301791,122.13711732094272,271.1347919447133,-1.9027540355005956,0.0014021428829818355,0.05238999371986745
2026-05-20T18:21:08+03:00,13.53,282.45,101.0010001256615,7.095599999999999,144.99842921375745,140.3001752936847,-0.6999825383113268,4.1212800000000005,3.6935999999999996,0.12605071492878112,-40.399254134674344,-2.039729750665731,24.810693,59.480528,8.859634745825474,128.17065511462542,273.16908432838284,-2.5469750504727537,0.0011391275707654557,0.053529121290632906
2026-05-20T18:21:09+03:00,13.53,282.44,105.00024553567467,7.1928,148.99767462377056,140.59811334715272,0.2000195662801704,4.21848,3.57696,-0.40107045659157625,-39.20177234285093,-1.1974817918234204,24.810655,59.480555,9.232482060699335,131.19014258775573,280.1878172115263,-2.7781221958664357,0.001994812428178548,0.05552393371881145
2026-05-20T18:21:10+03:00,13.53,282.44,106.99986824068124,7.095599999999999,146.99805191876402,142.29979799869125,1.5000035076524951,3.9851999999999994,3.6547199999999997,-0.29793805346802804,-37.001614409548566,-1.501149423242757,24.810673,59.480541,9.097485840206389,131.76594018010277,278.76399209886677,-2.6544986791460623,0.0010049986215989084,0.056528932340410364
2026-05-20T18:21:12+03:00,13.38,282.43,108.99949094568781,7.698239999999999,144.99842921375745,146.40217581182796,1.5999846429028237,3.71304,3.6547199999999997,-0.8021409131831525,-32.60129854294384,-2.498095986770389,24.810765,59.480466,9.5739794487825,130.51160835003677,275.5100375637942,-2.411998567407773,0.0008885603493326896,0.057417492689743055
2026-05-20T18:21:13+03:00,13.38,282.43,108.00254438216018,7.698239999999999,147.99499848229166,149.19820985206638,2.499986747494321,3.8491199999999997,3.81024,0.0,-29.598999696458325,-2.2975607584746007,24.810777,59.480455,9.612199006591597,130.38806175796486,278.38306024025655,-2.494080458916869,0.0007558689727822179,0.05817336166252527
2026-05-20T18:21:14+03:00,13.42,282.43,105.00024553567467,8.10648,152.99692003378374,151.39836778536872,2.7999874490248207,3.6741599999999996,3.71304,0.20053522829578813,-27.501974166279513,-3.002298846485514,24.810744,59.480485,9.727913976355056,126.39690538971239,279.39382542349614,-2.1801562056193857,0.0020655077955660022,0.060238869458091274
2026-05-20T18:21:15+03:00,13.53,282.43,103.00062283066809,8.00928,155.99921888026924,154.6986046853223,2.000023775463165,3.7908,3.6352800000000003,-0.49847328176381617,-24.098604863202425,-3.3976397251257815,24.810765,59.480456,9.600995374095524,125.62657951496028,281.62579839522954,-2.2081413979953117,0.0018572515729932786,0.062096121031084556
2026-05-20T18:21:16+03:00,13.46,282.42,99.00137742065495,8.203679999999999,149.99462118729824,155.79868365197345,0.0,3.6935999999999996,3.92688,-0.40107045659157625,-23.898069634906637,-2.498095986770389,24.810765,59.480441,9.509193556968018,121.5607441097304,271.55536529702863,-1.9332384655552848,0.0009016157459072967,0.06299773677699186
2026-05-20T18:21:17+03:00,13.38,282.42,97.00175471564837,8.80632,152.99692003378374,155.90181605509702,1.1000216708716675,3.73248,4.0824,-1.501149423242757,-24.001202038030186,-2.200157933302361,24.810793,59.480441,9.974779436085997,118.80381160266347,271.8007316364472,-1.7983535393661607,0.0008546901972819552,0.06385242697427382
2026-05-20T18:21:18+03:00,13.38,282.42,95.99907857416943,9.00072,157.9988415852758,155.30021037020964,0.5000202678106694,4.00464,4.00464,0.40107045659157625,-24.797613373262028,-2.6012283898939375,24.810786,59.480412,10.226648102830042,118.91899954051607,276.9178411257919,-1.9365344359192513,0.0017561709756650306,0.06560859794993885
2026-05-20T18:21:19+03:00,13.38,282.43,95.99907857416943,9.195120000000001,159.99846429028239,155.30021037020964,-0.600001403060998,4.00464,3.6352800000000003,0.6990085100596044,-24.299140091498213,-2.4006931615981495,24.810817,59.480409,10.40597564149689,118.50214439062132,278.5006086809037,-1.910980773779014,0.0009632932528956047,0.06657189120283447
2026-05-20T18:21:20+03:00,13.38,282.43,93.00250930563523,9.00072,161.99808699528896,157.0018950217482,0.09998113525032865,4.21848,3.6741599999999996,-0.8021409131831525,-22.901123071379004,-2.200157933302361,24.810828,59.480385,10.138351961594125,117.55458339125529,279.55267038654426,-1.9514411039907202,0.0014811463805860735,0.06805303758342054
2026-05-20T18:21:21+03:00,13.38,282.43,91.99983316415629,8.70912,162.99503355881663,156.69822739032887,-0.600001403060998,4.33512,4.23792,-0.20053522829578813,-24.001202038030186,-1.9996227050065731,24.810846,59.480372,9.862914551494992,118.05712813106717,281.0521616898838,-2.0390310328702457,0.0009552360674286289,0.06900827365084918
2026-05-20T18:21:22+03:00,13.38,282.42,90.0002104591497,9.097919999999998,157.9988415852758,154.49806945702647,-0.5000202678106694,4.0824,3.888,-1.3980170201192088,-25.59975428644518,-2.2975607584746007,24.810858,59.480357,9.97188101322827,114.16680502875171,272.16564661402754,-1.6713121792852004,0.0009731824974076338,0.06998145614825681
2026-05-20T18:21:23+03:00,13.23,282.42,91.99983316415629,9.29232,159.99846429028239,145.06145457122182,-0.600001403060998,3.81024,4.0629599999999995,0.962569095819783,-26.602430427924123,-2.647065013504403,24.810876,59.480332,10.165443167642191,113.99908701027496,273.99755130055735,-1.5497087608562734,0.0015999925271111292,0.07158144867536793
2026-05-20T18:21:24+03:00,13.38,282.42,93.99945586916286,9.00072,163.8372815176589,144.7807052516077,-0.600001403060998,3.92688,4.04352,0.8708958485988514,-26.90036848139215,-0.8708958485988514,24.810883,59.480326,10.06795546474847,116.89719677945435,280.73447829711324,-1.7764854732128208,0.00041919209637444324,0.07200064077174238
2026-05-20T18:21:25+03:00,13.38,282.41,93.99945586916286,9.195120000000001,156.99616544379688,144.58589960126324,-0.300000701530499,4.35456,3.888,0.6302535746439055,-25.80028951474097,-2.6699833253096363,24.810905,59.480289,10.444992209549106,118.57475751787997,275.57092296167684,-2.0828078357475266,0.0023231625335447628,0.07432380330528715
2026-05-20T18:21:26+03:00,13.38,282.42,95.99907857416943,9.195120000000001,161.99808699528896,153.10005243690728,-0.6999825383113268,4.41288,4.0824,0.7505747116213785,-27.702509394575305,-1.4381240657783663,24.810916,59.480264,10.606853375626166,120.44045844204427,282.43854543733323,-2.2357533819134296,0.0015397497668756,0.07586355307216275
2026-05-20T18:21:27+03:00,13.38,282.42,97.00175471564837,9.29232,165.99733240530213,152.40104392684768,-0.300000701530499,4.19904,4.19904,0.8479775367936184,-27.599376991451756,-2.738738260725335,24.810925,59.480244,10.653258506300674,120.03193917895194,286.02927158425405,-2.101546804425394,0.0012331455548277163,0.07709669862699046
2026-05-20T18:21:28+03:00,13.31,282.42,97.00175471564837,9.00072,161.99808699528896,151.90257064508384,-0.9999832398418258,4.04352,4.14072,0.9052733163067008,-28.89999118639872,-1.8105466326134017,24.810929,59.480247,10.307084796254113,119.91763580475796,281.9157228000469,-2.0167239957258114,0.00021777207978489836,0.07731447070677536
2026-05-20T18:21:29+03:00,13.23,282.41,97.00175471564837,8.80632,159.99846429028239,149.89721836212598,-1.5000035076524951,4.1212800000000005,4.0824,0.6073352628386726,-30.802211066233056,-2.0569184845196555,24.810942,59.480206,10.167817418293263,120.72399489808808,280.72245918837046,-2.1055741948469806,0.002496160356685574,0.07981063106346092
2026-05-20T18:21:30+03:00,13.38,282.42,97.00175471564837,8.59248,158.99578814880346,150.6019564501369,0.09998113525032865,4.21848,4.16016,0.8193296470370772,-29.197929239866756,-3.959138364353988,24.810956,59.480192,10.023140019211104,121.69345049047388,280.68923863927733,-2.216281360908694,0.0009438019998209896,0.08075443306328191
2026-05-20T18:21:31+03:00,13.27,282.41,95.99907857416943,8.59248,156.99616544379688,150.69935927530912,0.3999818367808277,4.29624,4.31568,0.9224620501606254,-28.89999118639872,-3.7127665124477343,24.810968,59.480172,10.000231036181555,121.29296069731967,278.2891261411165,-2.231527761845127,0.0012567218058684062,0.08201115486915031
2026-05-20T18:21:32+03:00,13.23,282.42,97.00175471564837,7.892639999999999,156.99616544379688,151.30096496019647,-0.9000021045914972,4.33512,4.45176,0.911002894258009,-28.498920729807146,-4.045082033623611,24.810978,59.480155,9.456678214742194,124.06670189310225,281.0628673368991,-2.428350688214239,0.0010664501464906688,0.08307760501564097
2026-05-20T18:21:33+03:00,13.23,282.42,95.99907857416943,7.795439999999999,158.99578814880346,149.89721836212598,-1.8000042091829944,4.84056,4.02408,0.22918311805232927,-31.300684347996874,-1.902219879834333,24.811003,59.480151,9.596213556544168,126.10906461515813,285.1048527639616,-2.852659052458535,0.0008001020806780969,0.08387770709631907
2026-05-20T18:21:34+03:00,13.23,282.42,93.99945586916286,8.00928,158.99578814880346,148.99767462377056,-0.3999818367808277,4.23792,4.04352,0.5672282171795151,-31.501219576292662,-2.0741072183735803,24.811016,59.480134,9.318977054934878,120.9778762649378,279.9736644137413,-2.181287330076317,0.0010961789135784188,0.0849738860098975
2026-05-20T18:21:35+03:00,13.23,282.43,93.99945586916286,7.892639999999999,151.57025512390797,147.7027900067749,-0.2000195662801704,4.16016,4.21848,0.8307888029396938,-32.69870136811608,-2.6814424812122524,24.811008,59.480096,9.175016806298933,120.8919827845394,272.4622379084474,-2.1359142593046765,0.0022971102012508795,0.08727099621114838
2026-05-20T18:21:36+03:00,13.23,282.43,97.99870127917599,7.795439999999999,144.99842921375745,147.30171955018335,-0.5000202678106694,4.31568,4.41288,0.9453803619658584,-32.40076331464805,-3.540879173908488,24.811061,59.480095,9.4210808879114,124.97558186950889,269.9740110832663,-2.4738655107600547,0.001618939212951599,0.08888993542409998
2026-05-20T18:21:37+03:00,13.23,282.43,99.00137742065495,7.698239999999999,143.9957530722785,147.80019283194716,-0.5000202678106694,4.49064,4.31568,0.8594366926962348,-32.20022808635227,-3.168456607073453,24.811086,59.480078,9.499803943930443,126.8337976325287,270.82955070480716,-2.6921199525278796,0.0012753421457035732,0.09016527756980355
2026-05-20T18:21:38+03:00,13.23,282.43,99.99832398418258,8.00928,143.9957530722785,146.2990434087044,-1.200002806121996,4.29624,4.0629599999999995,0.8307888029396938,-34.199850791358834,-2.4006931615981495,24.811107,59.480063,9.72392184611621,125.7907264836021,269.7864795558806,-2.5125545465018586,0.001106265607460171,0.09127154317726373
2026-05-20T18:21:39+03:00,13.23,282.43,99.00137742065495,7.892639999999999,149.99462118729824,146.09850818040863,-0.8000209693411684,4.0629599999999995,4.101839999999999,0.7734930234266114,-34.89885930141844,-2.457988941111232,24.811054,59.480018,9.425277255025208,124.20026934631815,274.1948905336164,-2.2837380780041774,0.00315175480413741,0.09442329798140114
2026-05-20T18:21:40+03:00,13.16,282.44,99.00137742065495,7.795439999999999,152.99692003378374,144.4025531068214,-0.3999818367808277,4.0824,4.0629599999999995,0.5614986392282068,-35.99893826806962,-2.0110818609091896,24.811076,59.479998,9.348430846828538,124.5524542369831,277.54937427076686,-2.3153759691671474,0.0013770096760103976,0.09580030765741154
2026-05-20T18:21:41+03:00,13.23,282.43,97.00175471564837,7.698239999999999,151.9999734702561,144.4999559319936,-0.2000195662801704,3.9074399999999994,4.276800000000001,1.008405719430249,-35.59786781147805,-2.778845306384493,24.811152,59.480013,9.047904454976518,122.38308010382727,274.38305357408336,-2.0927366922820902,0.0024889480294992047,0.09828925568691074
2026-05-20T18:21:42+03:00,13.23,282.43,99.00137742065495,7.40664,151.9999734702561,135.20085091702038,-1.7611576706731245,4.0824,4.14072,0.7104676659622208,-37.50008769131237,-1.8277353664673262,24.811124,59.479957,8.99921763477849,125.6201914525922,277.6201649228483,-2.3776284475623473,0.0034728500235294787,0.10176210571044023
2026-05-20T18:21:43+03:00,13.23,282.43,101.99794668918915,7.095599999999999,154.9965427387903,134.31276633456756,0.025382030324295465,4.0629599999999995,4.04352,0.6703606203030631,-36.199473496365414,-3.9362200525487556,24.811183,59.479979,8.879245025592695,128.586705130845,283.58324786963533,-2.534060986964866,0.002234320741666838,0.10399642645210706
2026-05-20T18:21:44+03:00,13.16,282.42,99.00137742065495,7.3094399999999995,151.9999734702561,142.90140368357862,-0.3237784500284282,4.0629599999999995,4.04352,-1.0026761414789407,-37.59749051648462,-2.498095986770389,24.811199,59.479963,8.901041349497698,125.79880511463574,277.7987785848918,-2.3765909117956925,0.0010786323493575465,0.10507505880146462
2026-05-20T18:21:45+03:00,13.08,282.42,97.99870127917599,7.40664,152.99692003378374,133.6309465583619,-0.7983020959557761,4.02408,4.31568,0.7792226013779195,-38.19909620137198,-3.0137580023881303,24.81122,59.479944,8.90765299805245,124.57315273169223,277.57007276547597,-2.283496320490215,0.0013096510787178755,0.10638470988018249
2026-05-20T18:21:46+03:00,13.08,282.42,99.99832398418258,7.60104,154.9965427387903,132.80015775542222,-0.5417315952961933,3.6741599999999996,4.14072,0.888084582452776,-39.49971039631895,-1.581363514561072,24.811233,59.47993,8.998485920781496,123.70832734906284,278.7048700878531,-2.0390314444874855,0.000930379993643431,0.10731508987382592
2026-05-20T18:21:47+03:00,13.08,282.42,99.99832398418258,7.60104,152.99692003378374,132.98923382781538,-0.4466778970839898,4.19904,4.101839999999999,0.8078704911344607,-39.20177234285093,-0.7047380880109125,24.811252,59.479911,9.300031694698852,126.399336556278,279.39625659006174,-2.4917505060128695,0.0012808763074937941,0.10859596618131971
2026-05-20T18:21:48+03:00,13.08,282.43,101.99794668918915,7.3094399999999995,151.9999734702561,140.39757811885693,-0.7436992180798087,3.96576,4.0824,-0.49847328176381617,-39.90078085291053,-1.3980170201192088,24.811271,59.479895,9.011481963481389,127.49502468536176,279.49499815561785,-2.4139285091207534,0.0011230699089045432,0.10971903609022425
2026-05-20T18:21:49+03:00,13.08,282.42,101.99794668918915,7.40664,152.99692003378374,139.60116678362508,-0.11894603826915891,4.21848,4.0824,-0.8995437383553924,-40.599789362970135,-1.902219879834333,24.811283,59.479877,9.254404463650006,128.47741914901064,281.4743391827944,-2.6247642184024635,0.0011422647653869977,0.11086130085561124
2026-05-20T18:21:50+03:00,13.08,282.42,103.00062283066809,7.503839999999999,154.9965427387903,138.59849064214615,-1.4125701481155315,4.0629599999999995,4.276800000000001,-0.20053522829578813,-42.19834161138514,-1.7990874767107847,24.811296,59.479861,9.302280948993161,128.18767673171521,283.1842194705055,-2.511881780729232,0.0010403767684733032,0.11190167762408455
2026-05-20T18:21:51+03:00,13.08,282.42,101.99794668918915,7.1928,152.99692003378374,137.20047362202695,-0.9999832398418258,3.86856,3.96576,-0.29793805346802804,-42.70254447110025,-1.501149423242757,24.811311,59.479846,8.84707786555454,127.32075120795139,280.3176712417351,-2.345416872296501,0.0010112185486096286,0.11291289617269418
2026-05-20T18:21:52+03:00,13.08,282.42,101.0010001256615,7.40664,152.99692003378374,138.70162304526968,1.3674783696387358,4.1212800000000005,3.9463199999999996,-0.20053522829578813,-40.69719218814238,-1.501149423242757,24.811329,59.479828,9.1374579658191,127.28003524566836,280.27695527945207,-2.496305372706659,0.0012134623804861556,0.11412635855318033
2026-05-20T18:21:53+03:00,13.08,282.42,97.99870127917599,7.1928,149.99462118729824,139.10269350186127,0.300000701530499,4.23792,4.0629599999999995,0.09740282517223994,-41.09826264473395,-2.1027551081301215,24.811346,59.479813,8.841926287663531,126.33430754359166,276.3289287308899,-2.510949148311035,0.0010402873765367046,0.11516664592971704
2026-05-20T18:21:54+03:00,13.08,282.42,97.00175471564837,6.9984,143.9957530722785,140.20277246851245,0.7819727987945476,4.0629599999999995,4.02408,-1.598552248414997,-39.29917516802316,-2.2975607584746007,24.811366,59.479794,8.50984690981514,125.28831289837551,269.284065970654,-2.347135985725862,0.0012949850319618058,0.11646163096167884
2026-05-20T18:21:55+03:00,13.01,282.43,91.99983316415629,6.901199999999999,148.99767462377056,139.10269350186127,-0.3999818367808277,4.14072,4.0824,0.09740282517223994,-41.60246550444908,-1.7990874767107847,24.811387,59.479779,8.171078807089453,122.42712237641283,271.4247970001834,-2.22036345547078,0.0011062687299846006,0.11756789969166344
2026-05-20T18:21:56+03:00,13.01,282.43,97.00175471564837,6.804,144.59735875716584,140.09964006538888,0.300000701530499,4.101839999999999,4.0824,-0.40107045659157625,-39.402307571146714,-1.9996227050065731,24.811407,59.479765,8.362038474462059,126.13700961681559,270.7343683739814,-2.41892948457082,0.0010396404327448255,0.11860754012440826
2026-05-20T18:21:57+03:00,13.08,282.43,99.99832398418258,6.804,147.99499848229166,139.69856960879733,-0.2000195662801704,4.257359999999999,3.96576,0.09740282517223994,-40.69719218814238,-1.7990874767107847,24.811427,59.479749,8.630064984775855,129.06487321722034,277.059871699512,-2.682987897121672,0.0011391351167764129,0.11974667524118467
2026-05-20T18:21:58+03:00,13.05,282.43,97.99870127917599,7.095599999999999,145.4682546057647,140.20277246851245,0.300000701530499,4.31568,3.96576,-0.49847328176381617,-39.602842799442506,-1.9996227050065731,24.811447,59.479732,8.803117076174411,127.0423024287958,272.5105570345605,-2.5997850740345343,0.001190317654619219,0.12093699289580388
2026-05-20T18:21:59+03:00,12.93,282.42,99.99832398418258,6.901199999999999,148.99767462377056,139.29749915220575,0.0,4.60728,4.14072,-0.6990085100596044,-41.201395047857496,-1.7990874767107847,24.811468,59.479715,8.938361725384956,130.5038813647784,279.50155598854894,-2.9924263268682387,0.001206258695861635,0.12214325159166552
2026-05-20T18:22:00+03:00,12.93,282.42,101.99794668918915,7.1928,147.77154494219062,138.7990258704419,-0.8000209693411684,4.257359999999999,3.96576,-0.29793805346802804,-40.599789362970135,-2.200157933302361,24.811488,59.479698,9.088059402091703,129.27044939088003,277.04199433307065,-2.6948308686381295,0.0011903179691035994,0.12333356956076912
2026-05-20T18:22:01+03:00,12.93,282.42,101.99794668918915,7.095599999999999,145.99537577728506,139.10269350186127,0.09998113525032865,4.21848,4.14072,-0.49847328176381617,-41.40193027615329,-1.7990874767107847,24.81151,59.479682,8.977065707510711,129.36261010573907,275.3579858830241,-2.675470160988987,0.0011729881209794272,0.12450655768174854
2026-05-20T18:22:02+03:00,12.93,282.43,106.99986824068124,7.1928,145.99537577728506,139.49803438050154,0.0,4.04352,3.8296799999999998,0.7276563998161455,-39.70024562461474,-3.575256641616337,24.811532,59.479666,9.224592679572412,131.78321212462177,277.7785879019068,-2.694254043568512,0.001172988301905985,0.12567954598365452
2026-05-20T18:22:03+03:00,12.93,282.44,103.99756939419571,7.40664,149.03205209147845,139.60116678362508,-0.09998113525032865,3.5964,4.0629599999999995,0.7964113352318443,-40.897727416438165,-1.283425461093044,24.811552,59.479651,8.982119983125674,126.85914622250559,275.89119831398403,-2.15730007695686,0.0010888663482309941,0.12676841233188552
2026-05-20T18:22:04+03:00,12.93,282.44,99.00137742065495,7.095599999999999,143.9957530722785,140.39757811885693,0.300000701530499,4.0824,3.86856,0.9167324722093171,-38.80070188625935,-3.2658594322456924,24.811575,59.479636,8.722259068833395,126.53568955339581,270.5314426256743,-2.4303482233942026,0.0011427301643645478,0.12791114249625007
2026-05-20T18:22:05+03:00,12.9,282.44,99.99832398418258,6.901199999999999,144.99842921375745,139.8991048370931,-0.5000202678106694,4.19904,4.00464,0.7734930234266114,-40.897727416438165,-0.9281916281119336,24.811597,59.479621,8.678762966040903,128.4541668059225,273.45259601967996,-2.61133425810108,0.0011242338313756325,0.1290353763276257
2026-05-20T18:22:06+03:00,12.78,282.43,99.99832398418258,6.901199999999999,145.99537577728506,139.8991048370931,-0.3999818367808277,4.58784,3.8491199999999997,1.0313240312354817,-39.29917516802316,-4.228428528065476,24.81162,59.479604,8.925747693331482,130.40899695257363,276.40437272985866,-2.9740189917241833,0.0012397826982422403,0.13027515902586795
2026-05-20T18:22:07+03:00,12.78,282.44,99.99832398418258,6.804,149.99462118729824,139.40063155532928,0.2000195662801704,4.62672,4.04352,0.6990085100596044,-41.60246550444908,-0.7620338675239948,24.811642,59.479585,8.86747427069913,130.918200980393,280.9128221676913,-3.030413185268467,0.0013248630592076214,0.13160002208507557
2026-05-20T18:22:08+03:00,12.78,282.45,103.00062283066809,7.095599999999999,151.9999734702561,139.69856960879733,0.09998113525032865,4.19904,3.92688,0.8537071147449266,-39.00123711455514,-5.1680793120800255,24.81166,59.479568,9.021352975020335,129.9706894992896,281.9706629695457,-2.697445006102233,0.0011601908421104861,0.13276021292718607
2026-05-20T18:22:09+03:00,12.78,282.44,101.0010001256615,7.3094399999999995,152.99692003378374,140.70124575027629,0.2000195662801704,3.9851999999999994,4.21848,0.9453803619658584,-39.402307571146714,-2.2402649789615188,24.811675,59.479551,8.968115872955245,126.86321062753677,279.8601306613205,-2.3907478920107503,0.0011197297031835438,0.13387994263036962
2026-05-20T18:22:10+03:00,12.78,282.44,103.99756939419571,7.40664,148.99767462377056,140.99918380374427,0.0,4.276800000000001,4.0824,0.716197243913529,-38.6975694831358,-3.300236899953542,24.811692,59.479535,9.406025189794047,130.17713307254104,279.17480769631163,-2.759189507474446,0.0010927960997789347,0.13497273873014856
2026-05-20T18:22:12+03:00,12.78,282.45,99.99832398418258,6.901199999999999,145.99537577728506,140.70124575027629,0.3999818367808277,4.16016,4.0824,0.8422479588423101,-38.80070188625935,-3.575256641616337,24.811734,59.479503,8.654637502096445,128.25259889830005,274.2479746755851,-2.575678072449289,0.0021584193205348443,0.1371311580506834
2026-05-20T18:22:13+03:00,12.71,282.45,97.00175471564837,6.804,147.7027900067749,139.29749915220575,-0.300000701530499,4.0629599999999995,4.101839999999999,0.7849521793292279,-41.201395047857496,-1.5870930925123803,24.811755,59.479489,8.339169348720064,125.92127077570217,273.62406078247704,-2.383629095764434,0.001057857448451419,0.13818901549913482
2026-05-20T18:22:14+03:00,12.67,282.45,99.00137742065495,6.7068,144.99842921375745,139.80170201192087,0.2000195662801704,4.1212800000000005,3.96576,0.9568395178684748,-40.19871890637856,-2.8476002418001913,24.811777,59.479473,8.403291787866193,127.97431439330052,272.97274360705796,-2.535857170398307,0.0011729904993614487,0.13936200599849627
2026-05-20T18:22:15+03:00,12.67,282.46,97.99870127917599,6.7068,145.99537577728506,138.90215827356548,-0.3999818367808277,4.276800000000001,3.9851999999999994,0.4068000345428845,-41.49933310132553,-1.7876283208081685,24.811798,59.479457,8.44126054958028,128.1128961966205,274.1082719739056,-2.6396964887025227,0.0011557851842422886,0.14051779118273855
2026-05-20T18:22:16+03:00,12.63,282.46,97.00175471564837,6.7068,149.99462118729824,140.00223724021666,0.0,3.92688,4.04352,0.8938141604040842,-40.19871890637856,-3.3403439456126995,24.811884,59.479408,8.174500024849257,125.47831447078416,275.4729356580824,-2.2791406714411027,0.0039454187456470485,0.1444632099283856
2026-05-20T18:22:17+03:00,12.63,282.46,101.0010001256615,6.7068,149.99462118729824,139.60116678362508,0.2000195662801704,3.7713599999999996,4.04352,0.8995437383553924,-39.79764844978698,-3.030946736242055,24.811834,59.479427,8.298056526295978,127.49700563788025,277.4916268251785,-2.2957021323286844,0.001906252151614223,0.14636946207999982
2026-05-20T18:22:18+03:00,12.63,282.45,101.0010001256615,7.095599999999999,147.99499848229166,141.60078948863168,0.2000195662801704,3.9074399999999994,4.1796,1.2948846169956605,-38.10169337619975,-3.9763270982079133,24.811911,59.479374,8.729099412451522,127.06711684091655,275.0621153232082,-2.3552100052503464,0.00395897120064811,0.15032843328064793
2026-05-20T18:22:19+03:00,12.63,282.46,101.99794668918915,6.901199999999999,142.99880650875087,141.30285143516363,-0.3999818367808277,4.04352,3.9074399999999994,0.8193296470370772,-38.502763832791324,-2.2975607584746007,24.811935,59.479355,8.693576296749923,129.0600115381588,272.05881804690966,-2.5479595430924222,0.0013568327542354695,0.15168526603488341
2026-05-20T18:22:20+03:00,12.63,282.46,97.00175471564837,6.804,141.6981923138039,142.29979799869125,0.600001403060998,3.6935999999999996,4.0629599999999995,0.23491269600363757,-37.798025744780404,-3.0424058921446715,24.811904,59.479379,8.127981529653777,123.81226169184015,265.5104540056441,-2.055390294902416,0.0017252607985246038,0.15341052683340803
2026-05-20T18:22:21+03:00,12.63,282.47,97.00175471564837,7.095599999999999,141.99613036727192,140.7986485754485,-0.09998113525032865,4.23792,4.21848,1.0943493886998723,-39.402307571146714,-2.4064227395494577,24.81198,59.479326,8.697051129431928,125.92571566217318,267.9218460294451,-2.486539648363448,0.003940926424183631,0.15735145325759167
2026-05-20T18:22:22+03:00,12.52,282.47,99.99832398418258,6.9984,141.99613036727192,140.7986485754485,-0.2000195662801704,4.23792,4.23792,1.0427831871380984,-39.90078085291053,-2.9278143331185067,24.812003,59.479312,8.78841305251709,128.35072346825422,270.34685383552613,-2.6295172445732558,0.0010959317997358724,0.15844738505732756
2026-05-20T18:22:23+03:00,12.63,282.46,101.99794668918915,6.901199999999999,146.3677983441201,140.7986485754485,-0.5000202678106694,4.29624,4.02408,1.2375888374825783,-38.19909620137198,-4.079459501331462,24.811971,59.479329,8.854998380119861,130.32983444798123,276.69763279210133,-2.7804699050017665,0.001413618978270013,0.15986100403559758
2026-05-20T18:22:24+03:00,12.63,282.47,105.00024553567467,6.804,143.9957530722785,141.30285143516363,-0.09998113525032865,4.31568,4.21848,0.320856365273261,-39.29917516802316,-3.0481354700959793,24.811992,59.479312,8.950956328896986,132.75694885557004,276.75270192784853,-2.9298711297971676,0.0012062627596609015,0.16106726679525848
2026-05-20T18:22:25+03:00,12.52,282.48,105.9971920992023,6.7068,145.99537577728506,142.00185994522323,0.300000701530499,4.393439999999999,4.04352,0.9167324722093171,-36.89848200642502,-5.614986392282068,24.812014,59.479295,8.97354575820656,134.07300680555096,280.068382582836,-3.0559643727268555,0.0012227585174667775,0.16229002531272527
2026-05-20T18:22:26+03:00,12.48,282.49,105.9971920992023,7.095599999999999,148.99767462377056,140.59811334715272,-0.09998113525032865,4.19904,4.29624,1.1459155902616465,-40.50238653779789,-0.9167324722093171,24.812089,59.479243,9.18704186714271,132.06034522346738,281.0580198472379,-2.812991198782252,0.003874385704604666,0.16616441101732993
2026-05-20T18:22:27+03:00,12.48,282.48,108.99949094568781,7.40664,145.69743772381705,143.4972797905147,0.2000195662801704,4.957199999999999,4.00464,1.0714310768946396,-35.59786781147805,-5.488935677353287,24.812101,59.479229,10.165568319898867,136.45630311278288,282.1537408365999,-3.593222371735446,0.0009177788134519181,0.16708218983078185
2026-05-20T18:22:28+03:00,12.48,282.48,106.99986824068124,7.795439999999999,149.99462118729824,141.80132471692744,-0.9999832398418258,4.35456,3.9074399999999994,1.0427831871380984,-38.19909620137198,-1.4152057539731333,24.812124,59.479214,9.979000911441426,131.66444075973993,281.65906194703814,-2.894767106610257,0.0011427355535506575,0.1682249253843325
2026-05-20T18:22:29+03:00,12.48,282.49,108.99949094568781,7.698239999999999,151.9999734702561,144.4025531068214,0.2000195662801704,4.21848,3.96576,0.12032113697747288,-35.7010002146016,-4.434693334312572,24.812091,59.479223,9.90976765285724,132.73393563275295,284.73390910300907,-2.8626387284699466,0.0011434167110957955,0.1693683420954283
2026-05-20T18:22:30+03:00,12.48,282.49,105.9971920992023,7.795439999999999,149.70241271178148,141.8987275420997,-0.09998113525032865,4.02408,4.276800000000001,1.088619810748564,-37.798025744780404,-1.575633936609764,24.812175,59.479175,9.708364790860545,129.47818893360142,279.1806016453829,-2.5584474334949983,0.0038599416674621745,0.17322828376289048
2026-05-20T18:22:31+03:00,12.45,282.49,106.99986824068124,7.698239999999999,155.99921888026924,143.1019389118744,0.300000701530499,4.374,4.78224,0.7047380880109125,-38.10169337619975,-3.7127665124477343,24.812121,59.479189,9.903745078697337,131.9831221568437,287.982341037113,-2.9258196281160966,0.0018507657105380933,0.1750790494734286
2026-05-20T18:22:32+03:00,12.41,282.49,108.00254438216018,7.60104,149.99462118729824,140.3001752936847,-1.5999846429028237,4.101839999999999,4.0824,1.730332541295086,-39.20177234285093,-2.1543213096918956,24.812141,59.479173,9.688795187850616,131.74540658036042,281.74002776765866,-2.7310947063097935,0.001139140696409473,0.17621819016983806
2026-05-20T18:22:33+03:00,12.48,282.49,108.99949094568781,7.60104,141.58933033272905,141.19971903204006,-0.6999825383113268,4.02408,4.101839999999999,-0.06875493541569878,-39.90078085291053,-3.672659466788577,24.812237,59.479136,9.68942449283695,132.1209204547511,273.71025078748016,-2.698940365645755,0.003678833085651923,0.17989702325548998
2026-05-20T18:22:34+03:00,12.48,282.49,105.9971920992023,7.60104,147.99499848229166,139.2000963270335,-1.4000223724021665,4.16016,4.04352,0.9453803619658584,-40.897727416438165,-3.672659466788577,24.812185,59.479144,9.618311585142791,130.56535723419387,278.56035571648556,-2.7054145331121227,0.0016585793904368325,0.18155560264592682
2026-05-20T18:22:35+03:00,12.41,282.49,105.9971920992023,7.3094399999999995,149.99462118729824,136.9025355685589,-0.09998113525032865,3.73248,4.33512,0.1776169164905552,-44.59903477298328,-1.432394487827058,24.812202,59.479129,9.077269023644781,129.27978889442522,279.27441008172343,-2.363062428395199,0.0010402926185595594,0.18259589526448639
2026-05-20T18:22:36+03:00,12.33,282.5,103.99756939419571,7.40664,153.99959617526267,127.32268123397154,-0.9566103347504225,3.3242399999999996,4.02408,0.49847328176381617,-45.20064045787065,-1.598552248414997,24.8123,59.479092,8.821552920487171,125.44466529418538,279.44426146944807,-1.9277814078497537,0.003727651321853511,0.1863235465863399
2026-05-20T18:22:37+03:00,12.33,282.51,103.99756939419571,7.095599999999999,144.99842921375745,134.1007719503692,-0.600001403060998,3.53808,4.0629599999999995,0.02864788975654116,-46.701789881113406,-1.558445202755839,24.812235,59.479102,8.660847795458052,127.34987874809411,272.34830796185156,-2.1464847403269824,0.0020732266553724573,0.18839677324171236
2026-05-20T18:22:38+03:00,12.33,282.51,103.00062283066809,6.901199999999999,141.25128523360186,125.95331210360888,-0.297880757688515,4.29624,3.9851999999999994,1.0141352973815572,-46.10018419622604,-3.002298846485514,24.812252,59.479089,8.912020557955591,131.01647491604305,272.2677601496449,-2.8195192547082493,0.0009380217921013573,0.18933479503381373
2026-05-20T18:22:40+03:00,12.33,282.5,108.99949094568781,6.492959999999999,147.99499848229166,125.86736843433926,1.4607558986860338,3.7908,3.9074399999999994,0.7563042895726866,-46.701789881113406,-2.6929016371148693,24.812286,59.47906,8.517924190575982,133.8841532782128,281.87915176050444,-2.627792088378072,0.0029786433246358737,0.1923134383584496
2026-05-20T18:22:41+03:00,12.26,282.5,106.99986824068124,6.201359999999999,143.9957530722785,127.08776853796792,0.5958188111565431,3.9463199999999996,4.16016,0.7505747116213785,-46.99972793458143,-0.8708958485988514,24.812311,59.479043,8.266823008935182,134.1619996441073,278.1577527163858,-2.7493595970742386,0.0012753561386418448,0.19358879449709146
2026-05-20T18:22:42+03:00,12.18,282.5,112.99873635570096,6.39576,139.99650766226534,126.72107554908418,-0.42502009242804467,3.9463199999999996,3.9851999999999994,0.9568395178684748,-45.20064045787065,-3.4262876148823227,24.812341,59.479027,8.729378433050885,137.58984423901484,277.5863519012802,-2.9137093655839554,0.0013279912125800444,0.1949167857096715
2026-05-20T18:22:43+03:00,12.18,282.51,110.99911365069438,6.201359999999999,139.99650766226534,133.60229866860536,-1.1000216708716675,3.86856,3.9851999999999994,0.7219268218648373,-46.99972793458143,-0.836518380891002,24.812368,59.479012,8.403372087389126,136.45295513400396,276.4494627962693,-2.8039668226658447,0.0012215633331786719,0.19613834904285016
2026-05-20T18:22:45+03:00,12.18,282.53,112.00178979217334,6.804,143.69208544085916,133.60229866860536,0.9000021045914972,3.71304,3.9463199999999996,-1.0026761414789407,-46.59865747798985,-1.7990874767107847,24.812424,59.478982,8.888774431916524,134.78842590122412,278.4805113420833,-2.615802735195881,0.0027793698877374875,0.19891771893058766
2026-05-20T18:22:47+03:00,12.18,282.52,112.00178979217334,6.9984,137.99688495725877,133.99763954724563,-0.9999832398418258,4.00464,4.0629599999999995,0.0,-46.00278137105379,-1.9996227050065731,24.812479,59.478954,9.274366322031623,135.60183767964213,273.5987226369009,-2.861295737195349,0.0024417087186225134,0.20135942764921017
2026-05-20T18:22:48+03:00,12.18,282.53,112.00178979217334,7.3094399999999995,140.99918380374427,135.0977185138968,-0.300000701530499,3.888,3.6935999999999996,0.09740282517223994,-44.70216717610683,-1.0026761414789407,24.812506,59.47894,9.478294669009927,134.35568951487488,275.3548733186192,-2.718141950547963,0.001177898427085248,0.2025373260762954
2026-05-20T18:22:50+03:00,12.03,282.54,110.99911365069438,7.60104,143.9957530722785,135.60192137361193,0.9000021045914972,4.02408,3.9074399999999994,0.10313240312354818,-44.30109671951525,-2.538203032429547,24.812551,59.478911,9.792399335086008,133.558883693295,277.5546367655735,-2.7729922792265227,0.0026776299227940616,0.20521495599908945
2026-05-20T18:22:52+03:00,12.03,282.54,112.00178979217334,6.9984,143.9957530722785,136.9025355685589,0.0,4.23792,3.8491199999999997,0.16615776058793874,-42.89735012144474,-3.523690440054563,24.812603,59.478879,9.442454403617813,136.59224026475692,280.5879933370354,-3.0787709447940044,0.002583005420072854,0.20779796141916232
2026-05-20T18:22:53+03:00,12.03,282.53,112.00178979217334,7.1928,136.99993839373113,136.9025355685589,0.0,4.0824,4.00464,0.1604281826366305,-43.298420578036314,-2.887707287459349,24.812628,59.478867,9.508095165593932,135.46068475021164,272.46062314394277,-2.90980951674847,0.001050077848069692,0.208848039267232
2026-05-20T18:22:54+03:00,12.03,282.53,110.99911365069438,7.698239999999999,145.99537577728506,137.69894690379076,0.6999825383113268,3.9463199999999996,4.04352,0.1432394487827058,-42.10093878621289,-2.8017636181897254,24.812651,59.478853,9.829023246117135,133.01302171907582,279.0083974963609,-2.6920396407861107,0.0010959379123019958,0.209943977179534
2026-05-20T18:22:55+03:00,11.88,282.54,110.99911365069438,7.40664,145.99537577728506,136.99993839373113,0.2000195662801704,4.257359999999999,3.96576,0.07448451336700701,-42.19834161138514,-2.6929016371148693,24.812751,59.478811,9.7766641087691,134.98682312057713,280.9821988978622,-3.0097157128937715,0.003961269004936164,0.21390524618447015
2026-05-20T18:22:56+03:00,11.88,282.54,110.00216708716675,7.40664,147.99499848229166,138.30055258867813,0.9000021045914972,3.9851999999999994,4.1796,-0.040107045659157625,-42.19834161138514,-2.503825564721698,24.812693,59.478821,9.535880167401013,133.12523908637132,281.120237568663,-2.7242641793595763,0.0018697637991639774,0.21577500998363414
2026-05-20T18:22:58+03:00,11.88,282.55,108.00254438216018,6.9984,142.99880650875087,138.70162304526968,-0.600001403060998,3.81024,3.81024,0.011459155902616466,-41.40193027615329,-3.2028340747813018,24.812734,59.478792,8.943043151758541,131.90606643717445,274.9048729459253,-2.544902576192127,0.0021985250996941117,0.21797353508332826
2026-05-20T18:22:59+03:00,11.88,282.54,108.00254438216018,6.9984,145.99537577728506,140.20277246851245,0.3999818367808277,4.1796,3.8491199999999997,-0.005729577951308233,-39.70024562461474,-3.466394660541481,24.812752,59.478775,9.193853406275474,133.61944426716497,279.61482004445,-2.883360856063585,0.0011601969507097144,0.21913373203403796
2026-05-20T18:23:01+03:00,11.73,282.54,105.9971920992023,6.492959999999999,147.99499848229166,138.90215827356548,-0.300000701530499,3.73248,4.101839999999999,-0.08021409131831525,-41.9004035579171,-3.1455382952682194,24.812788,59.478745,8.333529230049471,131.4992005171986,279.49419899949027,-2.473177070541351,0.002248489005496683,0.22138222103953464
2026-05-20T18:23:02+03:00,11.73,282.54,105.9971920992023,6.492959999999999,141.99613036727192,139.10269350186127,0.3999818367808277,3.9851999999999994,3.7908,-0.011459155902616466,-40.10131608120632,-3.7757918699121253,24.81281,59.47873,8.50309085326521,132.77470738704653,274.77083775431845,-2.7064184266364992,0.0011242444133386317,0.22250646545287328
2026-05-20T18:23:03+03:00,11.88,282.55,105.9971920992023,6.492959999999999,146.99805191876402,138.99956109873773,-0.600001403060998,3.6935999999999996,4.0824,-0.05729577951308232,-41.201395047857496,-3.3059664779048505,24.812832,59.478713,8.307818002930313,131.2983724966419,278.2964244154059,-2.4377033388265463,0.0012227648726755003,0.22372923032554878
2026-05-20T18:23:05+03:00,11.73,282.56,105.00024553567467,6.901199999999999,141.99613036727192,137.6015440786185,-0.600001403060998,4.29624,3.9074399999999994,-0.07448451336700701,-43.000482524568284,-3.0424058921446715,24.812878,59.478679,9.02397064751172,132.37890052221414,274.3750308894861,-2.8957963731389236,0.0018616568901445585,0.22559088721569334
2026-05-20T18:23:07+03:00,11.73,282.56,108.00254438216018,6.492959999999999,145.99537577728506,135.99726225225223,-0.5000202678106694,4.00464,3.92688,-0.09740282517223994,-44.30109671951525,-2.8762481315567325,24.812916,59.478648,8.617886458747881,134.23023572911734,280.2256115064024,-2.7934099163604826,0.002128102754279192,0.22771898996997253
2026-05-20T18:23:08+03:00,11.73,282.56,108.99949094568781,6.492959999999999,141.99613036727192,126.3944896058596,-1.7369788517186038,3.9074399999999994,3.9463199999999996,-0.09167324722093173,-45.40117568616643,-2.9335439110698154,24.81294,59.478633,8.599190271879866,134.44429749156137,276.4404278588333,-2.7360501184553105,0.0011617480887341249,0.22888073805870665
2026-05-20T18:23:09+03:00,11.7,282.57,108.00254438216018,6.201359999999999,142.99880650875087,124.88761060466554,-1.1404151954283905,3.9851999999999994,3.9463199999999996,-0.10886198107485642,-47.89927167293682,-2.5840396560400127,24.813041,59.4786,8.343539668127676,135.01956291300513,278.018369421756,-2.818923937265584,0.003666107064183385,0.23254684512289003
2026-05-20T18:23:10+03:00,11.58,282.56,112.99873635570096,6.39576,147.99499848229166,123.15154848541914,-1.2125505818353612,4.00464,3.9463199999999996,0.0,-49.69835914964761,-0.8995437383553924,24.812982,59.478602,8.772526355423244,137.84673938995584,285.8417378722475,-2.968849114736135,0.0018050600229995721,0.2343519051458896
2026-05-20T18:23:11+03:00,11.73,282.57,114.99835906070751,6.201359999999999,137.05723417324424,121.83947513456955,-2.332912254434173,4.00464,3.86856,-0.20053522829578813,-51.497446626358396,-1.3922874421679003,24.813004,59.478587,8.688124257901434,139.6911281885897,276.7483623618339,-3.053810996802697,0.0011242461122993287,0.23547615125818894
2026-05-20T18:23:12+03:00,11.7,282.57,118.00065790719304,5.69592,138.99956109873773,128.10190383534945,-1.3821460891940849,3.9851999999999994,3.6741599999999996,-1.3980170201192088,-52.2021847143693,-0.6990085100596044,24.813028,59.478572,8.345011152182074,142.93966749267,281.93922859140775,-3.1801950024814727,0.0011617489230814342,0.23663790018127037
2026-05-20T18:23:13+03:00,11.58,282.56,114.99835906070751,5.69592,136.99993839373113,117.63396491830933,-1.5383343841467472,4.04352,4.00464,-0.49847328176381617,-55.59982443949509,-0.29793805346802804,24.813132,59.478537,8.261929807212892,141.33007593456867,278.3300143282998,-3.1570126290452425,0.0038085204854431676,0.24044642066671354
2026-05-20T18:23:14+03:00,11.58,282.56,116.99798176571409,5.69592,139.99650766226534,124.40059647880433,-0.300000701530499,4.1212800000000005,3.888,-0.1546986046853223,-55.80035966779087,-1.793357898759477,24.813153,59.478523,8.410788478743488,142.88515278899575,282.8816604512611,-3.2864223827456813,0.0010578685584335388,0.24150428922514708
2026-05-20T18:23:15+03:00,11.51,282.57,120.0002806121996,5.79312,133.99763954724563,116.23021832023879,-1.2061907503094091,3.92688,3.86856,-0.09740282517223994,-57.50204431932942,-1.598552248414997,24.813104,59.47853,8.469339166118463,143.6746917387486,277.67233128599423,-3.1637564666871545,0.0015538434655574264,0.2430581326907045
2026-05-20T18:23:16+03:00,11.58,282.57,123.99952602221278,5.79312,129.99839413723248,114.79782383241175,-2.2477134302982194,3.96576,3.6741599999999996,-0.6990085100596044,-58.000517601093236,-1.3006141949469687,24.813174,59.478495,8.659163372879629,146.31389808716847,276.31229222440095,-3.2998640226841767,0.002998660655574121,0.2460567933462786
2026-05-20T18:23:17+03:00,11.58,282.58,125.99914872721935,5.307119999999999,127.99877143222591,112.78674197150255,-1.115033165104095,3.9074399999999994,3.51864,-0.10886198107485642,-59.39853462121244,-2.3663156938903005,24.813169,59.478505,8.23475649084423,148.57383650158457,276.57260793381045,-3.3342685472094264,0.0006201534406956834,0.2466769467869743
2026-05-20T18:23:18+03:00,11.51,282.59,123.99952602221278,5.50152,131.99801684223905,120.09768343737186,-0.3399931556306305,3.9463199999999996,3.34368,-0.13178029288008933,-60.29807835956783,-1.3750987083139758,24.813237,59.478485,8.373820521038818,146.99769351470664,278.99571035694566,-3.309575910500571,0.002398771175705783,0.24907571796268008
2026-05-20T18:23:19+03:00,11.43,282.59,127.00182486869828,5.598719999999999,129.99839413723248,120.4013510687912,2.9117142190753307,3.6935999999999996,3.402,-2.1027551081301215,-58.90006133944863,-1.1000789666511805,24.813279,59.478485,8.359412930220673,147.66466033608384,277.6630544733163,-3.1208411580502697,0.0012821095386344257,0.2503578275013145
2026-05-20T18:23:20+03:00,11.4,282.59,125.0022021636917,5.69592,125.99914872721935,117.03808881137326,5.867488892596222,3.6352800000000003,3.61584,-0.26929016371148695,-54.597148298016144,-2.2288058230589023,24.813302,59.478477,8.3314656238048,145.94355322297048,271.9427019501898,-3.0117795438807007,0.0008509895474893518,0.2512088170488039
2026-05-20T18:23:21+03:00,11.36,282.58,127.00182486869828,5.20992,123.99952602221278,132.10114924536262,6.799977704171636,3.5964,3.2076,-0.2864788975654116,-44.79957000127907,-3.6669298888372683,24.813288,59.478459,7.913954518773545,148.2815456218438,272.28107164405657,-3.059248228174066,0.0011632871279020228,0.2523721041767059
2026-05-20T18:23:22+03:00,11.43,282.58,125.99914872721935,5.404319999999999,126.99609529074696,138.5010878169739,4.800011224487984,3.5575200000000002,3.38256,-0.12605071492878112,-39.09863993972738,-4.136755280844544,24.813318,59.478448,8.028925949206416,147.0053822517815,274.00147754252845,-2.9837693166528645,0.0011295321882519112,0.2535016363649578
2026-05-20T18:23:23+03:00,11.43,282.59,118.00065790719304,5.598719999999999,126.99609529074696,131.50527313842653,1.5654352878564353,3.9074399999999994,3.14928,-0.05729577951308232,-35.79840303977384,-5.294130027008806,24.813349,59.478439,8.19482388035698,142.89857161545524,269.8946669062022,-3.116452585863506,0.0010900319672822005,0.25459166833224
2026-05-20T18:23:24+03:00,11.4,282.58,114.0014124971799,5.69592,132.9949634057667,144.9010263885852,1.7000230739326654,4.00464,3.34368,0.05156620156177409,-33.598245106471474,-5.597797658428142,24.813375,59.478428,8.187617967552548,140.54116772309527,273.53613112886194,-3.0919081145724197,0.0010330083222733935,0.2556246766545134
2026-05-20T18:23:25+03:00,11.28,282.58,108.99949094568781,6.492959999999999,140.99918380374427,146.90064909359177,2.6000251785241626,4.1796,3.6547199999999997,0.017188733853924696,-32.899236596411875,-4.457611646117805,24.813396,59.478416,8.791908270850284,135.7106531717413,276.7098369754856,-2.99185205422746,0.0009649952131335313,0.2565896718676469
2026-05-20T18:23:26+03:00,11.28,282.59,108.00254438216018,6.7068,145.99537577728506,137.17182573227038,-0.19749855198159477,3.57696,3.51864,-0.07448451336700701,-33.00236899953541,-4.073729923380153,24.813414,59.478402,8.520824094513593,131.53313375976484,277.5285095370499,-2.3717142498733046,0.0010050176442476608,0.25759468951189457
2026-05-20T18:23:27+03:00,11.28,282.59,103.99756939419571,6.6095999999999995,142.99880650875087,146.00110535523638,-0.9999832398418258,3.6741599999999996,3.5575200000000002,0.0,-34.497788844826864,-4.199780638308934,24.813419,59.478363,8.302667009700103,129.42624989309775,272.4250564018486,-2.333401964350371,0.0023491646905451262,0.2599438542024397
2026-05-20T18:23:28+03:00,11.28,282.59,103.99756939419571,6.9984,146.99805191876402,144.79789398546166,-1.2999839413723246,3.6547199999999997,3.46032,0.8995437383553924,-35.299929758010016,-1.9996227050065731,24.81341,59.478344,8.643369769652264,128.21995787838566,275.21800979714965,-2.261109829558475,0.001174628403753176,0.26111848260619286
2026-05-20T18:23:29+03:00,11.28,282.6,105.00024553567467,7.3094399999999995,145.99537577728506,136.0660171876679,1.3374553811738807,3.71304,3.34368,-0.19480565034447989,-34.80145647624621,-2.687172059163561,24.813461,59.478358,9.014634071752711,128.44439713634864,274.4397729136337,-2.3086006622292237,0.0017697255435347372,0.2628882081497276
2026-05-20T18:23:30+03:00,11.28,282.59,101.0010001256615,7.40664,150.99729732877717,144.4025531068214,0.0,3.7713599999999996,3.5964,-0.49847328176381617,-35.99893826806962,-3.5007721282493303,24.813477,59.478343,8.929849120521197,125.49330653808215,276.4906038668593,-2.189681199954623,0.0010254119019271059,0.2639136200516547
2026-05-20T18:23:31+03:00,11.28,282.59,101.0010001256615,7.1928,152.99692003378374,144.59735875716584,-0.3999818367808277,3.61584,3.6352800000000003,-1.3006141949469687,-34.80145647624621,-3.300236899953542,24.813491,59.478329,8.645038348965615,125.24165661425604,278.2385766480398,-2.0864346498244557,0.0009438126728265537,0.26485743272448126
2026-05-20T18:23:32+03:00,11.21,282.58,101.0010001256615,6.9984,148.99767462377056,134.55913818647383,-1.4997170287549297,4.16016,3.5964,1.2719663051904275,-37.001614409548566,-0.813600069085769,24.813506,59.478315,8.797507299205101,128.65879364319778,277.6564682669683,-2.598773822517803,0.0009580223250438375,0.2658154550495251
2026-05-20T18:23:33+03:00,11.28,282.6,103.99756939419571,6.9984,152.99692003378374,144.70049116028943,0.09998113525032865,4.101839999999999,3.5964,-0.40107045659157625,-35.00199170454199,-2.6986312150661775,24.81352,59.478299,8.926908983094867,130.475142731573,283.4720627653567,-2.6625785536786757,0.0010524062565161988,0.2668678613060413
2026-05-20T18:23:34+03:00,11.25,282.6,103.99756939419571,6.901199999999999,149.99462118729824,142.99880650875087,-1.200002806121996,4.23792,3.6741599999999996,-1.701684651538545,-37.901158147903956,-2.6012283898939375,24.813536,59.478282,8.929443995392656,131.41745309026498,281.4120742775632,-2.8035549906067985,0.0011325627672306951,0.26800042407327196
2026-05-20T18:23:35+03:00,11.13,282.6,101.99794668918915,6.804,151.9999734702561,131.49381398252393,-2.194600242689592,3.9463199999999996,3.8491199999999997,0.8537071147449266,-40.599789362970135,-2.223076245107594,24.813548,59.478268,8.54582643410697,128.85047554993167,280.85044902018774,-2.4754876143645212,0.0009177829730978681,0.2689182070463698
2026-05-20T18:23:36+03:00,11.13,282.6,105.9971920992023,6.804,153.99959617526267,138.99956109873773,-1.200002806121996,3.86856,3.1687199999999995,-0.49847328176381617,-41.09826264473395,-1.598552248414997,24.81356,59.478252,8.704491385733919,131.2885863563294,285.28818253159204,-2.552677048468872,0.0010291267942194498,0.2699473338405893
2026-05-20T18:23:37+03:00,11.13,282.59,105.9971920992023,7.095599999999999,145.99537577728506,137.89948213208652,-0.5000202678106694,3.6352800000000003,3.6547199999999997,-0.09740282517223994,-42.50200924280447,-1.902219879834333,24.813575,59.478238,8.81930957023805,129.34010887097762,275.33548464826265,-2.304485532023074,0.0009580228246079669,0.2709053566651972
2026-05-20T18:23:38+03:00,11.13,282.59,108.00254438216018,6.6095999999999995,142.99880650875087,128.8983151705813,-1.200002806121996,3.61584,3.6547199999999997,0.3380450991271857,-43.40155298115986,-1.8621128341751756,24.813593,59.478225,8.457758706923439,131.99318781610623,274.9919943248571,-2.4191497125971186,0.0009552561560020492,0.2718606128211993
2026-05-20T18:23:39+03:00,11.13,282.6,106.99986824068124,6.7068,141.99613036727192,135.2982537421926,-1.899985344433323,4.31568,3.51864,-1.3006141949469687,-45.49857851133868,-0.8995437383553924,24.813613,59.47821,8.973916729659313,134.3805512061743,276.3766815734462,-3.0184762531954115,0.0010888809515107922,0.27294949377271005
2026-05-20T18:23:40+03:00,11.13,282.6,105.00024553567467,6.29856,152.99692003378374,134.599245232133,0.2000195662801704,3.6935999999999996,3.26592,0.20053522829578813,-45.20064045787065,-0.8021409131831525,24.813632,59.478192,8.084383164066534,131.18790085902106,284.1848208928048,-2.4323484693704156,0.0012275991499590443,0.2741770929226691
2026-05-20T18:23:41+03:00,11.13,282.6,106.99986824068124,6.804,142.99880650875087,128.38265315496355,1.2999839413723246,3.07152,3.46032,0.48701412586119974,-43.40155298115986,-1.8678424121264836,24.813701,59.478153,8.243111713406147,127.87516903902392,270.87397554777476,-1.8857387180336673,0.003151500584073766,0.2773285935067429
2026-05-20T18:23:42+03:00,11.13,282.6,106.99986824068124,6.39576,131.99801684223905,135.89985942707997,-0.600001403060998,3.51864,3.53808,-0.6016056848873644,-44.59903477298328,-2.6986312150661775,24.813671,59.478166,8.151426903365072,131.38060460306764,263.3786214453067,-2.3260247857494374,0.00120385986176254,0.2785324533685054
2026-05-20T18:23:43+03:00,10.98,282.59,105.9971920992023,6.201359999999999,133.99763954724563,134.599245232133,-1.899985344433323,3.4992,3.5575200000000002,-0.8995437383553924,-46.00278137105379,-1.9996227050065731,24.813745,59.478125,7.9159189211361145,131.1432869975395,265.1409265447851,-2.30227895962137,0.003343101535977951,0.28187555490448335
2026-05-20T18:23:44+03:00,10.98,282.6,106.99986824068124,6.39576,146.99805191876402,133.09809580889024,-1.200002806121996,3.51864,3.51864,-0.20053522829578813,-47.29766598804946,-0.6990085100596044,24.813776,59.478112,8.151426903365072,131.38060460306764,278.37865652183166,-2.3260247857494374,0.0012272430193303293,0.28310279792381365
