time,dpt,mtw,awa,aws,cog,hdg,rot,sog,stw,pitch,yaw,roll,lng,lat,tws,twa,twd,vmg,dist,cum_dist
2024-09-11T17:27:52+03:00,22.5,288.65,31.999692858056477,17.5932,87.18125810710607,78.09987705428252,1.5999846429028237,5.851439999999999,5.50152,-3.0997016716577535,-101.79741146089336,-20.597832734953094,24.798672,59.488683,13.00591745831071,45.792515253115,132.97377336022106,4.079967736770225,0.0015914414543093099,0.0015914414543093099
2024-09-11T17:27:53+03:00,22.5,288.65,31.002746294528848,17.5932,88.28133707375724,79.10255319576146,2.6000251785241626,5.754239999999999,5.598719999999999,-3.002298846485514,-100.10145638730613,-20.99890319154467,24.798723,59.488685,13.003286142729358,44.178205755707125,132.45954282946437,4.126801355237101,0.0015610130541950959,0.003152454508504406
2024-09-11T17:27:54+03:00,22.3,288.65,28.000447448043335,17.5932,90.5387907865727,80.09949975928909,3.0000070153049903,5.57928,5.69592,-3.002298846485514,-98.80084219235916,-21.39997364813625,24.798753,59.488685,12.934995586415312,39.683706477695694,130.22249726426838,4.2937088520414255,0.0009155159761577348,0.004067970484662141
2024-09-11T17:27:55+03:00,21.9,288.65,26.997771306564392,17.70984,90.99715702267736,82.99866620265107,1.5999846429028237,5.9292,5.79312,-1.598552248414997,-96.10221097729297,-22.001579333023614,24.798814,59.488688,12.714933351182914,39.21904532810379,130.21620235078115,4.593554949688698,0.0018702623807976054,0.005938232865459746
2024-09-11T17:27:56+03:00,21.8,288.65,26.997771306564392,17.90424,92.2290162822086,85.80042982084078,2.199986045963822,6.14304,5.90976,-2.1027551081301215,-92.80197407733944,-20.397297506657306,24.798878,59.488688,12.7396057509468,39.64206222400361,131.8710785062122,4.730417769697689,0.0019531005752941968,0.007891333440753942
2024-09-11T17:27:57+03:00,21.8,288.65,26.997771306564392,18.895680000000002,94.41771505960834,87.70264970067511,0.0,5.9292,5.90976,-1.501149423242757,-92.40090362074787,-18.59821002994652,24.798935,59.488686,13.87616989063049,38.18247581551282,132.60019087512114,4.66062394047566,0.0017436293457780269,0.009634962786531968
2024-09-11T17:27:58+03:00,21.7,288.65,26.997771306564392,18.895680000000002,95.16828977122974,87.19844684095999,0.0,5.81256,5.90976,-2.6012283898939375,-93.09991213080748,-18.397674801650734,24.798987,59.488684,13.968040395637699,37.88671331087653,133.05500308210628,4.587426467303782,0.001591441313814475,0.011226404100346444
2024-09-11T17:27:59+03:00,21.5,288.65,28.000447448043335,19.59552,93.66714034798699,86.60257073402393,0.5000202678106694,5.754239999999999,5.90976,-3.2028340747813018,-93.3978501842755,-18.397674801650734,24.799043,59.488681,14.7641082182588,38.543655334564335,132.21079568255132,4.500584547598767,0.0017184504463386059,0.01294485454668505
2024-09-11T17:28:00+03:00,21.4,288.65,26.997771306564392,19.90656,94.06248122662724,87.39898206925578,2.3000244769936637,5.7153599999999996,5.90976,-3.3976397251257815,-92.09723598932852,-20.00195662801704,24.799097,59.488679,15.039521365213115,36.931765104112344,130.9942463307396,4.568582499146273,0.001652308004703603,0.014597162551388654
2024-09-11T17:28:01+03:00,21.4,288.65,24.99814860155782,19.40112,99.12742813558373,88.00058775414314,0.9000021045914972,5.69592,5.90976,-2.8017636181897254,-91.99983316415629,-21.89844692990006,24.79915,59.488673,14.440804074911703,34.5931516690444,133.72057980462813,4.6889054645262735,0.001657132249978334,0.01625429480136699
2024-09-11T17:28:02+03:00,21.3,288.65,26.00082474303676,19.40112,100.11864512116006,87.19844684095999,0.0,5.96808,5.90976,-2.6986312150661775,-93.3978501842755,-22.597455439959663,24.799206,59.488668,14.27882280701274,36.55879029390539,136.67743541506545,4.79383698026902,0.0017351890426509147,0.017989483844017905
2024-09-11T17:28:03+03:00,21.2,288.65,26.00082474303676,19.49832,100.55982262341078,86.90050878749194,0.0,6.29856,5.90976,-2.6012283898939375,-93.30044735910326,-23.502728756266368,24.799266,59.488664,14.110056387213094,37.28582393118094,137.84564655459172,5.0112816567701515,0.001846750872047676,0.01983623471606558
2024-09-11T17:28:04+03:00,21.2,288.65,24.99814860155782,18.895680000000002,100.10718596525744,84.90088608248539,0.0,6.4152,6.006959999999999,-3.5007721282493303,-96.10221097729297,-26.201359971332543,24.79933,59.488661,13.359406020850091,36.70636077362161,136.81354673887904,5.143125457000303,0.0019614086921003484,0.021797643408165927
2024-09-11T17:28:05+03:00,21.2,288.65,26.997771306564392,18.00144,105.04035258133382,80.90164067247224,0.0,6.62904,6.006959999999999,-3.798710181717358,-101.0010001256615,-27.100903709687937,24.799394,59.488654,12.463552628310357,40.9697496434965,146.01010222483032,5.005295454441081,0.0019979095799948364,0.023795552988160763
2024-09-11T17:28:06+03:00,21.2,288.65,35.00199170454199,17.90424,100.30199161560192,75.00017538262475,0.0,6.47352,5.90976,-3.0997016716577535,-107.89941197903663,-20.20249185631283,24.799452,59.488653,13.137267135225647,51.42039468389888,151.72238629950078,4.036895950776386,0.0017710195151310164,0.02556657250329178
2024-09-11T17:28:07+03:00,21.5,288.65,41.00085981956171,17.90424,95.86156870333804,67.2996226160665,0.0,6.39576,5.79312,-1.1974817918234204,-115.59996474559487,-12.79987714322259,24.799505,59.488652,13.73405905607247,58.79048092934042,154.65204963267846,3.314085277799373,0.0016185296167897422,0.02718510212008152
2024-09-11T17:28:08+03:00,21.5,288.65,43.99742908809592,17.80704,90.97996828882343,61.002816447578745,0.0,6.2208000000000006,5.79312,-1.3006141949469687,-121.10035957885079,-10.3017811564522,24.799579,59.488653,14.014769962509295,61.95585719978399,152.9358254886074,2.924719565103346,0.0022590747060891145,0.029444176826170634
2024-09-11T17:28:09+03:00,21.5,288.65,46.99972793458143,17.107200000000002,81.02769138740102,56.40196535267824,0.0,6.47352,6.006959999999999,-1.1974817918234204,-125.39754304233199,-13.200947599814167,24.799643,59.488663,13.546505159833531,67.45604990304197,148.483741290443,2.4818958030437845,0.0020435024817763514,0.031487679307946985
2024-09-11T17:28:10+03:00,21.1,288.65,50.002026781066945,16.60176,70.54829331445826,53.10172845272469,0.0,6.72624,6.201359999999999,-2.6986312150661775,-127.90136860705366,-17.200193009827313,24.799709,59.488677,13.31577714204789,72.76786698893673,143.316160303395,1.9926065560133555,0.002182860453437605,0.033670539761384594
2024-09-11T17:28:11+03:00,20.6,288.65,52.99859604960115,16.407359999999997,66.85844511381576,50.002026781066945,0.0,6.76512,6.29856,-2.1027551081301215,-131.49954356047525,-19.89882422489349,24.799772,59.488692,13.46713512061622,76.65065580484394,143.5091009186597,1.5619834813218987,0.002123496778502405,0.035794036539887
2024-09-11T17:28:12+03:00,20.6,288.65,54.99821875460771,16.19352,64.26867587982443,46.39812224969406,0.0,6.804,6.39576,-2.899166443361966,-135.20085091702038,-19.89882422489349,24.799829,59.488708,13.495361283771956,79.39073953228403,143.65941541210844,1.2526859081396426,0.00198763709833489,0.03778167363822189
2024-09-11T17:28:13+03:00,20.6,288.65,61.002816447578745,16.09632,56.659796360487114,42.10093878621289,0.0,7.2122399999999995,6.492959999999999,-2.1027551081301215,-139.69856960879733,-17.29759583499955,24.799881,59.48873,14.090929741167662,87.59734714243648,144.25714350292358,0.30235090624937505,0.0020656452783944074,0.039847318916616296
2024-09-11T17:28:14+03:00,20.5,288.65,69.99825383113267,16.407359999999997,53.4512327077545,36.69794677812923,0.0,7.03728,6.492959999999999,-1.598552248414997,-146.00110535523638,-12.89727996839483,24.799935,59.488756,15.483432678930757,95.2812280206508,148.7324607284053,-0.6477418660228963,0.0022711243161446706,0.04211844323276097
2024-09-11T17:28:15+03:00,20.5,288.65,76.0028515241037,16.50456,44.46725448010319,30.899613891405295,0.0,7.1150400000000005,6.492959999999999,-1.501149423242757,-150.99729732877717,-7.0015442564986605,24.799978,59.488786,16.316175030442828,101.03487951696769,145.50213399707087,-1.3618651721107398,0.002230158675702655,0.044348601908463625
2024-09-11T17:28:16+03:00,20.5,288.65,82.00171963912342,15.396479999999999,40.72011049994761,26.797236078268604,0.0,7.1150400000000005,6.492959999999999,-0.20053522829578813,-154.6986046853223,-3.9992454100131463,24.800022,59.488815,16.037145330323572,108.063765052339,148.7838755522866,-2.206197758379093,0.002200332677729248,0.04654893458619287
2024-09-11T17:28:17+03:00,20.5,288.65,82.00171963912342,13.9968,37.838132790439566,22.797990668255455,0.0,7.251119999999999,6.492959999999999,-0.6990085100596044,-159.00151772675477,-3.9018425848409057,24.800064,59.488844,14.840658312393,110.93856740069471,148.77670019113427,-2.591309244528973,0.0021636262759210383,0.04871256086211391
2024-09-11T17:28:18+03:00,20.3,288.65,84.00134234412998,12.79152,25.66850922186088,17.400728238123104,0.0,7.23168,6.492959999999999,-0.6990085100596044,-164.70244778830644,-3.300236899953542,24.800093,59.488876,14.020907631183892,114.86214314102612,140.530652362887,-3.0404616005230607,0.002117277211471286,0.050829838073585196
2024-09-11T17:28:19+03:00,20.0,288.65,86.9979116126642,12.20832,19.61234532732808,12.89727996839483,0.0,7.03728,6.492959999999999,-0.40107045659157625,-168.59856079519605,-2.8017636181897254,24.800113,59.48891,13.7683483509063,117.68963359947693,137.30197892680502,-3.270096259656911,0.002132855133681549,0.052962693207266744
2024-09-11T17:28:20+03:00,19.7,288.65,90.99715702267736,12.20832,17.750232493152904,9.40223741809681,0.0,6.97896,6.39576,-1.1974817918234204,-171.89879769514957,-4.400315866604722,24.800131,59.488943,14.167372517133272,120.5043831984539,138.2546156916068,-3.5425499462596948,0.0020582093482736613,0.0550209025555404
2024-09-11T17:28:21+03:00,19.7,288.65,95.00213201064179,12.20832,14.91982098520664,6.801009028202872,0.0,6.95952,6.39576,-1.0026761414789407,-174.2020880315755,-4.698253920072751,24.800149,59.488975,14.570329584146135,123.41560150879107,138.3354224939977,-3.8326636660357054,0.002000346020160659,0.05702124857570106
2024-09-11T17:28:22+03:00,19.6,288.65,99.00137742065495,12.20832,11.298727719979832,3.9992454100131463,0.0,6.82344,6.39576,-0.49847328176381617,-177.30178970323325,-3.798710181717358,24.800161,59.489005,14.888559549206118,125.91564168313712,137.21436940311696,-4.002585383345963,0.0018400403557176986,0.05886128893141876
2024-09-11T17:28:23+03:00,19.6,288.65,99.99832398418258,12.091679999999998,10.07832761635118,1.1000789666511805,0.0,6.84288,6.39576,-0.6990085100596044,180.0004209182994,-1.701684651538545,24.800174,59.489034,14.891773914133678,126.90436688190904,136.98269449826023,-4.1090206071931155,0.0017876987963003155,0.060648987727719074
2024-09-11T17:28:24+03:00,19.6,288.65,99.99832398418258,11.80008,9.058462741018316,358.4996924133561,0.0,6.92064,6.39576,-0.6990085100596044,177.50232493152905,-0.8021409131831525,24.800181,59.489065,14.67971686259136,127.66211805312406,136.72058079414236,-4.228537182669264,0.0018755441059830306,0.0625245318337021
2024-09-11T17:28:25+03:00,19.6,288.65,99.99832398418258,11.10024,7.419803446944162,357.39961344670496,0.0,6.76512,6.39576,-0.49847328176381617,177.30178970323325,-1.501149423242757,24.800186,59.489092,13.966312356016024,128.49005564997776,135.90985909692193,-4.2104672437726665,0.0016300654694166095,0.0641545973031187
2024-09-11T17:28:26+03:00,19.6,288.65,101.0010001256615,10.206,7.838062637389663,356.59747253352174,0.0,6.72624,6.39576,-0.8995437383553924,175.89804310516274,-2.2975607584746007,24.800195,59.489126,13.251581300949429,130.88547414226554,138.7235367796552,-4.402654779958697,0.0020620352064635986,0.0662166325095823
2024-09-11T17:28:27+03:00,19.6,288.65,99.00137742065495,9.70056,5.970220225263178,354.798385056811,0.0,6.7068,6.39576,-0.6990085100596044,174.40262325987126,-1.701684651538545,24.8002,59.489157,12.62696653400355,130.64321001090752,136.6134302361707,-4.368451657813454,0.0018695761191533046,0.06808620862873561
2024-09-11T17:28:28+03:00,19.6,288.65,101.0010001256615,9.70056,3.9992454100131463,353.8988413184556,0.2000195662801704,6.55128,6.39576,-0.40107045659157625,173.4973499435646,-1.902219879834333,24.800203,59.489185,12.69939168132593,131.42491721511237,135.42416262512552,-4.3345759058057345,0.001685504230055602,0.06977171285879122
2024-09-11T17:28:29+03:00,19.6,288.65,101.0010001256615,9.50616,1.478231111437524,353.497770861864,0.0,6.27912,6.39576,-1.0026761414789407,173.19941189009654,-2.6986312150661775,24.800204,59.489209,12.352140350009252,130.93494795296846,132.413179064406,-4.114090286184719,0.0014429079366949339,0.07121462079548616
2024-09-11T17:28:30+03:00,19.6,288.65,103.00062283066809,9.70056,1.6787663397333121,352.9992975801002,0.0,6.25968,6.29856,-1.1974817918234204,172.90147383662853,-3.5981749534215695,24.800206,59.48924,12.672998097598885,131.76949706079722,133.44826340053052,-4.169795077558216,0.0018643385112518107,0.07307895930673797
2024-09-11T17:28:31+03:00,19.6,288.65,108.00254438216018,9.992159999999998,3.2601298542943837,352.00235101657256,0.0,6.1236,6.29856,-0.8995437383553924,171.40032441338573,-3.9018425848409057,24.800207,59.489264,13.234922175346412,134.10854618182182,137.3686760361162,-4.262147483270838,0.0014429079356435978,0.07452186724238156
2024-09-11T17:28:32+03:00,19.6,288.65,114.0014124971799,10.5948,1.1917522138721122,351.2002101033894,0.0,6.0264,6.201359999999999,-0.8995437383553924,171.10238635991774,-3.5007721282493303,24.800205,59.48929,14.160127514302285,136.88070431880485,138.07245653267697,-4.398862969824002,0.0015639919640921536,0.07608585920647372
2024-09-11T17:28:33+03:00,19.6,288.65,114.0014124971799,11.00304,359.1815121895618,351.601280559981,0.0,5.9292,6.201359999999999,-0.49847328176381617,171.80139486997734,-3.0997016716577535,24.8002,59.489311,14.467052463409532,135.98894478215897,135.17045697172074,-4.264314748616221,0.0012714507885347116,0.07735730999500844
2024-09-11T17:28:34+03:00,19.6,288.65,112.99873635570096,11.702879999999999,1.432394487827058,352.19715666691707,0.8000209693411684,6.2208000000000006,6.10416,-0.49847328176381617,172.20246532656893,-2.8017636181897254,24.800204,59.48934,15.249401507865532,135.05468504175496,136.48707952958202,-4.402966195900483,0.0017473925500741414,0.07910470254508258
2024-09-11T17:28:35+03:00,19.6,288.65,112.99873635570096,11.60568,359.9492756350371,351.89921861344897,0.3999818367808277,6.1236,6.10416,-1.1000789666511805,171.60085964168155,-2.498095986770389,24.800203,59.489358,15.09055276922577,134.93255941774976,134.88183505278687,-4.324939370166113,0.0010823691778597383,0.08018707172294232
2024-09-11T17:28:36+03:00,19.6,288.65,114.99835906070751,11.39184,0.9682986737710912,351.69868338515323,0.8000209693411684,6.1624799999999995,6.006959999999999,-0.8995437383553924,172.20246532656893,-3.798710181717358,24.800199,59.489414,15.06930046971471,136.7530128396977,137.7213115134688,-4.48879356023303,0.003368244705428188,0.08355531642837051
2024-09-11T17:28:37+03:00,19.6,288.65,116.00103520218647,11.29464,0.37242256683503505,353.40036803669176,0.9999832398418258,6.6679200000000005,6.006959999999999,-0.6016056848873644,174.09895562845193,-5.597797658428142,24.800195,59.489446,15.42924163670499,138.8572900830061,139.22971264984113,-5.021431562521118,0.0019273163225984927,0.085482632750969
2024-09-11T17:28:38+03:00,19.6,288.65,114.99835906070751,10.90584,3.151267873219528,354.2025089498749,1.8000042091829944,6.08472,6.006959999999999,-1.3980170201192088,174.09895562845193,-6.102000518143266,24.800191,59.489471,14.561825248411465,137.25213318474945,140.40340105796898,-4.468300632582778,0.001507642560587899,0.0869902753115569
2024-09-11T17:28:39+03:00,19.6,288.65,114.99835906070751,11.508479999999999,6.1421075638024245,354.5004470033429,1.8000042091829944,6.0264,6.006959999999999,-0.20053522829578813,174.9010965416351,-6.102000518143266,24.800187,59.489489,15.079129193289893,136.23448279874805,142.37659036255047,-4.352125397795981,0.0010888029499585181,0.08807907826151541
2024-09-11T17:28:40+03:00,19.6,288.65,114.0014124971799,11.508479999999999,4.881600414514614,355.10205268823034,0.0,6.10416,6.006959999999999,-1.1000789666511805,175.19903459510311,-6.801009028202872,24.800186,59.489512,15.061713749237226,135.7314942516061,140.61309466612073,-4.371045707392692,0.0013828142421635915,0.089461892503679
2024-09-11T17:28:41+03:00,19.6,288.65,112.00178979217334,11.00304,5.798332886723932,354.798385056811,0.0,6.4152,6.006959999999999,-1.1974817918234204,174.2020880315755,-5.998868115019719,24.800186,59.489542,14.666637555754173,135.92713062915726,141.7254635158812,-4.609037295573461,0.001803231492579297,0.0912651239962583
2024-09-11T17:28:42+03:00,19.6,288.65,112.00178979217334,11.197439999999999,5.248293403398341,355.10205268823034,0.0,6.25968,6.006959999999999,0.20053522829578813,175.10163176993086,-3.701307356545118,24.800188,59.489565,14.733786350481175,135.19986496516793,140.44815836856628,-4.441675352722585,0.0013838240430515472,0.09264894803930984
2024-09-11T17:28:43+03:00,19.6,288.65,118.99760447072069,10.692,6.147837141753733,354.09937654675133,0.0,5.94864,6.006959999999999,-0.6990085100596044,173.8010175749839,-3.002298846485514,24.800192,59.489593,14.538606738287843,139.9669931807687,146.11483032252244,-4.554719104940362,0.0016874368307882729,0.09433638487009811
2024-09-11T17:28:44+03:00,19.6,288.65,120.99722717572726,10.5948,4.102377813136695,354.2025089498749,0.9000021045914972,6.08472,6.006959999999999,-0.6990085100596044,174.40262325987126,-4.297183463481174,24.800196,59.489618,14.685828144353518,141.80029406342902,145.9026718765657,-4.781738467295283,0.0015076425183296741,0.09584402738842779
2024-09-11T17:28:45+03:00,19.6,288.65,121.9999033172062,10.4004,4.400315866604722,354.2025089498749,0.0,6.318,6.006959999999999,-1.1000789666511805,174.09895562845193,-6.89841185337511,24.8002,59.489647,14.755573749503288,143.29153985289054,147.69185571949527,-5.065060940855053,0.0017473924717856647,0.09759141986021345
2024-09-11T17:28:46+03:00,19.6,288.65,125.0022021636917,10.4004,3.758603136058201,353.40036803669176,0.0,6.201359999999999,6.006959999999999,-1.501149423242757,172.99887666180075,-7.098947081670899,24.800199,59.489675,14.8531725674493,145.0007070969341,148.7593102329923,-5.079900617957442,0.0016832926970625321,0.09927471255727599
2024-09-11T17:28:47+03:00,19.6,288.65,125.99914872721935,10.4004,7.179161172989215,352.3976918952128,0.0,6.24024,6.006959999999999,-0.6990085100596044,171.89879769514957,-4.297183463481174,24.800204,59.489703,14.946673449909593,145.74012282325205,152.91928399624126,-5.157512901867969,0.0016899183877905342,0.10096463094506652
2024-09-11T17:28:48+03:00,19.5,288.65,123.99952602221278,10.808639999999999,6.079082206338034,350.7991396467978,0.0,6.10416,6.006959999999999,-0.40107045659157625,170.20284262156233,-0.6016056848873644,24.800209,59.489731,15.095530808145474,143.5865802508663,149.66566245720432,-4.91235197094369,0.0016899183763570422,0.10265454932142357
2024-09-11T17:28:49+03:00,19.5,288.65,123.00257945868512,10.808639999999999,2.6814424812122524,348.5015788883232,0.0,6.1236,5.90976,-0.29793805346802804,167.49848182854487,0.20053522829578813,24.800209,59.48976,15.047494127170756,142.95796011646462,145.63940259767688,-4.8878190805214174,0.001743123775930576,0.10439767309735415
2024-09-11T17:28:50+03:00,19.5,288.65,123.00257945868512,10.5948,356.44850350678774,347.2009646933763,0.0,6.27912,5.90976,-0.8021409131831525,167.09741137195329,-0.8021409131831525,24.800201,59.48979,14.971556161105513,143.59580175684826,140.04430526363603,-5.053751700596848,0.001819682151427768,0.10621735524878191
2024-09-11T17:28:51+03:00,19.5,288.65,125.0022021636917,10.4976,350.74184386728473,346.3988237801931,0.0,5.98752,5.90976,-1.3006141949469687,165.69939435183406,-2.4006931615981495,24.800187,59.489816,14.770165291062934,144.39596101418257,135.13780488146733,-4.868211353150368,0.0016201445623408978,0.10783749981112281
2024-09-11T17:28:52+03:00,19.4,288.65,135.99726225225223,9.79776,352.0424580622318,343.90072779342273,0.0,6.14304,6.006959999999999,-0.6016056848873644,162.70282508329987,-3.2028340747813018,24.800176,59.489842,14.843191672026432,152.70603999983547,144.74849806206726,-5.459108189714221,0.0015984446803797992,0.10943594449150261
2024-09-11T17:28:53+03:00,19.4,288.65,136.99993839373113,10.1088,349.1089141511619,340.6978937186414,0.0,6.045839999999999,5.90976,-0.6016056848873644,159.098920551927,-1.1000789666511805,24.800164,59.489868,15.104139461343669,152.84212138787626,141.95103553903817,-5.379299269223744,0.001605130407628239,0.11104107489913084
2024-09-11T17:28:54+03:00,19.4,288.65,136.99993839373113,9.89496,345.63106033471786,337.50078922181143,0.0,5.94864,5.90976,-0.8021409131831525,156.8013597934524,2.498095986770389,24.800143,59.489895,14.811944402260808,152.89631325898893,138.52737359370678,-5.295381118218403,0.0017448511219296894,0.11278592602106054
2024-09-11T17:28:55+03:00,19.4,288.65,136.99993839373113,10.1088,343.35068831009715,336.2975778520367,0.3999818367808277,6.14304,5.90976,-0.49847328176381617,155.90181605509702,2.6986312150661775,24.800121,59.489922,15.19068816136951,153.00946129154266,136.36014960163982,-5.4739491736949235,0.0017562880621765223,0.11454221408323706
2024-09-11T17:28:56+03:00,19.4,288.65,140.99918380374427,9.408959999999999,343.6600855194678,335.79910457027285,0.9999832398418258,6.10416,5.79312,-0.6990085100596044,155.7012808268012,-0.29793805346802804,24.800101,59.489948,14.664827138778714,156.18534170913165,139.84542722859948,-5.584429822604138,0.0016777478941563083,0.11621996197739337
2024-09-11T17:28:57+03:00,19.4,288.65,144.0014826502298,8.80632,342.3193642788616,335.5985693419771,0.0,5.81256,5.79312,-1.3980170201192088,155.59814842367769,-2.498095986770389,24.800085,59.489972,13.934181523984543,158.1940928957489,140.5134571746105,-5.3966570011909045,0.001522972979389751,0.11774293495678312
2024-09-11T17:28:58+03:00,19.4,288.65,144.99842921375745,9.195120000000001,345.21853072222365,335.3980341136813,0.0,5.67648,5.69592,-0.40107045659157625,155.2028075450374,-3.0997016716577535,24.800071,59.489995,14.222650808371187,158.23264288828855,143.45117361051223,-5.271731388659288,0.0014469846676050688,0.11918991962438819
2024-09-11T17:28:59+03:00,19.4,288.65,142.99880650875087,9.29232,343.2590150628762,335.1000960602133,0.9000021045914972,5.67648,5.598719999999999,-0.8995437383553924,155.2028075450374,-2.200157933302361,24.800057,59.490017,14.241511020569465,156.8783959020157,140.1374109648919,-5.22050820809096,0.0013896698146369192,0.12057958943902511
2024-09-11T17:29:00+03:00,19.4,288.65,138.99956109873773,9.29232,344.1012630217185,335.1000960602133,0.600001403060998,5.38488,5.50152,-1.0026761414789407,154.80173708844583,-3.0997016716577535,24.800046,59.490032,13.815643273150322,153.81535899631638,137.9166220180349,-4.832265788971017,0.0009620754885378042,0.12154166492756291
2024-09-11T17:29:01+03:00,19.4,288.65,138.99956109873773,9.29232,345.04091380573306,335.002693235041,0.8000209693411684,5.326560000000001,5.50152,-0.8021409131831525,155.3976131953819,-3.5007721282493303,24.800035,59.490056,13.763332323817474,153.7082276421484,138.74914144788147,-4.775527612581035,0.001481124641839533,0.12302278956940244
2024-09-11T17:29:03+03:00,19.4,288.65,138.99956109873773,9.79776,344.7716236420216,336.2975778520367,0.09998113525032865,5.67648,,-0.8995437383553924,156.29715693373726,-1.0026761414789407,24.800021,59.49008,14.565953922568697,153.81310007120595,138.58472371322756,-5.093842072961373,0.0015045171249129731,0.12452730669431541
2024-09-11T17:29:04+03:00,19.3,288.65,138.00261453521009,10.1088,344.9377814026095,335.90223697339644,0.0,5.443199999999999,5.50152,0.20053522829578813,155.2028075450374,-0.8021409131831525,24.80001,59.490101,14.615113847736291,152.43255208044442,137.37033348305397,-4.825215289176103,0.0013061329649478718,0.12583343965926327
2024-09-11T17:29:05+03:00,19.3,288.65,136.99993839373113,9.79776,343.84916159186093,335.19749888538547,0.0,5.48208,5.404319999999999,-0.29793805346802804,155.7012808268012,0.8021409131831525,24.799996,59.490128,14.30434604374938,152.1515018764705,136.00066346833142,-4.847177753670334,0.001678198654698479,0.12751163831396176
2024-09-11T17:29:06+03:00,19.3,288.65,142.99880650875087,9.097919999999998,347.52182105864955,335.1000960602133,2.3000244769936637,5.6376,5.307119999999999,-1.1000789666511805,154.89913991361806,-0.6990085100596044,24.799981,59.49015,14.017065299733504,157.00660500521326,144.5284260638628,-5.189692062480413,0.0013993520335300164,0.12891099034749176
2024-09-11T17:29:07+03:00,19.3,288.65,144.99842921375745,9.195120000000001,346.5420632289758,337.09971876521985,3.0000070153049903,5.5404,5.307119999999999,-0.8995437383553924,158.3999120418674,-3.5981749534215695,24.799969,59.490176,14.09636401420962,158.02752860053562,144.5695918295114,-5.137966025163895,0.0016051296455025209,0.13051611999299428
2024-09-11T17:29:08+03:00,19.3,288.65,146.99805191876402,8.90352,346.7998942367847,338.89880624193063,0.5000202678106694,5.6376,5.307119999999999,-1.3980170201192088,159.20205295505053,-6.89841185337511,24.799959,59.490197,13.973067540845765,159.69255374068763,146.49244797747235,-5.287188422968651,0.0012986250930826309,0.1318147450860769
2024-09-11T17:29:09+03:00,19.3,288.65,146.99805191876402,9.195120000000001,348.57033382373896,338.4003329601668,0.0,5.404319999999999,5.307119999999999,-1.1000789666511805,157.9014387601036,-5.2998596049601145,24.799947,59.490219,14.03950858154223,159.10062347346292,147.67095729720188,-5.048760903411376,0.0013721358559261345,0.13318688094200304
2024-09-11T17:29:10+03:00,19.3,288.65,138.00261453521009,9.79776,348.70784369457033,338.4003329601668,1.8000042091829944,5.42376,5.20992,-1.1000789666511805,159.2994557802228,-1.3980170201192088,24.799933,59.490239,14.29681745353702,152.70712601767892,141.41496971224922,-4.819955954101666,0.0012758107333600388,0.13446269167536307
2024-09-11T17:29:11+03:00,19.3,288.65,133.000692983718,10.1088,347.39004076576947,339.9014823834096,0.0,5.42376,5.20992,-0.09740282517223994,159.70052623681437,-2.6986312150661775,24.799924,59.490259,14.366307453667492,149.02870524632192,136.4187460120914,-4.650468653195605,0.0012331274452365194,0.13569581912059958
2024-09-11T17:29:12+03:00,19.3,288.65,136.99993839373113,9.89496,346.2613139093618,337.39765681868784,0.0,4.996079999999999,5.20992,-0.20053522829578813,156.29715693373726,-2.8017636181897254,24.79991,59.490283,13.970733575861289,151.11618442256068,137.37749833192242,-4.374572671820578,0.0015045163955146822,0.13720033551611427
2024-09-11T17:29:13+03:00,19.3,288.65,138.00261453521009,9.60336,344.7487053302164,337.39765681868784,1.2999839413723246,4.97664,5.20992,-1.902219879834333,158.10197398839935,-1.1000789666511805,24.799898,59.490306,13.712324178304202,152.05663053054477,136.80533586076115,-4.396419425441884,0.0014301532475266185,0.1386304887636409
2024-09-11T17:29:14+03:00,19.3,288.65,135.99726225225223,9.60336,344.9778884482687,340.19942043687763,1.5000035076524951,5.5598399999999994,5.20992,-1.1974817918234204,161.49961371352515,-3.0997016716577535,24.799886,59.490327,14.140312165000273,151.84886597447363,136.82675442274228,-4.9021451592420355,0.0013143057593580385,0.13994479452299893
2024-09-11T17:29:15+03:00,19.3,288.65,140.00223724021666,9.60336,345.79721809530577,340.801026121765,1.2999839413723246,5.48208,5.20992,0.0,160.60006997516973,-4.898789148368539,24.799874,59.490353,14.245676984129213,154.32291208803213,140.1201301833379,-4.940726605333507,0.001605129207564433,0.14154992373056335
2024-09-11T17:29:16+03:00,19.3,288.65,138.00261453521009,9.60336,347.6077647279192,339.5978147519903,1.200002806121996,5.20992,5.09328,-0.40107045659157625,159.2994557802228,-4.297183463481174,24.799859,59.490376,13.918835609182338,152.50662038263633,140.11438511055553,-4.621533418620496,0.0014562848300622613,0.14300620856062563
2024-09-11T17:29:17+03:00,19.3,288.65,135.99726225225223,9.89496,347.91143235933845,341.7005698601203,2.1000049107134933,5.326560000000001,5.09328,-2.1027551081301215,163.20129836506368,-4.400315866604722,24.799846,59.490398,14.216404751525495,151.08425957815,138.99569193748846,-4.662506956161733,0.0013805924541186274,0.14438680101474424
2024-09-11T17:29:18+03:00,19.3,288.65,135.99726225225223,9.408959999999999,353.96186667592,344.3992010751865,1.5000035076524951,5.7153599999999996,4.996079999999999,-1.701684651538545,165.0977886669467,-7.299482309966689,24.799834,59.490422,14.090995272734984,152.36313186387844,146.32499853979846,-5.063267592614265,0.0014883364742153949,0.14587513748895964
2024-09-11T17:29:19+03:00,19.2,288.65,138.99956109873773,9.70056,355.3025879165261,344.89767435695035,0.0,5.6376,4.996079999999999,-0.09740282517223994,164.1008421034191,-7.0015442564986605,24.79983,59.49045,14.437097279779735,153.84363391912765,149.1462218356537,-5.060277855052751,0.0016874366066663546,0.14756257409562598
2024-09-11T17:29:20+03:00,19.2,288.65,135.00031568872456,9.992159999999998,356.12191756356316,343.2017192833631,0.3999818367808277,5.38488,5.09328,-1.1000789666511805,163.29870119023593,-3.5007721282493303,24.799825,59.490476,14.315537437214456,150.425581183015,146.54749874657819,-4.683312933697996,0.001570231140056522,0.1491328052356825
2024-09-11T17:29:21+03:00,19.2,288.65,131.00107027871144,10.1088,353.41755677054573,344.59973630348236,2.000023775463165,5.09328,5.09328,-1.598552248414997,165.40145629836607,-2.8017636181897254,24.799822,59.490502,13.988843613969522,146.95010356668527,140.36766033723097,-4.2691666541764555,0.0015654796703779702,0.1506982849060605
2024-09-11T17:29:22+03:00,19.2,288.65,129.00144757370484,10.1088,359.11275725414606,347.2009646933763,2.3000244769936637,5.28768,5.09328,-1.0026761414789407,168.39802556690026,-5.202456779787875,24.799816,59.490525,14.050853662342899,146.00632165458032,145.11907890872635,-4.384011603264831,0.0013945490758400893,0.15209283398190057
2024-09-11T17:29:23+03:00,19.2,288.65,129.00144757370484,10.1088,359.08983894234086,349.20058739838277,2.400005612243992,5.307119999999999,5.09328,-0.6990085100596044,169.4007017083792,-7.402614713090236,24.799813,59.490552,14.066975551033597,146.05059158160398,145.14043052394481,-4.402420618363707,0.001625488315372653,0.15371832229727322
2024-09-11T17:29:25+03:00,,288.65,129.00144757370484,9.89496,0.3495042550298022,354.3973146002194,1.5999846429028237,5.38488,5.09328,-1.1974817918234204,175.6001050516947,-8.697499330085895,24.799813,59.490601,13.927441685821083,146.48716882404682,146.83667307907663,-4.489709379004806,0.002945278104316774,0.15666360040159
2024-09-11T17:29:27+03:00,19.2,288.65,131.00107027871144,9.50616,0.5500394833255903,354.90151745993455,0.0,5.09328,5.20992,-1.0026761414789407,174.9010965416351,-8.800631733209444,24.799812,59.49065,13.41042377186301,147.65762185434636,148.20766133767194,-4.3031410087093365,0.0029454361823291106,0.15960903658391912
2024-09-11T17:29:28+03:00,19.2,288.65,116.00103520218647,10.4004,9.069921896920931,354.90151745993455,0.0,5.26824,5.09328,-1.902219879834333,175.19903459510311,-7.700552766558264,24.799817,59.490674,13.563286610667593,136.43366228448647,145.5035841814074,-3.8172450082737743,0.0014506315176996245,0.16105966810161873
2024-09-11T17:29:29+03:00,19.2,288.65,112.99873635570096,10.692,8.027138709782834,355.6005259699941,0.0,5.87088,5.20992,-1.701684651538545,175.3021669982267,-6.497341396783535,24.799828,59.490704,14.065456460081686,135.59403728547574,143.62117599525857,-4.1941558647492485,0.001834207641704839,0.16289387574332356
2024-09-11T17:29:30+03:00,19.2,288.65,110.99911365069438,10.90584,3.66120031088596,356.0015964265857,0.0,5.65704,5.307119999999999,-0.6990085100596044,176.00117550828628,-5.597797658428142,24.799831,59.490728,13.969843389224755,133.21221112758337,136.87341143846933,-3.8733891554911777,0.0014454870207262778,0.16433936276404984
2024-09-11T17:29:31+03:00,19.2,288.65,108.00254438216018,11.29464,359.1585938777566,355.6005259699941,1.1000216708716675,5.79312,5.307119999999999,-1.501149423242757,175.3995698233989,-5.500394833255903,24.799829,59.490755,14.197653589747308,130.8362255445353,129.99481942229187,-3.7881158805332937,0.0016240554901572727,0.1659634182542071
2024-09-11T17:29:32+03:00,19.1,288.65,112.00178979217334,11.00304,359.08983894234086,356.2995344800537,2.6000251785241626,5.65704,5.307119999999999,-1.1000789666511805,177.1986573001097,-5.901465289847479,24.799826,59.490781,14.13177623418781,133.78852794682308,132.87836688916394,-3.9146640174462934,0.0015654796261389914,0.16752889788034608
2024-09-11T17:29:33+03:00,19.1,288.65,110.99911365069438,11.10024,2.538203032429547,359.1987009234157,2.7000063137744914,5.754239999999999,5.307119999999999,-2.1027551081301215,180.0004209182994,-8.600096504913656,24.799828,59.490808,14.21636916105833,133.20152356817263,135.73972660060218,-3.9391598788207207,0.0016240554865533175,0.1691529533668994
2024-09-11T17:29:34+03:00,19.1,288.65,110.99911365069438,11.10024,4.881600414514614,359.80030660830306,0.0,5.57928,5.404319999999999,-0.8995437383553924,179.8972885151759,-9.900710699860626,24.799835,59.490835,14.097174334298552,132.68316145760292,137.56476187211754,-3.7824374922051405,0.0016369054299669341,0.17078985879686634
2024-09-11T17:29:35+03:00,19.1,288.65,110.99911365069438,10.5948,5.208186357739183,358.7002276416519,0.0,5.50152,5.404319999999999,-1.7990874767107847,178.60240389818023,-7.9984908200262925,24.79984,59.490857,13.575403213063554,133.23011860795464,138.43830496569382,-3.768157234888066,0.0013311428513118223,0.17212100164817817
2024-09-11T17:29:36+03:00,19.1,288.65,110.99911365069438,11.10024,5.488935677353287,359.502368554835,0.0,5.42376,5.404319999999999,-1.3006141949469687,-179.79988569000366,-5.202456779787875,24.799846,59.490884,13.992207596673929,132.2150146273351,137.7039503046884,-3.6443040600920638,0.001633203579190491,0.17375420522736867
2024-09-11T17:29:37+03:00,19.1,288.65,110.00216708716675,11.60568,4.738360965731908,0.29793805346802804,0.8000209693411684,5.3654399999999995,5.50152,-1.598552248414997,-179.79988569000366,-5.099324376664327,24.799854,59.490905,14.355454786247996,130.5635759482454,135.3019369139773,-3.489099500601495,0.0012856519103530124,0.1750398571377217
2024-09-11T17:29:38+03:00,19.1,288.65,108.99949094568781,11.80008,4.778468011391066,359.80030660830306,0.0,5.07384,5.50152,-0.29793805346802804,179.39881523341205,-6.600473799907084,24.79986,59.490923,14.281785036798366,128.62750379162594,133.405971803017,-3.1673683626874993,0.0010973213414190858,0.1761371784791408
2024-09-11T17:29:39+03:00,19.0,288.65,108.99949094568781,11.80008,2.8476002418001913,358.29915718506027,0.0,5.28768,5.50152,-1.9996227050065731,178.20133344158864,-7.797955591730505,24.799865,59.490948,14.416243618918637,129.29146550845698,132.13906575025717,-3.348505838556791,0.001510418937572106,0.1776475974167129
2024-09-11T17:29:40+03:00,19.0,288.65,110.99911365069438,11.00304,7.9984908200262925,359.1012980982435,0.3999818367808277,5.52096,5.50152,-1.598552248414997,179.5019476365356,-7.700552766558264,24.799873,59.490975,13.967316704439884,132.65462045449954,140.65311127452583,-3.7408776579436784,0.0016411662366487552,0.17928876365336166
2024-09-11T17:29:41+03:00,19.0,288.65,110.99911365069438,10.808639999999999,5.420180741937589,0.09740282517223994,1.8000042091829944,5.443199999999999,5.50152,-1.7990874767107847,-179.5019476365356,-7.402614713090236,24.799878,59.491,13.733956858656658,132.71531971152652,138.13550045346412,-3.6924281774598,0.0015104189130632467,0.1807991825664249
2024-09-11T17:29:42+03:00,19.0,288.65,112.00178979217334,10.4004,3.3116960558561583,359.8977094334753,0.3999818367808277,5.7153599999999996,5.598719999999999,-1.0026761414789407,179.59935046170784,-7.901087994854052,24.79988,59.491026,13.61513335083399,134.90703502565069,138.21873108150683,-4.034807192096359,0.0015639918423988614,0.18236317440882377
2024-09-11T17:29:43+03:00,18.9,288.65,112.99873635570096,10.4004,5.758225841064774,359.6971742051795,0.6999825383113268,5.69592,5.598719999999999,-1.501149423242757,179.7024828648314,-7.700552766558264,24.799885,59.491045,13.671251717547438,135.55050288944497,141.30872873050976,-4.066134919754397,0.0011521934334394316,0.1835153678422632
2024-09-11T17:29:44+03:00,18.9,288.65,112.00178979217334,10.303199999999999,9.327752904729802,1.7990874767107847,2.499986747494321,5.346,5.598719999999999,-1.9996227050065731,-177.30178970323325,-7.700552766558264,24.799896,59.491069,13.266732034310776,133.94058398736806,143.26833689209786,-3.709653755561112,0.0014811223593876263,0.18499649020165082
2024-09-11T17:29:45+03:00,18.9,288.65,110.99911365069438,10.303199999999999,7.540124583921633,4.102377813136695,3.0000070153049903,5.443199999999999,5.598719999999999,-2.6012283898939375,-175.10163176993086,-8.800631733209444,24.799905,59.491097,13.265707307108476,133.52309236569744,141.06321694961906,-3.7484426595399016,0.0017052763988173552,0.18670176660046817
2024-09-11T17:29:46+03:00,18.9,288.65,106.99986824068124,10.1088,9.56839517868475,5.500394833255903,2.199986045963822,5.38488,5.598719999999999,-1.0026761414789407,-174.2020880315755,-8.800631733209444,24.799918,59.491124,12.767726816195642,130.7863020928956,140.35469727158033,-3.5176168992534054,0.001670688027785923,0.18837245462825408
2024-09-11T17:29:47+03:00,18.9,288.65,101.99794668918915,10.1088,12.582153181072878,7.2020794847944485,2.199986045963822,5.57928,5.69592,-0.8995437383553924,-171.80139486997734,-7.402614713090236,24.799938,59.491153,12.520567675064987,127.83892351252577,140.42107669359865,-3.4225741599147343,0.001846874694761374,0.19021932932301547
2024-09-11T17:29:48+03:00,18.8,288.65,99.00137742065495,10.5948,15.097437901697193,10.101245928156414,2.499986747494321,5.52096,5.69592,-1.902219879834333,-168.59856079519605,-6.89841185337511,24.799953,59.49118,12.689931150228384,124.45041854783683,139.54785644953404,-3.1231676492472573,0.00168622153568528,0.19190555085870076
2024-09-11T17:29:49+03:00,18.8,288.65,95.99907857416943,10.4976,18.271624086721953,12.501939089754565,2.7000063137744914,5.5404,5.69592,-0.8995437383553924,-166.90260572160878,-8.502693679741416,24.799975,59.491205,12.371447656717786,122.44705840298985,140.7186824897118,-2.972535856907994,0.0016458335177027294,0.19355138437640348
2024-09-11T17:29:50+03:00,18.7,288.65,90.99715702267736,10.4976,20.391567928706,14.501561794761136,1.7000230739326654,5.52096,5.69592,-2.1027551081301215,-165.0977886669467,-10.800254438216017,24.799995,59.491229,11.945619560913714,118.52014414442343,138.91171207312942,-2.636080110141525,0.0015663703116192123,0.1951177546880227
2024-09-11T17:29:50+03:00,18.7,288.65,90.0002104591497,10.4976,26.96912341680785,14.902632251352712,0.600001403060998,5.22936,5.69592,-1.902219879834333,-164.50191256001065,-11.098192491684046,24.800021,59.491252,11.728009850616077,116.48027429693063,143.44939771373848,-2.331717657232129,0.0015939595693125496,0.19671171425733525
2024-09-11T17:29:51+03:00,18.7,288.65,88.00058775414314,10.692,24.95804155589866,16.59858732493995,0.600001403060998,5.404319999999999,5.69592,-2.498095986770389,-163.0007631367679,-11.401860123103383,24.800041,59.491273,11.810737866268777,115.21349327154478,140.17153482744345,-2.302199076123225,0.0014020586203965125,0.19811377287773177
2024-09-11T17:29:52+03:00,18.7,288.65,88.00058775414314,11.29464,25.508081039224248,16.701719728063498,0.09998113525032865,5.42376,5.69592,-1.598552248414997,-163.40183359335947,-11.000789666511807,24.800064,59.491298,12.357648470138265,114.01720665326977,139.525287692494,-2.207529840784513,0.0016585136439588933,0.19977228652169066
2024-09-11T17:29:53+03:00,18.7,288.65,88.00058775414314,11.60568,27.897315044919782,16.99965778153153,1.5999846429028237,5.832,5.79312,-1.701684651538545,-162.39915745188054,-9.40223741809681,24.800091,59.491319,12.805511401508754,115.07527856440358,142.97259360932335,-2.47165208819042,0.0015073543929429603,0.20127964091463363
2024-09-11T17:29:54+03:00,18.7,288.65,88.00058775414314,11.89728,27.22122484666541,19.801421399721253,2.7999874490248207,5.96808,5.79312,-1.902219879834333,-158.8983853236312,-8.697499330085895,24.800119,59.491343,13.12283140512071,115.033942296647,142.2551671433124,-2.5254234215551397,0.0016766264871359933,0.2029562674017696
2024-09-11T17:29:55+03:00,18.7,288.65,86.00096504913657,12.402719999999999,27.559269945792597,22.402649789615186,3.399988852085818,5.9292,5.79312,-0.8021409131831525,-156.89876261862463,-10.800254438216017,24.800145,59.491365,13.368837465712122,112.25994012755085,139.81921007334344,-2.2460354006192276,0.0015421156522615516,0.20449838305403117
2024-09-11T17:29:56+03:00,18.7,288.65,86.00096504913657,12.402719999999999,25.112740160583986,25.10128100468137,3.600008418365989,5.79312,5.79312,-2.4006931615981495,-153.90219335009044,-11.499262948275621,24.800166,59.491387,13.317884585513163,111.71812296667721,136.8308631272612,-2.143689765533773,0.0014694554699575305,0.2059678385239887
2024-09-11T17:29:57+03:00,18.6,288.65,86.00096504913657,11.89728,27.370193873399426,27.501974166279513,2.7000063137744914,5.69592,5.79312,-2.1027551081301215,-151.5989030136645,-12.198271458335228,24.800187,59.491407,12.827190851971421,112.29445305862784,139.66464693202727,-2.1608417244520632,0.0013622819502621796,0.20733012047425087
2024-09-11T17:29:58+03:00,18.5,288.65,78.9994207926379,11.99448,34.88740014551583,29.10052641469451,2.6000251785241626,5.42376,5.79312,-2.1027551081301215,-150.2008859935453,-11.79720100174365,24.800212,59.491424,12.184301558866933,104.9097459455497,139.79714609106554,-1.3955180926993411,0.0012751889960078426,0.2086053094702587
2024-09-11T17:29:59+03:00,18.5,288.65,78.00247422911028,12.69432,39.21896107670485,32.69870136811608,3.9999902551468165,5.26824,5.79312,-0.8995437383553924,-145.6000348986448,-9.998113525032863,24.800239,59.491442,12.69239366751348,101.95653749056609,141.17549856727095,-1.0914194033096027,0.0013599259406212555,0.20996523541087997
2024-09-11T17:30:00+03:00,18.4,288.65,76.0028515241037,13.296959999999999,43.06923745998399,37.70062291960817,6.399995867390808,5.26824,5.79312,-1.598552248414997,-139.69856960879733,-9.40223741809681,24.80027,59.491459,13.064311815227152,99.03706859989187,142.10630605987586,-0.8275005590529003,0.0013924694340487205,0.2113577048449287
2024-09-11T17:30:01+03:00,18.4,288.65,73.99749924114583,13.296959999999999,46.69033072521078,43.09788534974052,7.200016836731978,5.81256,5.79312,-1.3006141949469687,-134.70237763525654,-8.10162322314984,24.800305,59.491477,12.96074203544627,99.53462119802303,146.22495192323382,-0.9628130300382375,0.0015202781126588975,0.21287798295758759
2024-09-11T17:30:02+03:00,18.4,288.65,73.99749924114583,13.19976,51.06772828001027,48.09980690123261,3.30000771683549,5.7153599999999996,5.79312,-1.1974817918234204,-130.59999982211983,-5.998868115019719,24.800346,59.49149,12.857050534999663,99.29417819375514,150.36190647376543,-0.9230509076293288,0.0014750733278859685,0.21435305628547355
2024-09-11T17:30:03+03:00,18.3,288.65,63.002439152585325,13.5108,54.35077644610989,51.801114257777726,3.600008418365989,5.57928,5.69592,-1.501149423242757,-126.89869246557473,-8.399561276617868,24.800387,59.491504,12.051211804431963,87.36524085801308,141.71601730412297,0.25647401550300375,0.00150777630450259,0.21586083258997613
2024-09-11T17:30:04+03:00,18.2,288.65,58.99746416462087,13.802399999999999,54.27056235479158,54.90081592943548,4.099971390397145,5.3654399999999995,5.69592,-1.598552248414997,-123.70158796874472,-10.3017811564522,24.800428,59.491519,11.95848261356633,81.61494681534444,135.885509170136,0.7824150250552159,0.001542129446982105,0.21740296203695822
2024-09-11T17:30:05+03:00,18.1,288.65,56.99784145961429,13.802399999999999,59.70793183058309,60.401210762691385,6.499977002641137,5.3654399999999995,5.69592,-1.598552248414997,-117.19851699400989,-11.997736230039438,24.800467,59.491529,11.773784066278996,79.46673826415302,139.17467009473611,0.9808362373990004,0.001333252421802222,0.21873621445876043
2024-09-11T17:30:06+03:00,18.1,288.65,56.99784145961429,14.21064,61.552855930904336,65.09946468276414,5.400012627548983,5.69592,5.69592,-1.3980170201192088,-112.99873635570096,-12.79987714322259,24.800511,59.491539,12.091799088768576,80.26702860865117,141.81988453955552,0.9629327773765952,0.0014710490242036201,0.22020726348296404
2024-09-11T17:30:07+03:00,18.1,288.65,50.998973344594575,15.396479999999999,63.701447662644924,68.69763963618571,3.50002728311566,5.307119999999999,5.50152,-1.701684651538545,-109.8990346840432,-11.699798176571411,24.80055,59.491547,12.742452199983692,69.8839783851943,133.58542604783923,1.8252368106662495,0.0012835476902256985,0.22149081117318975
2024-09-11T17:30:08+03:00,18.0,288.65,43.99742908809592,16.31016,68.84087908496842,72.30154416755859,4.500010522957486,4.91832,5.50152,-1.701684651538545,-106.10032450232583,-9.797578296737077,24.800591,59.491552,13.221094761271399,58.97285450111622,127.81373358608464,2.53511914584582,0.0012866904026060716,0.22277750157579582
2024-09-11T17:30:09+03:00,18.0,288.65,43.99742908809592,17.107200000000002,75.06893031804046,77.40086854422292,5.599974898049641,4.64616,5.404319999999999,-0.8995437383553924,-100.59992966906994,-5.500394833255903,24.800633,59.491555,14.13817079921383,57.19276859414714,132.2616989121876,2.5173559068410603,0.0012942370499488655,0.22407173862574467
2024-09-11T17:30:10+03:00,18.0,288.65,41.99780638308934,17.398799999999998,84.87223819272884,81.40011395423606,2.7000063137744914,4.393439999999999,5.404319999999999,-0.6016056848873644,-97.79816605088023,-1.598552248414997,24.800673,59.491555,14.436197258651816,53.747188892947534,138.61942708567636,2.598057292087011,0.0012205842089254289,0.2252923228346701
2024-09-11T17:30:11+03:00,18.0,288.65,41.99780638308934,17.107200000000002,90.64765276764754,79.89896453099331,0.0,4.58784,5.404319999999999,-0.49847328176381617,-101.2015353539573,-4.199780638308934,24.800715,59.491553,14.03741286307446,54.62945586798968,145.2771086356372,2.6557264081802447,0.0012872392181025741,0.2265795620527727
2024-09-11T17:30:12+03:00,17.9,288.65,35.99893826806962,16.09632,88.1896638265363,78.5009475108741,0.0,4.957199999999999,5.307119999999999,-1.598552248414997,-101.4020705822531,-7.797955591730505,24.80076,59.491553,12.432069294081598,49.55338331621056,137.74304714274686,3.215930384478302,0.0013731573165199089,0.2279527193692926
2024-09-11T17:30:13+03:00,17.8,288.65,35.99893826806962,15.99912,87.59951729755156,80.00209693411685,1.5999846429028237,4.91832,5.09328,-2.200157933302361,-99.40244787724653,-13.00041237151838,24.800805,59.491552,12.362801400009637,49.521834182066954,137.1213514796185,3.19276789061168,0.0013744722658974734,0.22932719163519008
2024-09-11T17:30:14+03:00,17.7,288.65,31.999692858056477,15.610319999999998,84.71181001009221,81.89858723599987,2.499986747494321,4.74336,5.09328,-2.4006931615981495,-97.29969276911639,-15.097437901697193,24.800846,59.49156,11.857194781167887,44.23853919835324,128.95034920844546,3.398339987727992,0.0013403268836673157,0.2306675185188574
2024-09-11T17:30:15+03:00,17.7,288.65,31.999692858056477,15.70752,88.98034558381684,83.3023338340704,1.7000230739326654,4.62672,4.996079999999999,-2.498095986770389,-96.69808708422903,-13.401482828109954,24.800885,59.491568,12.036183419530458,43.753084522003206,132.73343010582005,3.3420035437844193,0.0012835470041795381,0.23195106552303693
2024-09-11T17:30:16+03:00,17.6,288.65,31.002746294528848,15.70752,94.46928126117014,84.09874516930223,2.1000049107134933,4.6655999999999995,4.80168,-1.598552248414997,-95.59800811757786,-11.201324894807593,24.800926,59.491568,11.952514631683652,42.60160381584748,137.07088507701764,3.434246169093545,0.0012510983325269797,0.23320216385556392
2024-09-11T17:30:17+03:00,17.6,288.65,31.002746294528848,15.804720000000001,94.96775454293396,86.29890310260458,2.199986045963822,4.859999999999999,4.80168,-1.1974817918234204,-92.69884167421588,-10.3017811564522,24.800971,59.491565,11.90516341831344,43.1408528016448,138.10860734457876,3.5462200431354236,0.0013849461888800708,0.234587110044444
2024-09-11T17:30:18+03:00,17.6,288.65,31.999692858056477,15.99912,97.32261108092165,89.19806954596656,3.0000070153049903,4.7628,4.80168,-1.701684651538545,-88.99753431767077,-9.700175471564837,24.801016,59.491562,12.2234246167037,43.91577207518205,141.23838315610368,3.430931600770192,0.0013849463098594376,0.23597205635430343
2024-09-11T17:30:19+03:00,17.6,288.65,31.999692858056477,16.31016,101.17861704215208,92.89937690251168,2.6000251785241626,4.704479999999999,4.89888,-0.6990085100596044,-86.00096504913657,-8.399561276617868,24.80106,59.491558,12.570209272357552,43.43865645349297,144.61727349564507,3.415974394045612,0.001363999889656016,0.23733605624395945
2024-09-11T17:30:20+03:00,17.6,288.65,30.0000701530499,15.99912,104.36999196103078,95.7011405207014,2.7000063137744914,4.33512,4.80168,-1.7990874767107847,-83.3023338340704,-4.898789148368539,24.801103,59.491556,12.435169044724296,40.038531556506484,144.40852351753728,3.319019865843763,0.0013176234286121128,0.23865367967257156
2024-09-11T17:30:21+03:00,17.6,288.65,28.000447448043335,16.407359999999997,109.1312712385679,96.19961380246522,0.3999818367808277,4.7628,4.80168,-0.8021409131831525,-84.29928039759803,-3.002298846485514,24.801148,59.491549,12.405259581297456,38.38469406680019,147.5159653053681,3.733365369874018,0.0014361737407270893,0.24008985341329864
2024-09-11T17:30:22+03:00,17.5,288.65,31.002746294528848,16.60176,110.35167134219655,94.80159678234602,0.0,4.52952,4.80168,-0.20053522829578813,-86.0983678743088,-1.3006141949469687,24.801191,59.491542,12.931518059644732,41.39677656846561,151.74844791066215,3.3978116078467737,0.0013779386280105593,0.2414677920413092
2024-09-11T17:30:23+03:00,17.4,288.65,28.000447448043335,16.31016,111.9903306362707,93.09991213080748,0.0,4.393439999999999,4.704479999999999,-0.6016056848873644,-87.80005252584735,-0.6990085100596044,24.801226,59.491535,12.600958524670965,37.421472442914364,149.41180307918506,3.489212676930793,0.0011479037167913147,0.24261569575810052
2024-09-11T17:30:24+03:00,17.4,288.65,28.997394011570965,16.09632,111.57780102377652,91.30082465409667,0.0,4.21848,4.60728,-0.29793805346802804,-89.30120194909011,-2.498095986770389,24.80127,59.491526,12.57406994242791,38.35730525768744,149.93510628146396,3.3079468102142657,0.0014475288567900987,0.2440632246148906
2024-09-11T17:30:25+03:00,17.2,288.65,28.997394011570965,15.70752,112.42004898261882,91.30082465409667,0.0,3.9851999999999994,4.510079999999999,-0.8021409131831525,-88.69959626420275,-5.202456779787875,24.801313,59.491517,12.373642902763612,37.97976945448323,150.39981843710206,3.1412465769448286,0.0014192714022667641,0.24548249601715738
2024-09-11T17:30:26+03:00,17.2,288.65,26.997771306564392,15.396479999999999,109.36045435662024,91.19769225097312,0.6999825383113268,3.86856,4.393439999999999,-2.2975607584746007,-88.40165821073471,-6.199403343315507,24.801352,59.49151,12.077856590135404,35.358382396473644,144.71883675309388,3.1549977239822637,0.0012622611004305124,0.2467447571175879
2024-09-11T17:30:27+03:00,17.2,288.65,26.00082474303676,15.901919999999999,103.21834679281781,91.39822747926891,0.09998113525032865,3.5964,4.29624,-1.1000789666511805,-88.90013149249853,-7.0015442564986605,24.801387,59.491506,12.767239851396464,33.09428911987695,136.31263591269476,3.0129673366674847,0.0010947410941729847,0.24783949821176088
2024-09-11T17:30:28+03:00,17.2,288.65,28.997394011570965,15.99912,97.40855475019124,91.1002894258009,0.0,3.4992,4.19904,-1.1974817918234204,-88.99753431767077,-7.299482309966689,24.801422,59.491504,13.049296610768412,36.46653491852405,133.8750896687153,2.8140711445696573,0.001074757189288535,0.24891425540104942
2024-09-11T17:30:29+03:00,17.2,288.65,31.002746294528848,15.901919999999999,99.16180560329158,90.2007456874455,0.0,3.6547199999999997,4.19904,-0.8021409131831525,-90.2007456874455,-6.697876625079324,24.80146,59.491501,12.907316218058018,39.38897216450047,138.55077776779206,2.8245712827986704,0.0011734941050866301,0.25008774950613605
2024-09-11T17:30:30+03:00,17.2,288.65,31.999692858056477,15.901919999999999,100.78900574146313,90.60181614403709,0.0,4.02408,4.101839999999999,-0.8021409131831525,-89.30120194909011,-8.30215845144563,24.801499,59.491497,12.67003180618137,41.68892753993936,142.4779332814025,3.0050490415186557,0.0012141158763817356,0.2513018653825178
2024-09-11T17:30:31+03:00,17.1,288.65,33.00236899953541,16.19352,99.27066758436644,90.99715702267736,1.5000035076524951,3.71304,4.101839999999999,-2.2975607584746007,-88.29852580761116,-10.101245928156414,24.801527,59.491498,13.235016401896797,41.791966025091114,141.06263360945755,2.76832920206358,0.0008565220789267032,0.25215838746144453
2024-09-11T17:30:32+03:00,17.1,288.65,33.99931556306306,16.09632,99.83216622359464,93.59838541257129,3.399988852085818,3.57696,4.101839999999999,-1.501149423242757,-85.19882413595342,-11.298727719979832,24.801556,59.491498,13.282327898226173,42.660389056144936,142.49255527973958,2.6304365033080748,0.0008849250456082314,0.25304331250705275
2024-09-11T17:30:33+03:00,17.1,288.65,33.99931556306306,16.09632,98.78938303645654,96.10221097729297,3.6999895536163168,3.2464799999999996,4.00464,-2.498095986770389,-82.99866620265107,-12.501939089754565,24.801585,59.491497,13.527211293078922,41.71178333104413,140.50116636750067,2.423501724185551,0.0008869640899589796,0.25393027659701173
2024-09-11T17:30:34+03:00,17.0,288.65,33.99931556306306,16.19352,101.79168188294206,98.10183368229954,1.899985344433323,3.44088,4.00464,-0.8995437383553924,-81.60064918253184,-13.00041237151838,24.80162,59.491494,13.478913958228288,42.206180562495376,143.99786244543742,2.548770380744754,0.0010831289607364228,0.25501340555774815
2024-09-11T17:30:35+03:00,17.0,288.65,33.99931556306306,15.99912,106.38107382193995,99.29931547412298,1.5000035076524951,3.86856,3.9074399999999994,-1.7990874767107847,-80.00209693411685,-11.499262948275621,24.801658,59.49149,12.973534756217038,43.597760674194575,149.97883449613454,2.8016065627447104,0.0011842211846316152,0.2561976267423798
2024-09-11T17:30:36+03:00,17.0,288.65,30.0000701530499,16.893359999999998,111.9101165449524,99.40244787724653,0.0,3.44088,3.7908,-0.20053522829578813,-80.70110544417646,-10.101245928156414,24.80169,59.491487,14.019438168490868,37.04908801057286,148.95920455552528,2.7462338158502035,0.0009929797145877164,0.2571906064569675
2024-09-11T17:30:37+03:00,17.0,288.65,30.0000701530499,16.893359999999998,108.77030782763548,100.5025268438977,0.600001403060998,3.5575200000000002,3.9074399999999994,-0.8995437383553924,-78.79888556434211,-7.2020794847944485,24.80172,59.491484,13.926522808633804,37.33821300978394,146.1085208374194,2.8284743823835683,0.0009330310323748753,0.25812363748934236
2024-09-11T17:30:38+03:00,17.0,288.65,30.0000701530499,17.009999999999998,105.8596822283709,101.29893817912955,0.5000202678106694,3.53808,3.9074399999999994,-1.3980170201192088,-78.39781510775055,-4.297183463481174,24.801748,59.491482,14.05768896262753,37.229436761708996,143.0891189900799,2.8170871881638258,0.0008628264667058621,0.25898646395604824
2024-09-11T17:30:39+03:00,17.0,288.65,24.99814860155782,16.79616,108.40934441670305,101.4020705822531,0.0,3.3047999999999997,3.7908,-0.20053522829578813,-79.10255319576146,-1.701684651538545,24.801778,59.491478,13.871431214051075,30.776462696013454,139.1858071127165,2.8393855891256803,0.0009464870537873165,0.25993295100983554
2024-09-11T17:30:40+03:00,17.0,288.65,24.001202038030186,16.79616,106.39826255579388,100.10145638730613,0.0,3.28536,3.7908,-1.701684651538545,-80.50057021588067,-2.498095986770389,24.801807,59.491475,13.859438276566905,29.53430786575555,135.93257042154943,2.858462568717429,0.0009031111626110677,0.2608360621724466
2024-09-11T17:30:41+03:00,17.0,288.65,24.001202038030186,16.60176,111.95022359061156,97.79816605088023,0.0,3.5575200000000002,3.7908,0.20053522829578813,-83.60027188753843,-3.002298846485514,24.801837,59.491469,13.430018791054112,30.18664834048988,142.13687193110144,3.075091818715558,0.0009839191490106202,0.26181998132145723
2024-09-11T17:30:42+03:00,17.0,288.65,20.99890319154467,16.407359999999997,113.13051664858104,94.69846437922247,0.0,3.71304,3.7908,-1.3980170201192088,-86.20150027743236,-3.2028340747813018,24.801871,59.491462,13.009136886546944,26.869353293446835,139.99986994202789,3.312177984851609,0.0011195708095453707,0.2629395521310026
2024-09-11T17:30:43+03:00,16.9,288.65,20.00195662801704,16.60176,107.80200915386439,92.4983064459201,0.0,3.26592,3.6935999999999996,-0.40107045659157625,-88.00058775414314,-4.801386323196299,24.801904,59.491461,13.578867027302614,24.720937137757744,132.52294629162213,2.9666161301985308,0.0010087771046726301,0.26394832923567524
2024-09-11T17:30:44+03:00,16.9,288.65,22.001579333023614,16.31016,98.70916894513825,92.69884167421588,0.600001403060998,3.44088,3.6935999999999996,-1.7990874767107847,-86.69997355919618,-8.502693679741416,24.801936,59.491463,13.183042165298039,27.613041953430383,126.32221089856863,3.048957225168542,0.0009838422244941554,0.2649321714601694
2024-09-11T17:30:45+03:00,16.9,288.65,24.001202038030186,16.50456,96.65798003856989,93.70151781569484,0.9999832398418258,3.07152,3.6935999999999996,-1.0026761414789407,-85.80042982084078,-10.89765726338826,24.801967,59.491463,13.755467889347129,29.212348790566693,125.87032882913658,2.6808745955293203,0.0009459553397110008,0.2658781267998804
2024-09-11T17:30:46+03:00,16.9,288.65,24.99814860155782,16.60176,96.18815464656261,94.69846437922247,0.300000701530499,3.09096,3.6935999999999996,-1.701684651538545,-85.50249176737275,-12.398806686631014,24.801996,59.491463,13.862035111998345,30.405093949738898,126.5932485963015,2.665856179579045,0.0008849259629053611,0.2667630527627857
2024-09-11T17:30:47+03:00,16.9,288.65,26.00082474303676,17.107200000000002,97.31115192501902,92.40090362074787,0.0,3.3047999999999997,3.6935999999999996,-2.1027551081301215,-88.6021934390305,-14.501561794761136,24.802026,59.491462,14.210928663312274,31.852164444150304,129.1633163691693,2.807138689402643,0.000917411875247926,0.26768046463803363
2024-09-11T17:30:48+03:00,16.9,288.65,26.997771306564392,17.107200000000002,107.18894431307442,90.29814851261774,0.0,3.07152,3.5964,-3.002298846485514,-90.60181614403709,-17.102790184655074,24.802056,59.491452,14.437887830111102,32.53973061244511,139.72867492551953,2.589348685020033,0.0010951372700852538,0.2687756019081189
2024-09-11T17:30:49+03:00,16.9,288.65,26.997771306564392,17.009999999999998,98.81803092621307,88.6021934390305,0.600001403060998,3.71304,3.5964,-3.0997016716577535,-91.50135988239246,-20.700965138076644,24.802093,59.491446,13.804879977319302,34.01100422560441,132.8290351518175,3.0778508364369768,0.0011852451083847388,0.26996084701650364
2024-09-11T17:30:51+03:00,16.9,288.65,26.00082474303676,17.3016,100.42231275257939,90.09761328432195,2.199986045963822,4.548959999999999,3.5964,-1.902219879834333,-89.10066672079432,-23.30219352797058,24.802136,59.491441,13.362690783298053,34.58346660124343,135.00577935382282,3.745159643799595,0.0013461109779806105,0.27130695799448423
2024-09-11T17:30:52+03:00,17.0,288.65,24.99814860155782,18.29304,100.73170996195005,92.20036839245208,1.5000035076524951,4.5684000000000005,3.7908,-1.3980170201192088,-86.9979116126642,-18.099736748182707,24.802178,59.491436,14.283667699783098,32.7659192069471,133.49762916889716,3.841515821788528,0.001316384340540414,0.27262334233502467
2024-09-11T17:30:53+03:00,17.2,288.65,28.000447448043335,18.50688,104.49031309800824,92.89937690251168,0.0,4.548959999999999,3.9074399999999994,-0.8995437383553924,-87.10104401578775,-11.499262948275621,24.802218,59.491428,14.646936312770947,36.38451194792739,140.87482504593564,3.6621592601892217,0.001311893544417942,0.27393523587944263
