time,dpt,mtw,awa,aws,cog,hdg,rot,sog,stw,pitch,yaw,roll,lng,lat,tws,twa,twd,vmg,dist,cum_dist
2026-06-10T18:24:48+03:00,13.83,286.8,93.30175471564837,11.60568,189.9985344433323,168.19749033860447,-2.7000063137744914,4.60728,4.97664,0.20626480624709637,-12.599341914926804,-6.468693507026994,24.805829,59.467991,12.7309887707252,114.48145210891256,304.47998655224484,-1.9092505967846332,0.0012681579242196342,0.0012681579242196342
2026-06-10T18:24:49+03:00,13.68,286.8,92.29907857416943,12.20832,181.9943140453547,168.79909602349184,2.1000049107134933,4.97664,4.87944,-0.022918311805232933,-11.298727719979832,-4.83003421295284,24.805821,59.467974,13.367295833547429,114.13809381794863,296.13240786330334,-2.0351336218738956,0.0010506261121157902,0.002318784036335424
2026-06-10T18:24:50+03:00,13.5,286.8,91.30213201064178,11.702879999999999,181.19217313217152,171.6982624668538,4.099971390397145,5.01552,5.50152,-0.017188733853924696,-5.597797658428142,-5.7868737308213145,24.805823,59.467951,12.836686528581152,114.29501304147482,295.48718617364636,-2.0635606194440825,0.0013838257639857995,0.0037026098003212237
2026-06-10T18:24:51+03:00,13.53,286.79,86.3002104591497,11.197439999999999,175.99544593033497,177.50232493152905,4.099971390397145,5.07384,6.53184,0.11459155902616464,-0.6990085100596044,-8.5599894592545,24.805826,59.467928,11.991424095489645,111.27633361479234,287.2717795451273,-1.8411258445315917,0.0013855092827627865,0.0050881190830840105
2026-06-10T18:24:52+03:00,13.53,286.79,84.30058775414314,10.90584,194.81137992243123,182.29798167677404,3.30000771683549,4.82112,5.151599999999999,0.29220847551671986,4.60085109490051,-10.611178365822846,24.805826,59.467902,11.477694793488137,109.0068324784804,303.81821240091165,-1.57014672239385,0.0015628006267491166,0.006650919709833127
2026-06-10T18:24:53+03:00,13.53,286.8,79.29866620265106,11.39184,190.9954810068599,185.19714812013598,2.1000049107134933,4.97664,5.50152,0.13178029288008933,5.099324376664327,-8.898034558381685,24.805816,59.46788,11.553629024016125,104.33869343173036,295.33417443859025,-1.2324816154902036,0.0013571685449399462,0.008008088254773074
2026-06-10T18:24:54+03:00,13.31,286.8,80.30134234412998,12.091679999999998,200.39771842495674,189.40265833639623,2.400005612243992,4.97664,5.851439999999999,0.27501974166279514,10.50231638474799,-9.470992353512509,24.805803,59.467858,12.276010639164829,103.85460436169808,304.2523227866548,-1.1917005670695098,0.0013806684939635537,0.009388756748736628
2026-06-10T18:24:55+03:00,13.23,286.8,79.29866620265106,12.59712,195.99740255835198,190.39960489992387,3.6999895536163168,4.64616,5.6376,0.03437746770784939,12.79987714322259,-7.2479161084049135,24.805788,59.467838,12.591190524886223,100.55760032238294,296.55500288073495,-0.8512876221995818,0.0012864587367975042,0.010675215485534132
2026-06-10T18:24:56+03:00,13.23,286.79,74.30247422911027,12.402719999999999,192.9951037118665,196.10053496147555,5.199993061268812,4.93776,5.52096,0.005729577951308233,17.60126346641889,-8.542800725400575,24.805779,59.467816,12.044500446810824,97.54784534060737,290.5429490524739,-0.6485948297076586,0.0013506258761352503,0.012025841361669383
2026-06-10T18:24:57+03:00,13.23,286.8,71.30017538262474,12.30552,201.44050161209483,197.20061392812673,2.6000251785241626,4.859999999999999,5.326560000000001,0.02864788975654116,18.099736748182707,-8.938141604040842,24.80568,59.46779,11.691764634496595,94.48722343050396,295.9277250425988,-0.38023078962058426,0.0034031314953584927,0.015428972857027875
2026-06-10T18:24:58+03:00,13.2,286.79,69.30055267761819,12.402719999999999,206.9981922248638,202.50047353308685,2.9000258800546614,4.704479999999999,4.996079999999999,0.29793805346802804,25.50235146127294,-11.63104324115571,24.805742,59.46777,11.606519803311832,91.58256414748749,298.5807563723513,-0.1299257084715933,0.0022426600000219473,0.017671632857049823
2026-06-10T18:24:59+03:00,13.23,286.8,69.30055267761819,13.39416,214.99668304489012,204.79803429156144,2.3000244769936637,5.346,5.598719999999999,0.29793805346802804,23.697534406610853,7.2020794847944485,24.805713,59.467749,12.5444518081417,92.79464363225759,307.7913266771477,-0.2606516873437743,0.0015419141637738412,0.019213547020823663
2026-06-10T18:25:00+03:00,13.08,286.8,63.30168456259847,13.608,213.48980404369604,203.89849055320607,0.9999832398418258,4.957199999999999,5.773680000000001,2.498095986770389,24.499675319793997,8.10162322314984,24.805609,59.467728,12.212088156268832,84.56457647670601,298.05438052040205,0.46956486379568524,0.0034174172297568696,0.022630964250580532
2026-06-10T18:25:01+03:00,13.05,286.8,63.30168456259847,13.802399999999999,215.99935918636905,208.20140359463852,3.099988150555319,5.346,5.19048,2.498095986770389,29.39846446816254,7.597420363434716,24.805663,59.467708,12.360480153324023,86.03208730507136,302.0314464914404,0.3699314276566992,0.0020406414644370202,0.02467160571501755
2026-06-10T18:25:02+03:00,12.93,286.8,61.302061857591895,14.30784,223.8316922458074,213.92525196799545,2.5123626358691467,4.996079999999999,5.46264,0.693278932108296,31.501219576292662,-7.8667105271462034,24.805635,59.467685,12.68951820621008,81.50548240784963,305.33717465365703,0.7379948351505154,0.001625512423737954,0.026297118138755505
2026-06-10T18:25:03+03:00,12.93,286.8,57.30281644757874,13.8996,216.9963057498967,215.3232689881147,1.345935156541817,5.57928,5.443199999999999,0.10886198107485642,31.002746294528848,-9.49391066531774,24.805605,59.467667,11.855068395143794,80.6341481861536,297.6304539360503,0.9079605224749784,0.0014176757478449934,0.0277147938866005
2026-06-10T18:25:03+03:00,12.97,286.8,56.3001403060998,13.802399999999999,226.71939953326674,218.0505480929374,2.120631391338203,5.09328,5.6181600000000005,-0.8250592249883855,35.50046498630581,-9.413696573999426,24.805485,59.467656,11.765945570304131,77.40890613159377,304.1283056648605,1.1102919558026314,0.0037235172884752463,0.03143831117507574
2026-06-10T18:25:04+03:00,13.08,286.78,57.30281644757874,14.59944,225.9974727114019,215.99935918636905,0.8000209693411684,4.704479999999999,5.69592,0.5385803274229739,36.49741154983344,-8.095893645198533,24.805546,59.467631,12.691377212488499,75.4792243639437,301.4766970753456,1.179559168096658,0.002393276238710015,0.03383158741378576
2026-06-10T18:25:05+03:00,12.93,286.81,55.29746416462087,15.20208,228.6789151926142,215.59828872977747,-0.2000195662801704,4.93776,5.81256,-0.011459155902616466,35.901535442897384,-5.941572335506637,24.805517,59.467617,13.038949261095285,73.43690872080631,302.1158239134205,1.4076120682863698,0.00122161199716376,0.03505319941094952
2026-06-10T18:25:06+03:00,12.86,286.81,55.29746416462087,15.20208,222.99517386491638,218.600587576263,0.038044397596686666,6.43464,5.404319999999999,-0.26929016371148695,34.60092124795042,-5.1680793120800255,24.805479,59.467598,12.693579628626123,79.92698274706825,302.92215661198463,1.1254382705448205,0.0016281112239873968,0.03668131063493692
2026-06-10T18:25:07+03:00,12.78,286.81,54.30051760109323,15.10488,222.99517386491638,218.92144394153624,0.5230531711749284,6.43464,5.20992,-0.017188733853924696,35.20252693283778,-6.720794936884556,24.80544,59.46758,12.495177713611191,79.02159511157433,302.0167689764907,1.225406412456051,0.0016089961551022513,0.03829030679003917
2026-06-10T18:25:08+03:00,12.93,286.8,53.29784145961429,15.007679999999999,219.99860459638222,215.1972182731859,1.4000223724021665,5.52096,5.20992,-0.05729577951308232,35.79840303977384,-7.838062637389663,24.805325,59.467577,12.516862112488647,74.00787849108386,294.0064830874661,1.5210530473030623,0.0035162981608426297,0.0418066049508818
2026-06-10T18:25:09+03:00,12.93,286.8,52.30089489608667,15.007679999999999,223.99785000639537,216.69836769642865,0.600001403060998,4.957199999999999,5.03496,-0.7333859777674538,37.40268486614014,-7.826603481487045,24.805294,59.467562,12.60221056199102,70.43481504042748,294.4326650468229,1.6600625694922326,0.0013072908354560618,0.04311389578633786
2026-06-10T18:25:10+03:00,12.93,286.79,55.29746416462087,14.59944,225.9974727114019,213.50126319959867,-3.600008418365989,4.58784,5.03496,0.48701412586119974,32.20022808635227,-4.400315866604722,24.80535,59.467537,12.566880466716414,72.76312354889075,298.7605962602927,1.3594816897382882,0.0022764661401902656,0.04539036192652813
2026-06-10T18:25:11+03:00,12.93,286.8,53.29784145961429,15.20208,231.99634082642166,217.6838551040537,-0.4625488280091136,4.723920000000001,5.09328,-0.09167324722093173,35.299929758010016,-7.775037279925271,24.805318,59.467524,12.945243105962962,70.30985142119111,302.3061922476128,1.5916463194320605,0.00125117236693876,0.04664153429346689
2026-06-10T18:25:12+03:00,12.82,286.8,53.29784145961429,15.20208,225.9974727114019,211.19797286317277,-1.899985344433323,4.5684000000000005,5.28768,1.0026761414789407,28.602053132930696,7.098947081670899,24.805199,59.467513,12.998467751362522,69.66440622775087,295.66187893915276,1.5876022725394792,0.0036934854744917677,0.05033501976795866
2026-06-10T18:25:13+03:00,12.78,286.8,48.301649486073515,14.30784,229.99671812141503,209.5020177895855,-1.7000230739326654,5.5404,4.723920000000001,3.002298846485514,30.40114060964148,9.700175471564837,24.80517,59.467495,11.399410778981322,69.57969625239465,299.5764143738097,1.9330686494299165,0.0013981407120734308,0.05173316048003209
2026-06-10T18:25:14+03:00,12.93,286.79,52.30089489608667,14.21064,220.99555115990984,206.20178088963198,-3.30000771683549,4.89888,5.1127199999999995,0.005729577951308233,23.30219352797058,-6.640580845566242,24.805219,59.467478,11.865859980631827,71.36734729837775,292.3628984582876,1.5651891618420315,0.0018119043010963074,0.0535450647811284
2026-06-10T18:25:15+03:00,12.86,286.8,53.29784145961429,14.40504,225.9974727114019,204.59749906326564,-2.499986747494321,4.68504,5.01552,-0.017188733853924696,23.800666809734395,-7.482828804408551,24.805191,59.467463,12.197763029593263,71.23329804585049,297.2307707572524,1.5072499188859005,0.001242564846211968,0.05478762962734037
2026-06-10T18:25:16+03:00,12.75,286.8,58.299763011106386,14.30784,220.99555115990984,205.37672166464355,-1.2171915399759208,4.510079999999999,4.93776,-0.040107045659157625,21.600508876432034,-6.245239966925974,24.805165,59.467446,12.539449904069135,76.11879388391571,297.11434504382555,1.0820115782644848,0.0012940205734568691,0.056081650200797244
2026-06-10T18:25:17+03:00,12.63,286.8,59.30243915258532,14.094,220.99555115990984,204.75219766795098,0.675746423577293,4.704479999999999,5.2488,0.4812845479098915,20.700965138076644,-6.394208993659988,24.805139,59.467431,12.37233955608947,78.38680211677134,299.38235327668116,0.9470285604507991,0.0012013583300252398,0.057283008530822487
2026-06-10T18:25:18+03:00,12.63,286.8,59.30243915258532,13.39416,215.99935918636905,206.10437806445972,1.9493743063735998,5.07384,5.0544,0.6703606203030631,24.299140091498213,-11.098192491684046,24.805118,59.467413,11.651589392354673,81.29236749144397,297.291726677813,0.7681413148541544,0.0012577011579501787,0.05854070968877267
2026-06-10T18:25:19+03:00,12.63,286.8,59.30243915258532,13.00536,205.99551608338487,206.39085696202514,-3.0012675224542784,5.13216,5.26824,0.10313240312354818,20.99890319154467,-7.139054127330057,24.805096,59.467392,11.284075797460009,82.32434696456934,288.3198630479542,0.6854773106300596,0.0014299030541699222,0.05997061274294259
2026-06-10T18:25:20+03:00,12.63,286.8,60.29938571611295,13.39416,212.99706033988352,204.47144834833688,-1.1101057280659699,5.07384,5.1710400000000005,0.32658594322456924,22.597455439959663,-12.267026393750927,24.805005,59.46737,11.738975256728036,82.3508405549464,295.34790089482993,0.6753625991689179,0.0030774155347591597,0.06304802827770174
2026-06-10T18:25:21+03:00,12.63,286.8,62.299008421119524,14.094,203.65211870129977,202.01918898517698,-2.489501619843427,4.957199999999999,5.03496,-0.6760901982543714,16.30064927147192,-4.60085109490051,24.804987,59.467352,12.580083299182505,82.71829116623391,286.3704098675337,0.6283149312157855,0.001213554282089446,0.06426158255979118
2026-06-10T18:25:22+03:00,12.63,286.8,62.299008421119524,14.094,215.99935918636905,201.0738086232111,-0.09281916281119336,5.01552,4.996079999999999,0.5385803274229739,20.09935945318928,-9.064192318969624,24.805024,59.467331,12.572824447420139,82.98191946300874,298.98127864937777,0.6128090234774716,0.001694068057326684,0.06595565061711786
2026-06-10T18:25:23+03:00,12.48,286.8,63.30168456259847,14.21064,206.9981922248638,201.77854671122205,0.8607544956250357,4.82112,5.19048,0.12605071492878112,20.299894681485068,-5.6379047040873,24.804943,59.467312,12.791493976179487,82.97867043775182,289.97686266261564,0.5893280738215624,0.002724382458338723,0.06868003307545659
2026-06-10T18:25:24+03:00,12.33,286.8,62.299008421119524,14.502239999999999,215.99935918636905,199.49817468660132,0.3999818367808277,5.26824,5.19048,1.1974817918234204,19.19981571483389,6.801009028202872,24.804974,59.467295,12.924315106321387,83.45466939950008,299.45402858586914,0.600522783018518,0.0013929290862979002,0.07007296216175449
2026-06-10T18:25:25+03:00,12.41,286.79,61.302061857591895,14.30784,211.11775877185443,203.29115529036739,1.200002806121996,4.996079999999999,4.91832,2.200157933302361,20.20249185631283,7.901087994854052,24.804949,59.467277,12.68951820621008,81.50548240784963,292.62324117970405,0.7379948351505154,0.001324157037206011,0.0713971191989605
2026-06-10T18:25:26+03:00,12.48,286.8,62.299008421119524,13.8996,207.99513878839142,200.59825365325253,0.300000701530499,5.19048,5.03496,1.3980170201192088,21.30257082296401,8.30215845144563,24.804928,59.467257,12.371949690724456,84.10415578497508,292.0992945733665,0.5331681226312242,0.0013624974244082883,0.07275961662336879
2026-06-10T18:25:27+03:00,12.48,286.8,62.299008421119524,14.59944,211.9943841984046,202.20253547961883,0.3999818367808277,4.64616,5.65704,2.2975607584746007,21.697911701604276,7.2020794847944485,24.804905,59.467241,13.102162419289975,80.59745582898029,292.5918400273849,0.7590420905354377,0.0011908799646987668,0.07395049658806756
2026-06-10T18:25:28+03:00,12.33,286.79,63.30168456259847,14.40504,217.99898189137562,202.50047353308685,0.600001403060998,4.257359999999999,5.01552,1.9996227050065731,23.101658299674792,7.9984908200262925,24.804883,59.467225,13.05842044150731,80.23538499629778,298.2343668876734,0.7220520617058367,0.0011731299245155763,0.07512362651258313
2026-06-10T18:25:29+03:00,12.3,286.8,61.302061857591895,14.21064,217.89011991030077,203.19948204314647,0.5000202678106694,5.1127199999999995,5.326560000000001,3.0997016716577535,23.800666809734395,8.600096504913656,24.804795,59.467195,12.581950681713021,82.18369172080934,300.0738116311101,0.6953174788537282,0.0032361709575482525,0.07835979747013139
2026-06-10T18:25:30+03:00,12.18,286.8,62.299008421119524,14.21064,212.99706033988352,201.10245651296765,-2.1000049107134933,5.13216,5.404319999999999,1.701684651538545,19.19981571483389,8.898034558381685,24.80483,59.467186,12.667915035728905,83.3191914289485,296.316251768832,0.597065560863353,0.001197890882100926,0.07955768835223231
2026-06-10T18:25:31+03:00,12.22,286.8,63.30168456259847,13.9968,214.9221985315231,200.0997803714887,-0.9999832398418258,5.326560000000001,5.307119999999999,2.6986312150661775,20.299894681485068,8.399561276617868,24.804801,59.467166,12.541483029078709,85.60032016443982,300.5225186959629,0.40861882976544767,0.0014931161798969685,0.08105080453212929
2026-06-10T18:25:32+03:00,12.3,286.8,64.29863112612611,14.696639999999999,212.99706033988352,197.09748152500322,-1.5999846429028237,5.0544,5.65704,1.701684651538545,16.100114043176134,7.597420363434716,24.804777,59.467146,13.308202561147557,84.3109010479271,297.3079613878106,0.501044842824951,0.0014079373990890439,0.08245874193121833
2026-06-10T18:25:33+03:00,12.18,286.8,66.29825383113267,14.094,204.99856951985726,196.59900824323938,-2.400005612243992,5.07384,4.84056,1.1000789666511805,16.501184499767707,7.402614713090236,24.8047,59.467108,12.918729143665349,87.3752570037986,292.37382652365585,0.23235338787001833,0.0032780800178222203,0.08573682194904055
2026-06-10T18:25:34+03:00,12.15,286.8,65.30130726760504,14.502239999999999,207.8289810278035,195.699464504884,0.2000195662801704,5.20992,5.38488,-1.432394487827058,15.29797312999298,-4.153944014698468,24.804735,59.467105,13.202918004540503,86.30968359960598,294.13866462740947,0.3353294617725825,0.0010838896343945519,0.0868207115834351
2026-06-10T18:25:35+03:00,11.92,286.8,68.29787653613924,13.8996,219.99860459638222,195.4989292765882,-0.8000209693411684,4.68504,5.404319999999999,0.8995437383553924,15.20057030482074,7.098947081670899,24.804653,59.467067,12.922385341958668,87.98320355754423,307.98180815392647,0.16487812890456274,0.0033892702018479435,0.09020998178528304
2026-06-10T18:25:36+03:00,11.88,286.81,67.30092997261161,13.296959999999999,216.9963057498967,196.30107018977134,0.2000195662801704,4.89888,5.5404,-0.8078704911344607,16.59858732493995,-7.482828804408551,24.804679,59.467067,12.2692346515969,88.91513231828425,305.9114380681809,0.0927523645885125,0.0007939551258127378,0.09100393691109578
2026-06-10T18:25:37+03:00,11.88,286.81,67.30092997261161,13.5108,216.9963057498967,195.40152645141598,0.0,5.326560000000001,5.6376,-0.13178029288008933,15.00003507652495,-6.016056848873643,24.804648,59.467046,12.464823214846138,90.51879269067845,307.5150984405751,-0.048229427334965866,0.0015777930948230189,0.0925817300059188
2026-06-10T18:25:38+03:00,11.81,286.81,66.29825383113267,13.10256,221.99822730138877,196.10053496147555,0.5000202678106694,5.7153599999999996,5.9292,-0.3552338329811104,16.701719728063498,-7.362507667431078,24.804613,59.467024,12.005741930429199,92.14066257310647,314.13888987449525,-0.21348537665437567,0.0017002843642720503,0.09428201437019085
2026-06-10T18:25:39+03:00,11.88,286.81,65.30130726760504,12.69432,215.99935918636905,197.29801675329895,0.5000202678106694,5.94864,5.65704,0.1604281826366305,18.099736748182707,-7.671904876801722,24.804583,59.467001,11.551001284834637,93.19786629588903,309.1972254822581,-0.3318408543299363,0.0016584600333250986,0.09594047440351594
2026-06-10T18:25:40+03:00,11.81,286.8,65.30130726760504,12.79152,212.63036735099982,198.1975604916544,-0.5000202678106694,5.443199999999999,6.006959999999999,-0.7964113352318443,17.801798694714677,-5.746766685162156,24.804533,59.466955,11.62173829354954,90.48467983123884,303.11504718223864,-0.04604488873879549,0.0031585152741158244,0.09909898967763177
2026-06-10T18:25:41+03:00,11.66,286.8,65.30130726760504,13.00536,213.99973648136248,196.79954347153517,-0.8000209693411684,5.19048,5.94864,0.8938141604040842,16.39805209664416,-6.342642792098213,24.804532,59.466958,11.818114107250777,88.81812509768491,302.8178615790474,0.10705959615196414,0.00018289050399573754,0.09928188018162751
2026-06-10T18:25:42+03:00,11.47,286.81,65.30130726760504,12.59712,210.64220380189587,196.50160541806716,0.300000701530499,5.443199999999999,5.7153599999999996,-0.26356058576017866,16.902254956359283,-10.290322000549587,24.804483,59.46691,11.446114813341564,90.89875689427538,301.5409606961713,-0.0853799869069524,0.0032500984004584957,0.102531978582086
2026-06-10T18:25:43+03:00,11.58,286.81,65.30130726760504,13.296959999999999,203.9958933783783,196.3984730149436,0.6999825383113268,4.62672,5.7153599999999996,-0.6016056848873644,16.197516868348373,-7.975572508221059,24.804462,59.466888,12.116219439340677,85.60084632673747,289.59673970511574,0.35488932104596455,0.001469658104108112,0.10400163668619411
2026-06-10T18:25:44+03:00,11.58,286.8,64.29863112612611,13.608,203.9958933783783,196.9026758746587,-0.09998113525032865,4.43232,5.26824,0.040107045659157625,17.200193009827313,-8.485504945887492,24.804481,59.466899,12.349421976244345,83.16736107858995,287.1632544569683,0.5273113306560612,0.0008796582257368393,0.10488129491193095
2026-06-10T18:25:45+03:00,11.43,286.81,65.30130726760504,14.21064,213.1975955681793,198.79916617654175,0.3999818367808277,4.49064,6.14304,0.13178029288008933,18.59821002994652,-7.0702991919143585,24.804467,59.466879,12.99147865982507,83.60409293624092,296.8016885044202,0.5002480538071723,0.001275909647327018,0.10615720455925796
2026-06-10T18:25:46+03:00,11.4,286.8,65.30130726760504,14.79384,203.9958933783783,197.89962243818636,-0.300000701530499,4.68504,6.14304,-0.12032113697747288,17.801798694714677,-6.692147047128016,24.804447,59.466858,13.523522663590843,83.64664138889833,287.64253476727663,0.5184461645151537,0.0014022505977262783,0.10755945515698424
2026-06-10T18:25:47+03:00,11.28,286.8,65.30130726760504,14.59944,210.99743763487695,197.09748152500322,-0.600001403060998,5.1710400000000005,5.57928,-0.8307888029396938,16.39805209664416,-4.5263665815335035,24.804424,59.466837,13.296363344402415,85.99233161331139,296.98976924818834,0.3614039116070711,0.0014445069274670217,0.10900396208445126
2026-06-10T18:25:48+03:00,11.17,286.81,67.30092997261161,14.696639999999999,209.99476149339802,192.39922760493045,-1.899985344433323,5.19048,5.46264,-0.38388172273765153,11.60239535139917,-3.3231552117587753,24.804398,59.466815,13.566825330211309,87.96895385717816,297.9637153505762,0.18395589967616244,0.0015424122404113845,0.11054637432486264
2026-06-10T18:25:49+03:00,11.28,286.81,67.30092997261161,13.7052,209.99476149339802,195.00045599482436,0.300000701530499,5.48208,5.26824,0.5328507494716656,15.802175989708104,-10.611178365822846,24.804322,59.46676,12.645133399723779,90.87618466391628,300.8709461573143,-0.08383038423525935,0.0040392202608307655,0.11458559458569341
2026-06-10T18:25:50+03:00,11.17,286.81,68.29787653613924,13.39416,207.59979790975117,195.89999973317975,0.9999832398418258,5.346,5.26824,-0.10886198107485642,16.99965778153153,-10.36480651391659,24.804355,59.466771,12.450973494082591,91.80919427113423,299.40899218088543,-0.16877936679990285,0.0012052666076680632,0.11579086119336147
2026-06-10T18:25:52+03:00,10.98,286.8,69.30055267761819,14.59944,207.99513878839142,198.209019647557,-1.6560199152666184,4.84056,5.6376,-0.16615776058793874,14.197894163341799,-4.131025702893235,24.804255,59.466695,13.660753580012063,88.65839532546676,296.6535341138582,0.11333338267363913,0.001321858154914041,0.11711271934827551
2026-06-10T18:25:53+03:00,10.95,286.8,68.29787653613924,14.79384,202.00772982927433,191.29914863827926,-2.3000244769936637,5.0544,5.346,-0.040107045659157625,9.700175471564837,-1.0198648753328654,24.804237,59.466675,13.751532088231674,88.26612162308965,290.27385145236394,0.15293233455544028,0.0013218582902229368,0.11843457763849845
2026-06-10T18:25:54+03:00,10.83,286.8,67.30092997261161,13.39416,205.99551608338487,191.201745813107,0.09998113525032865,5.1710400000000005,5.01552,0.07448451336700701,12.301403861458775,-9.127217676434014,24.804218,59.466652,12.356706895374353,90.01091175581597,296.00642783920085,-0.0009848042200148218,0.0014992937352670264,0.11993387137376547
2026-06-10T18:25:55+03:00,10.83,286.8,65.30130726760504,12.20832,196.99434912187962,199.01116056074014,0.8643068339548469,5.09328,5.443199999999999,-0.693278932108296,16.701719728063498,-14.295296988514039,24.804242,59.466657,11.091477775439985,89.95907750217273,286.9534266240523,0.0036377849081384167,0.0007921187228311626,0.12072599009659664
2026-06-10T18:25:56+03:00,10.76,286.8,65.30130726760504,12.20832,204.24226523028457,199.72162822670234,0.043430200870916404,5.13216,5.6376,0.0,16.39805209664416,-11.625313663204404,24.804223,59.466634,11.091518150876036,90.15992141471273,294.4021866449973,-0.01432463663179739,0.0014992938555259423,0.12222528395212258
2026-06-10T18:25:57+03:00,10.68,286.8,68.29787653613924,12.30552,212.99706033988352,199.6987099148971,-0.7545854161872942,4.957199999999999,5.832,0.48701412586119974,17.89920151988692,-12.857172922735671,24.80415,59.466588,11.440527335713734,92.03799281174989,305.0350531516334,-0.17628886197497773,0.0035516701786127446,0.12577695413073534
2026-06-10T18:25:58+03:00,10.68,286.8,69.30055267761819,12.908159999999999,211.9943841984046,198.88510984581137,-0.63684258928791,4.957199999999999,5.404319999999999,-0.29220847551671986,16.197516868348373,-8.703228908037206,24.804125,59.466568,12.081351363626538,91.87175392011835,303.86613811852294,-0.161914338390142,0.001424078485324541,0.1272010326160599
2026-06-10T18:25:59+03:00,10.61,286.8,70.29749924114583,13.39416,201.70979177580634,195.6536278812735,-5.222968668853558,5.19048,5.26824,0.05156620156177409,9.602772646392598,-3.8674651171330567,24.804144,59.466573,12.628053589110635,93.06324848457663,294.77304026038297,-0.2773704563738453,0.0006534240756486738,0.12785445669170856
2026-06-10T18:26:00+03:00,10.53,286.8,72.3028515241037,13.296959999999999,208.9978149298704,188.49738502008955,-3.399988852085818,5.26824,5.09328,-0.08021409131831525,7.901087994854052,-6.124918829948499,24.804087,59.466523,12.726906542937572,95.52865267616426,304.52646760603466,-0.5075607951186065,0.003473054018308233,0.1313275107100168
2026-06-10T18:26:01+03:00,10.5,286.8,73.29979808763133,12.908159999999999,201.99627067337175,189.70059638986427,0.9999832398418258,5.6181600000000005,5.07384,1.3980170201192088,10.50231638474799,4.698253920072751,24.804068,59.466502,12.510195635044333,98.77654155334606,300.7728122267178,-0.8572256842651007,0.0013892250391026597,0.13271673574911946
2026-06-10T18:26:02+03:00,10.35,286.8,73.29979808763133,12.20832,202.4718256433303,189.9985344433323,0.300000701530499,5.13216,5.3654399999999995,1.9996227050065731,10.3017811564522,6.199403343315507,24.80405,59.466482,11.805614940993324,97.9064296418637,300.378255285194,-0.7059578540176532,0.0013218595955660157,0.13403859534468548
2026-06-10T18:26:03+03:00,10.23,286.8,72.3028515241037,12.20832,200.9993241098441,192.3018247797582,2.400005612243992,5.03496,5.1710400000000005,-0.08594366926962349,13.298350424986406,-6.875493541569878,24.804072,59.46648,11.705677035779159,96.49352518694883,297.49284929679294,-0.5694083223217965,0.0006824907602388425,0.13472108610492434
2026-06-10T18:26:04+03:00,10.23,286.81,71.30017538262474,11.89728,198.9997014048375,191.201745813107,-0.300000701530499,5.50152,5.443199999999999,0.06875493541569878,10.599719209920229,-5.3227779167653475,24.804008,59.466438,11.394829076780603,98.51458646950621,297.5142878743437,-0.8145616084260513,0.003192623913456142,0.1379137100183805
2026-06-10T18:26:05+03:00,10.35,286.81,71.30017538262474,11.99448,210.41875026179483,195.80259690800756,2.199986045963822,5.65704,5.19048,-0.13750987083139757,18.002333923010465,-10.124164239961647,24.803988,59.466418,11.504815369304703,99.05919582775608,309.4779460895509,-0.8907282348777231,0.0013484012843472993,0.13926211130272778
2026-06-10T18:26:06+03:00,10.31,286.81,69.30055267761819,13.19976,194.99472641687308,198.5012281230737,3.600008418365989,5.1710400000000005,5.26824,-0.19480565034447989,19.698288996597704,-7.13332454937875,24.803967,59.466398,12.358019599443626,92.34374032612232,287.33846674299537,-0.21146750100914838,0.0013625050962603384,0.14062461639898813
2026-06-10T18:26:07+03:00,10.08,286.8,65.30130726760504,13.7052,205.99551608338487,201.29726216331213,1.2999839413723246,4.93776,5.13216,0.5042028597151245,20.700965138076644,-9.247538813411486,24.804013,59.466388,12.476384058437855,86.37465001180671,292.37016609519156,0.31222484063756917,0.0015279155749585156,0.14215253197394664
2026-06-10T18:26:08+03:00,10.08,286.8,65.30130726760504,14.21064,204.99856951985726,198.90229857966528,-1.200002806121996,5.09328,5.26824,-0.9568395178684748,17.801798694714677,-6.205132921266816,24.803983,59.466368,12.938214042662231,86.25717031329361,291.25573983315087,0.33248041070773526,0.0015114404554228533,0.14366397242936949
2026-06-10T18:26:09+03:00,10.08,286.81,67.30092997261161,14.502239999999999,210.99743763487695,196.9026758746587,-2.1000049107134933,5.346,5.22936,-0.1776169164905552,16.197516868348373,-3.9190313186948313,24.803903,59.466343,13.381300496770603,88.92827277232686,299.92571040720384,0.09999200127717929,0.002868150536389774,0.14653212296575926
2026-06-10T18:26:10+03:00,10.05,286.81,67.30092997261161,14.30784,211.9943841984046,195.2983940482924,-0.9999832398418258,5.09328,5.19048,0.08594366926962349,13.99735893504601,-2.1084846860814292,24.803882,59.466322,13.206553762277615,88.14287802597549,300.1372622243801,0.1650590346939653,0.0014158221695021104,0.14794794513526138
2026-06-10T18:26:11+03:00,10.01,286.82,66.29825383113267,13.802399999999999,214.99668304489012,196.30107018977134,2.1000049107134933,5.07384,4.97664,-0.03437746770784939,18.397674801650734,-9.425155729902043,24.80386,59.4663,12.647072547144289,87.85034248276395,302.84702552765407,0.19031872331420344,0.00148324246601673,0.1494311876012781
2026-06-10T18:26:12+03:00,10.08,286.81,64.29863112612611,13.19976,203.9958933783783,201.29726216331213,3.50002728311566,5.6376,5.3654399999999995,-0.29793805346802804,22.998525896551243,-10.17573044152342,24.803886,59.466284,11.894180968670883,89.58148428761628,293.57737766599456,0.04117935420217547,0.001247118948835364,0.15067830655011347
2026-06-10T18:26:13+03:00,10.05,286.81,63.30168456259847,13.19976,206.9981922248638,204.79803429156144,1.8000042091829944,5.20992,5.57928,0.26356058576017866,25.198683829853607,-8.754795109598978,24.803812,59.466262,11.814460773892991,86.50300917868701,293.5012014035508,0.3177848916277519,0.0026182492508680364,0.1532965558009815
2026-06-10T18:26:14+03:00,9.93,286.81,64.29863112612611,13.8996,210.99743763487695,203.49742009661446,0.09998113525032865,5.1127199999999995,5.19048,-0.3609634109324186,23.898069634906637,-8.181837314468156,24.803834,59.46625,12.557864713265529,85.8203500815361,296.817787716413,0.37263533325988496,0.000985703255271326,0.15428225905625284
2026-06-10T18:26:15+03:00,9.93,286.82,65.30130726760504,13.8996,214.99668304489012,203.19948204314647,-1.2999839413723246,5.151599999999999,5.5404,0.34377467707849396,23.101658299674792,-7.2020794847944485,24.803801,59.466229,12.645075632613802,87.0249324448746,302.0216154897647,0.2673752234441533,0.0016151901532121665,0.155897449209465
2026-06-10T18:26:16+03:00,9.78,286.82,64.29863112612611,13.9968,218.99592845490324,202.7984115865549,-0.300000701530499,4.80168,5.52096,-1.008405719430249,21.49737647330849,-5.3227779167653475,24.80377,59.466213,12.675677250113894,84.25677237032433,303.2527008252276,0.48050630464086697,0.0013494746795713476,0.15724692388903636
2026-06-10T18:26:17+03:00,9.63,286.82,64.29863112612611,13.7052,220.99555115990984,202.3973411299633,-0.300000701530499,4.80168,5.38488,-0.18334649444186346,23.898069634906637,-9.826226186493619,24.80374,59.4662,12.401989502417868,84.71660778638473,305.71215894629455,0.4421481165331946,0.0012041063859113662,0.15845103027494772
2026-06-10T18:26:18+03:00,9.63,286.83,63.30168456259847,13.39416,216.9963057498967,203.89849055320607,1.8000042091829944,4.74336,5.57928,0.017188733853924696,23.399596353142822,-5.196727201836567,24.803711,59.466188,12.033821746817907,83.92022628730167,300.91653203719835,0.5023837163372351,0.0011421600090822251,0.15959319028402996
2026-06-10T18:26:19+03:00,9.63,286.83,61.302061857591895,13.19976,214.99668304489012,205.89811325821262,0.6999825383113268,5.0544,5.346,0.38961130068895977,26.499298024800574,-10.439291027283598,24.80369,59.466172,11.649327060037342,83.67185662157327,298.6685396664634,0.5571087359375821,0.0011559250302208615,0.16074911531425082
2026-06-10T18:26:20+03:00,9.78,286.83,62.299008421119524,13.296959999999999,207.99513878839142,205.39963997644884,-1.5000035076524951,5.07384,5.19048,0.011459155902616466,25.59975428644518,-10.021031836838098,24.803661,59.466148,11.824900046859412,84.62662923869091,292.62176802708234,0.4751427806262379,0.001692725641342828,0.16244184095559364
2026-06-10T18:26:21+03:00,9.78,286.82,62.299008421119524,14.40504,218.99592845490324,206.60285134622356,-2.6228288987703694,5.57928,6.0264,-0.12032113697747288,24.99814860155782,-7.007273834449968,24.803636,59.466125,12.802835633797974,84.9947514056632,303.99067986056644,0.486775436851222,0.0015792668264677059,0.16402110778206133
2026-06-10T18:26:22+03:00,9.63,286.82,63.30168456259847,13.8996,213.99973648136248,202.70100876138264,-0.3942522588295195,5.50152,5.307119999999999,-0.46982539200727513,22.29951738649164,-8.370913386861329,24.803606,59.466099,12.43992507324814,86.57368914621705,300.5734256275795,0.3287970776915731,0.0018115287002132966,0.16583263648227461
2026-06-10T18:26:23+03:00,9.78,286.82,63.30168456259847,13.8996,213.99973648136248,203.49742009661446,0.0,5.326560000000001,5.52096,-0.05156620156177409,24.001202038030186,-6.961437210839502,24.803581,59.466078,12.451606386067809,85.77002747013941,299.7697639515019,0.39288654128124656,0.0014751768900997126,0.16730781337237433
2026-06-10T18:26:24+03:00,9.63,286.82,63.30168456259847,13.9968,214.99668304489012,204.50009623809342,0.6999825383113268,5.07384,5.6181600000000005,-0.23491269600363757,24.001202038030186,-7.2020794847944485,24.803557,59.466058,12.56339715408779,84.4511016865011,299.4477847313912,0.4906161005603403,0.001407949681211053,0.16871576305358538
2026-06-10T18:26:25+03:00,9.52,286.82,63.30168456259847,13.8996,216.9963057498967,200.9993241098441,-2.199986045963822,5.20992,5.19048,-0.26356058576017866,19.801421399721253,-6.508800552686152,24.803533,59.466041,12.460752692404096,85.23515831389874,302.23146406379544,0.4327690452808113,0.0012574922753566169,0.169973255328942
2026-06-10T18:26:26+03:00,9.63,286.82,62.299008421119524,13.9968,217.99898189137562,200.9019212846719,-0.6999825383113268,5.01552,4.957199999999999,-0.20626480624709637,20.500429909780856,-8.267780983737781,24.803504,59.466023,12.481936256185234,83.13950742695317,301.13848931832877,0.5991152477932753,0.0013981651432606122,0.1713714204722026
2026-06-10T18:26:27+03:00,9.48,286.82,63.30168456259847,14.30784,214.99668304489012,199.40077186142912,-0.600001403060998,5.09328,5.6376,-0.3093972093706446,20.09935945318928,-4.9904623955894705,24.803474,59.466002,12.851942167060747,84.03704931433374,299.03373235922385,0.5291171818600063,0.0015596797244979697,0.17293110019670058
2026-06-10T18:26:28+03:00,9.48,286.83,64.29863112612611,14.59944,212.99706033988352,200.39771842495674,-0.3999818367808277,5.09328,6.10416,0.246371851906254,20.299894681485068,-6.239510388974665,24.803449,59.465982,13.213213278197442,84.62290614554504,297.61996648542856,0.47729275818468625,0.0014240855832533081,0.17435518577995388
2026-06-10T18:26:29+03:00,9.48,286.82,63.30168456259847,14.40504,215.99935918636905,200.9019212846719,0.8000209693411684,5.26824,5.5404,-0.1776169164905552,20.397297506657306,-6.079082206338034,24.803414,59.46596,12.925424207322688,84.65587743485224,300.6552366212213,0.4906699215941617,0.0017003055161740077,0.17605549129612788
2026-06-10T18:26:30+03:00,9.48,286.83,63.30168456259847,14.30784,211.9943841984046,201.40039456643566,0.5000202678106694,5.69592,5.81256,-0.07448451336700701,22.597455439959663,-6.583285066053159,24.803387,59.465937,12.803374114849317,86.72028414638955,298.7146683447941,0.3258669167812845,0.0016096818960269826,0.17766517319215486
2026-06-10T18:26:31+03:00,9.48,286.83,61.302061857591895,14.094,208.9978149298704,202.3973411299633,0.3999818367808277,5.7348,5.87088,-0.06875493541569878,22.500052614787425,-6.869763963618571,24.80336,59.465916,12.405826066683362,85.22348683753201,294.2213017674024,0.47753307597223094,0.0015076929998536356,0.1791728661920085
2026-06-10T18:26:32+03:00,9.41,286.82,57.30281644757874,14.094,219.99860459638222,199.49817468660132,-0.6999825383113268,5.5404,5.326560000000001,-0.26929016371148695,17.29759583499955,-4.778468011391066,24.803329,59.465896,12.040452130447369,80.08521841771105,300.08382301409324,0.9539640241712353,0.0015301508513081256,0.18070301704331662
2026-06-10T18:26:33+03:00,9.26,286.82,57.30281644757874,13.7052,212.99706033988352,197.20061392812673,-2.199986045963822,5.81256,5.2488,-0.10886198107485642,18.300271976478495,-6.1650258756076575,24.803301,59.465874,11.642653537155601,82.14592745462619,295.14298779450974,0.7942893705946671,0.0015747338910310953,0.18227775093434773
2026-06-10T18:26:34+03:00,9.33,286.82,62.299008421119524,14.59944,214.12005761833996,198.30069289477794,0.2000195662801704,5.03496,6.0652800000000004,1.501149423242757,18.002333923010465,-0.49847328176381617,24.803265,59.465842,13.044285140683284,82.28252167964247,296.4025792979824,0.6761371393796922,0.002215455814015538,0.18449320674836325
2026-06-10T18:26:35+03:00,9.22,286.82,61.302061857591895,13.8996,218.99592845490324,196.59900824323938,-0.300000701530499,5.46264,5.26824,1.598552248414997,15.802175989708104,3.300236899953542,24.803242,59.465837,12.252297711275485,84.3237763274088,303.31970478231204,0.5402923393091149,0.0007639683631686012,0.18525717511153186
2026-06-10T18:26:36+03:00,9.18,286.82,61.302061857591895,12.49992,211.9943841984046,198.10015766648215,-0.36251039697927184,4.996079999999999,5.20992,0.05729577951308232,18.999280486538098,-5.179538467982642,24.80322,59.465818,11.01055250830016,84.75628454214711,296.7506687405517,0.45660370332847944,0.0013250018144177673,0.18658217692594964
2026-06-10T18:26:37+03:00,9.15,286.82,65.30130726760504,11.99448,208.172755704882,199.28618030240295,-2.6000251785241626,4.97664,5.26824,1.9996227050065731,12.301403861458775,7.2020794847944485,24.803191,59.465797,10.897254401272297,89.81487386016556,297.98762956504754,0.016079797802582726,0.0015419435408149142,0.18812412046676455
2026-06-10T18:26:38+03:00,9.07,286.81,67.30092997261161,12.402719999999999,216.9963057498967,197.7506534114523,-1.4000223724021665,5.07384,4.78224,3.0997016716577535,13.401482828109954,6.399938571611295,24.803172,59.465778,11.445676735512126,91.44055171487878,308.43685746477547,-0.12755492525767773,0.001280986200702426,0.189405106667467
2026-06-10T18:26:39+03:00,9.18,286.82,70.29749924114583,13.10256,205.99551608338487,193.09823611499004,-1.4000223724021665,5.20992,5.28768,0.11459155902616464,12.501939089754565,-6.010327270922335,24.80315,59.465756,12.360917138799099,93.6762751461343,299.67179122951916,-0.33405532422570783,0.0014832473642951054,0.1908883540317621
2026-06-10T18:26:40+03:00,9.18,286.82,72.3028515241037,12.79152,207.99513878839142,193.3446079668963,-2.630105462768531,5.6181600000000005,5.443199999999999,-0.02864788975654116,7.700552766558264,-3.884653850986982,24.803126,59.465712,12.308329149360226,98.07866670683984,306.0738054952312,-0.789534634975246,0.0027444134220610404,0.19363276745382316
2026-06-10T18:26:41+03:00,9.18,286.82,73.29979808763133,12.49992,203.9958933783783,186.19982426161496,-3.50002728311566,5.57928,5.03496,-0.6990085100596044,5.001921551492087,2.8017636181897254,24.803108,59.465688,12.136495829238596,99.42416344013022,303.4200568185085,-0.9135625569821912,0.0015437629238908616,0.195176530377714
2026-06-10T18:26:42+03:00,9.03,286.83,75.2994207926379,13.5108,201.99627067337175,186.69829754337877,0.3999818367808277,5.1710400000000005,4.91832,-0.13178029288008933,7.500017538262475,-3.254400276343076,24.80309,59.465665,13.184174780958298,97.59449196274342,299.5907626361152,-0.6834103383733725,0.0014877487418573543,0.19666427911957138
2026-06-10T18:26:43+03:00,8.88,286.83,72.3028515241037,13.39416,200.9993241098441,183.99966632831257,-1.7000230739326654,4.996079999999999,5.404319999999999,-0.37242256683503505,2.8017636181897254,-0.44117750225073393,24.803073,59.465644,12.793745932906655,94.1436766100836,295.1430007199277,-0.361005615751935,0.001364850999387384,0.19802913011895876
2026-06-10T18:26:44+03:00,8.62,286.83,73.29979808763133,11.702879999999999,197.9970252633586,185.03671993749936,-2.7999874490248207,4.93776,5.346,-0.22345354010102106,-0.8021409131831525,-1.9996227050065731,24.80306,59.46562,11.319348332976027,97.99706605626388,295.9940913196225,-0.6869529830238205,0.0014962140921588986,0.19952534421111764
2026-06-10T18:26:45+03:00,8.85,286.82,76.30209693411685,11.197439999999999,191.99815714833886,178.90034195164822,-1.2999839413723246,5.65704,5.1127199999999995,-0.02864788975654116,-1.701684651538545,-4.05081161157492,24.803048,59.465592,11.286476173792101,105.4435213654521,297.441678513791,-1.506403899054701,0.0017224498675524485,0.2012477940786701
2026-06-10T18:26:46+03:00,8.88,286.83,79.29866620265106,11.197439999999999,188.4171709287712,178.00079821329285,-2.1000049107134933,5.404319999999999,5.1710400000000005,-0.07448451336700701,-2.1027551081301215,-4.457611646117805,24.803048,59.465589,11.494150938096476,106.81509042621487,295.23226135498606,-1.563382893182016,0.00018032314918145931,0.20142811722785156
2026-06-10T18:26:47+03:00,9.0,286.83,79.29866620265106,11.99448,189.9985344433323,179.8972885151759,1.4000223724021665,5.26824,5.38488,-0.17188733853924698,1.3006141949469687,-4.022163721818379,24.803041,59.465566,12.171874957700368,104.46789803793808,294.4664324812704,-1.3162040492710951,0.0013989067598314728,0.20282702398768304
2026-06-10T18:26:48+03:00,8.85,286.82,80.30134234412998,11.80008,185.99928903331917,182.40111407989755,2.1000049107134933,4.80168,5.598719999999999,-0.16615776058793874,3.002298846485514,-2.773115728433184,24.803019,59.46552,11.966927306389435,103.59919102084214,289.5984800541613,-1.1290112858787746,0.002845407325198552,0.2056724313128816
2026-06-10T18:26:49+03:00,8.58,286.81,80.30134234412998,11.197439999999999,190.9954810068599,184.20020155660836,2.000023775463165,5.07384,5.69592,-0.14896902673401402,4.400315866604722,-3.460665082590172,24.803028,59.465522,11.488429890392391,106.10798844580951,297.1034694526694,-1.4077298398065352,0.00029998421834188504,0.20597241553122347
2026-06-10T18:26:50+03:00,8.47,286.82,79.29866620265106,10.90584,187.99891173832572,186.29722708678716,0.9000021045914972,4.7628,5.28768,2.6012283898939375,7.700552766558264,5.901465289847479,24.80299,59.465474,11.060348939997914,104.33103453445682,292.32994627278254,-1.1789065856053331,0.0031097993453607924,0.20908221487658427
2026-06-10T18:26:51+03:00,8.36,286.82,78.30171963912342,11.39184,192.9951037118665,187.79837651002993,3.30000771683549,4.859999999999999,5.346,1.902219879834333,8.10162322314984,5.500394833255903,24.802974,59.465453,11.443011071280958,102.87719837413084,295.8723020859974,-1.083110190029893,0.0013535309871799657,0.21043574586376423
2026-06-10T18:26:52+03:00,8.28,286.83,73.29979808763133,11.29464,194.99472641687308,190.60014012821966,2.6000251785241626,5.346,5.754239999999999,2.200157933302361,12.198271458335228,8.19902604832208,24.802958,59.465431,11.020248927460173,100.98710675645523,295.9818331733283,-1.0188839581304572,0.0014097527269949916,0.2118454985907592
2026-06-10T18:26:53+03:00,8.43,286.83,72.3028515241037,11.60568,191.99815714833886,190.30220207475162,-1.5000035076524951,5.52096,5.151599999999999,1.501149423242757,8.600096504913656,5.597797658428142,24.802972,59.465427,11.234649695572678,100.21821366083607,292.2163708091749,-0.9794050298739423,0.0004905030015375098,0.21233600159229674
2026-06-10T18:26:54+03:00,8.43,286.83,72.3028515241037,12.30552,201.99627067337175,193.21855725196752,1.4636206876616882,5.19048,4.93776,0.08594366926962349,12.501939089754565,-6.033245582727568,24.802927,59.465385,11.812486306980892,97.04984177324147,299.0461124466132,-0.6370417083030526,0.0028743180496832808,0.21521031964198
2026-06-10T18:26:55+03:00,8.43,286.83,72.3028515241037,12.69432,199.99664796836515,193.49930657158166,2.3000244769936637,4.859999999999999,5.404319999999999,1.3980170201192088,13.401482828109954,3.9992454100131463,24.802904,59.465364,12.134947006596075,94.7321656339189,294.72881360228405,-0.40094030015976906,0.0014445218117706878,0.2166548414537507
2026-06-10T18:26:56+03:00,8.28,286.83,68.29787653613924,12.49992,206.9981922248638,191.90075432316664,0.0,5.03496,5.346,1.701684651538545,11.699798176571411,7.901087994854052,24.802882,59.465341,11.621242719204089,92.03526910514987,299.03346133001367,-0.17881497849563507,0.0015370803514520416,0.21819192180520272
2026-06-10T18:26:57+03:00,8.28,286.83,68.29787653613924,12.402719999999999,196.99434912187962,193.60243897470517,0.5000202678106694,5.07384,5.443199999999999,1.9996227050065731,13.99735893504601,8.19902604832208,24.802863,59.46532,11.533910273520876,92.42265928374965,289.4170084056293,-0.21447518783758274,0.0013892335146135127,0.21958115531981623
2026-06-10T18:26:58+03:00,8.28,286.83,68.29787653613924,12.69432,201.99627067337175,191.201745813107,-0.300000701530499,4.52952,5.26824,1.9996227050065731,11.098192491684046,7.0015442564986605,24.802843,59.465296,11.795680725163313,89.20045002989097,291.1967207032627,0.06320640142580806,0.0015665528266794052,0.22114770814649565
2026-06-10T18:26:59+03:00,8.43,286.83,68.29787653613924,12.59712,201.99627067337175,193.2013685181136,0.09998113525032865,4.80168,5.38488,1.902219879834333,13.602018056405743,6.302535746439056,24.802828,59.465275,11.70510155290273,90.70245115433197,292.6987218277037,-0.0588675324830555,0.001342809867918067,0.22249051801441372
2026-06-10T18:27:00+03:00,8.43,286.83,68.29787653613924,12.79152,198.9997014048375,191.7976219200431,-0.8000209693411684,4.52952,4.97664,2.4006931615981495,11.298727719979832,5.901465289847479,24.802813,59.465257,11.886534430704867,89.03328912525389,288.0329905300914,0.07641973858144972,0.0011749148420105782,0.2236654328564243
2026-06-10T18:27:01+03:00,8.32,286.83,69.30055267761819,12.59712,206.48253020924608,194.39885030993702,0.0,5.3654399999999995,5.598719999999999,1.1000789666511805,15.699043586584558,7.402614713090236,24.802847,59.465264,11.819243262861503,94.42930767375495,300.911837883001,-0.4143677047698552,0.0011203170079043979,0.2247857498643287
2026-06-10T18:27:02+03:00,8.43,286.83,70.29749924114583,12.79152,198.9997014048375,196.833920939243,0.16799122553235737,5.01552,5.38488,1.701684651538545,12.301403861458775,5.597797658428142,24.80277,59.46521,12.063154710521218,93.34105782292005,292.34075922775753,-0.292301586906596,0.004008075739659605,0.2287938256039883
2026-06-10T18:27:03+03:00,8.43,286.83,70.29749924114583,12.59712,208.9978149298704,193.2013685181136,1.200002806121996,5.52096,5.1710400000000005,1.598552248414997,13.802553284701533,6.497341396783535,24.802751,59.465188,11.92786577593134,96.13144684990611,305.1292617797765,-0.5896926264973712,0.0014440667201173285,0.23023789232410563
2026-06-10T18:27:04+03:00,8.43,286.84,69.30055267761819,12.49992,200.9993241098441,200.91338044057446,1.4145182046189766,5.19048,5.1127199999999995,0.09167324722093173,17.801798694714677,-6.835386495910721,24.802788,59.465197,11.71848729109407,93.77822247525624,294.77754658510037,-0.34202482011587343,0.0012527455516213404,0.23149063787572696
2026-06-10T18:27:05+03:00,8.43,286.83,70.29749924114583,12.30552,204.99856951985726,197.29801675329895,0.2000195662801704,4.91832,5.3654399999999995,0.6359831525952138,18.197139573354946,-5.867087822139631,24.802769,59.465176,11.61064316216547,93.8009856371209,298.79955515697816,-0.32604067170934087,0.0013892345471272242,0.23287987242285418
2026-06-10T18:27:06+03:00,8.28,286.83,68.29787653613924,12.59712,206.9981922248638,198.5012281230737,0.8000209693411684,5.07384,5.832,-0.5500394833255903,17.89920151988692,-5.7868737308213145,24.802748,59.465159,11.711600420569575,92.03393877288595,299.03213099774973,-0.18007805555239043,0.001206405511432143,0.23408627793428632
2026-06-10T18:27:07+03:00,8.28,286.83,67.30092997261161,12.49992,213.99973648136248,202.5348510007947,-0.33420628189980917,5.404319999999999,5.7348,0.246371851906254,17.801798694714677,-4.870141258611998,24.80272,59.465132,11.546343051597892,92.88285382806815,306.8825903094306,-0.2718052154320114,0.0018343905058427997,0.23592066844012913
2026-06-10T18:27:08+03:00,8.28,286.83,69.30055267761819,11.99448,208.9978149298704,193.60243897470517,-3.30000771683549,5.65704,5.3654399999999995,-0.40107045659157625,10.599719209920229,7.299482309966689,24.8027,59.465111,11.309378429110653,97.19979736486323,306.19761229473363,-0.7089952663868211,0.0014022643495187855,0.23732293278964792
2026-06-10T18:27:09+03:00,8.51,286.83,68.29787653613924,11.99448,206.05281186289795,191.7976219200431,-1.2999839413723246,4.74336,4.82112,0.12605071492878112,13.200947599814167,-9.047003585115698,24.802626,59.465075,11.14855377260298,91.5832445382233,297.63605640112127,-0.13105578084043784,0.003128784277755283,0.2404517170674032
2026-06-10T18:27:10+03:00,8.47,286.83,68.29787653613924,12.908159999999999,213.3179167051568,195.2983940482924,2.1000049107134933,4.859999999999999,5.346,0.011459155902616466,16.501184499767707,-2.137132575837971,24.802659,59.465077,11.993529139207006,90.41469157720246,303.73260828235925,-0.03517507722765733,0.0010149164681077488,0.24146663353551095
2026-06-10T18:27:11+03:00,8.1,286.83,69.30055267761819,12.69432,207.99513878839142,197.29801675329895,0.6999825383113268,3.81024,5.65704,1.008405719430249,17.69866629159113,-4.131025702893235,24.802583,59.465038,11.894138582350688,86.73814822066906,294.73328700906046,0.2168000125830672,0.003298786697400156,0.24476542023291112
2026-06-10T18:27:12+03:00,7.91,286.83,69.30055267761819,11.702879999999999,212.99706033988352,195.2983940482924,-1.5000035076524951,3.7908,5.13216,0.14896902673401402,13.899956109873772,-5.225375091593108,24.802559,59.46502,10.952888220680041,88.19094805527915,301.1880083951627,0.11967050274186194,0.0013068175375926525,0.24607223777050377
2026-06-10T18:27:13+03:00,7.83,286.83,66.29825383113267,11.60568,220.99555115990984,201.84157206868642,2.942596644232882,4.84056,5.3654399999999995,-0.6474423084978302,17.200193009827313,-7.94119504051321,24.802593,59.465029,10.628191629768585,90.94538928819311,311.94094044810294,-0.07986637000070552,0.0011707857433235402,0.24724302351382732
2026-06-10T18:27:14+03:00,7.83,286.84,66.29825383113267,11.60568,215.99935918636905,200.16280572895312,-2.3000244769936637,4.43232,5.26824,-0.20053522829578813,11.098192491684046,8.19902604832208,24.802569,59.465012,10.629296317930457,88.74458536536072,304.7439445517298,0.09710931955804135,0.0012575052814413625,0.24850052879526868
2026-06-10T18:27:15+03:00,8.1,286.84,71.30017538262474,11.10024,213.99973648136248,194.3014474847648,-0.09998113525032865,4.41288,4.35456,0.4640958140559668,16.701719728063498,-8.743335953696363,24.802548,59.464993,10.548899998051152,94.64370562545915,308.6434421068216,-0.35726345908464974,0.0013097899748738932,0.24981031877014256
2026-06-10T18:27:16+03:00,7.98,286.84,72.3028515241037,11.508479999999999,201.99627067337175,200.30031559978448,3.8000279846461584,5.20992,5.1127199999999995,0.3781521447863433,21.89844692990006,-5.626445548184684,24.80253,59.464972,11.096642609413378,98.87251809429037,300.8687887676621,-0.8035597939290272,0.0013767607710747473,0.25118707954121733
2026-06-10T18:27:17+03:00,7.42,286.84,70.29749924114583,12.49992,207.99513878839142,195.99740255835198,-2.000023775463165,4.704479999999999,5.26824,0.040107045659157625,13.097815196690618,-1.5641747807071475,24.80251,59.464951,11.778332031825657,92.38576981736092,300.3809086057523,-0.19583577298827726,0.001402265608937998,0.25258934515015535
2026-06-10T18:27:18+03:00,7.38,286.83,61.302061857591895,11.99448,210.99743763487695,196.59900824323938,0.2000195662801704,4.723920000000001,4.996079999999999,0.395340878640268,18.397674801650734,-6.611932955809701,24.802489,59.464931,10.571976879117562,84.37773606328507,295.37517369816203,0.46280063243102965,0.001362518198441616,0.253951863348597
2026-06-10T18:27:19+03:00,7.38,286.84,64.29863112612611,11.10024,207.99513878839142,200.19718319666094,4.099971390397145,5.13216,5.346,0.5328507494716656,21.30257082296401,-5.620715970233376,24.802464,59.464909,10.007116462803202,91.82216874126901,299.8173075296604,-0.16318977201110643,0.0015269392516016657,0.2554788026001987
2026-06-10T18:27:20+03:00,7.53,286.84,65.30130726760504,11.197439999999999,211.9943841984046,203.69795532491028,0.7512622609755354,4.78224,4.84056,0.8938141604040842,24.499675319793997,-7.110406237573517,24.802442,59.464889,10.173598343336385,90.5825117136289,302.5768959120335,-0.04861898819628726,0.001377156190732139,0.2568559587909308
2026-06-10T18:27:21+03:00,7.68,286.85,63.30168456259847,10.4976,207.99513878839142,210.09216431857027,-0.29421382779967775,5.0544,5.13216,0.2864788975654116,26.201359971332543,-7.053110458060434,24.802422,59.464871,9.38447955722221,92.06348087937582,300.05861966776723,-0.18199251962208074,0.0012424318651488683,0.2580983906560797
2026-06-10T18:27:22+03:00,7.57,286.85,63.30168456259847,10.808639999999999,209.99476149339802,208.05243456790453,-3.945444673050362,5.2488,5.19048,0.3609634109324186,22.001579333023614,-1.747521275149011,24.802396,59.46485,9.664248517005303,92.3279643653028,302.32272585870084,-0.21320344678575087,0.0014912251773974209,0.2595896158334771
2026-06-10T18:27:23+03:00,7.35,286.85,64.29863112612611,11.39184,217.99898189137562,204.2021581846254,-4.750679558327221,5.0544,5.326560000000001,0.5042028597151245,18.099736748182707,-2.3777748497929165,24.802367,59.464832,10.265440017656175,90.63618302420564,308.63516491558124,-0.05612031868653907,0.0013981849112880283,0.26098780074476513
2026-06-10T18:27:24+03:00,7.23,286.84,65.30130726760504,11.99448,220.99555115990984,198.7189520852234,-5.376406766389593,5.03496,4.84056,0.14896902673401402,8.800631733209444,-0.8193296470370772,24.802334,59.464813,10.89722202477944,90.12151057570402,311.11706173561385,-0.01067793186231064,0.0015231183099541053,0.26251091905471924
2026-06-10T18:27:25+03:00,7.35,286.85,65.30130726760504,11.80008,223.99785000639537,198.24912669321614,3.6551842540370867,4.74336,5.0544,0.6016056848873644,12.301403861458775,-7.339589355625845,24.802308,59.464799,10.722217023052929,88.99929554614009,312.99714555253547,0.08284135750724451,0.0011569722802355303,0.2636678913349548
2026-06-10T18:27:26+03:00,7.38,286.86,65.30130726760504,11.60568,214.99668304489012,202.67236087162613,5.7267704581120915,3.9851999999999994,4.91832,0.26929016371148695,19.297218540006124,-7.528665428019017,24.802288,59.464783,10.579321410935835,85.31447003739959,300.3111530822897,0.3255382570849283,0.0011392801016382507,0.26480717143659305
2026-06-10T18:27:27+03:00,7.38,286.85,64.29863112612611,12.20832,216.9963057498967,210.08643474061896,8.182983230058417,4.02408,5.01552,0.1776169164905552,28.997394011570965,-8.966789493797384,24.802214,59.464728,11.073627221117018,83.41218516898101,300.4084909188777,0.46166614333188555,0.0040045177132976,0.2688116891498906
2026-06-10T18:27:28+03:00,7.27,286.85,63.30168456259847,12.20832,212.99706033988352,221.56850895504067,13.355359725601923,4.35456,4.84056,0.12605071492878112,41.49933310132553,-10.98360093265788,24.802242,59.464747,10.965162726119393,84.08207327117506,297.0791336110586,0.4489714865365461,0.0014266902809755904,0.2702383794308662
2026-06-10T18:27:29+03:00,7.27,286.86,61.302061857591895,12.59712,214.99668304489012,235.47419464286574,13.734944264876095,4.45176,4.548959999999999,-0.418259190445501,54.7002807011397,-12.38161795277709,24.802142,59.464703,11.164582026019438,81.77468137064376,296.77136441553387,0.6368968111811217,0.004039908644600769,0.27427828807546695
2026-06-10T18:27:30+03:00,7.53,286.86,50.30127219108009,12.49992,218.99592845490324,241.70224587593776,13.00001130106179,4.374,3.6935999999999996,2.6986312150661775,67.50015784436228,16.002711218003892,24.802107,59.464697,10.272922189082381,69.42447969226768,288.4204081471709,1.5372059245724705,0.0011280641582228016,0.27540635223368976
2026-06-10T18:27:31+03:00,7.46,286.87,44.30240407606037,13.19976,225.9974727114019,259.7676051564126,8.138006043140647,4.14072,3.57696,0.9797578296737078,78.19727987945475,-10.903386841339566,24.802067,59.464697,10.637099943437114,60.078862216506806,286.0763349279087,2.065422293960884,0.0012215550853996117,0.2766279073190894
2026-06-10T18:27:32+03:00,7.31,286.86,41.30010522957485,14.40504,257.9971655694584,269.96052433179,10.300004987287297,4.0629599999999995,3.92688,0.6990085100596044,85.80042982084078,6.600473799907084,24.80203,59.464702,11.66509061837833,54.590086701262564,312.58725227072097,2.3541692088739747,0.0011692237428156825,0.27779713106190507
2026-06-10T18:27:33+03:00,7.38,286.86,36.29818367808277,14.30784,268.99795523597015,270.60223706233654,11.400026658158962,4.393439999999999,4.101839999999999,0.0,94.40052632575443,3.5981749534215695,24.802096,59.464698,11.076638091015852,49.87837667952246,318.87633191549264,2.83118661624994,0.002029855201935719,0.2798269862638408
2026-06-10T18:27:34+03:00,7.5,286.87,28.299692858056478,14.59944,271.99452450450445,282.5999732923759,11.299988227129122,3.6741599999999996,2.97432,2.899166443361966,107.69887675074084,5.202456779787875,24.801978,59.46472,11.497131039262005,37.013774622270745,309.0082991267752,2.9337829691453345,0.0038385538224129235,0.2836655400862537
2026-06-10T18:27:35+03:00,7.53,286.87,14.302333923010465,14.696639999999999,274.9968233509899,294.0992362406516,12.70001059953129,3.92688,2.97432,0.6990085100596044,118.69966641725263,7.500017538262475,24.802031,59.4647,10.934588080142824,19.392170171761194,294.3889935227511,3.704100405021401,0.0020161624606689662,0.2856817025469227
2026-06-10T18:27:36+03:00,7.5,286.87,4.298490820026292,14.40504,276.9964460559965,306.8017105587019,12.899972870031945,4.393439999999999,2.83824,0.49847328176381617,131.29900833217945,3.798710181717358,24.801949,59.464745,10.029365750385518,6.180049730924424,283.1764957869209,4.367907562331452,0.0036860746445262576,0.28936777719144896
2026-06-10T18:27:37+03:00,7.5,286.88,-2.6973238585210595,13.9968,281.99836760748855,319.49845529880093,14.299995242434113,3.51864,2.60496,0.49847328176381617,145.69743772381705,1.0026761414789407,24.801945,59.464759,10.483366206670887,3.6023576655940985,278.3960099418945,3.5116876733915254,0.000850327986305246,0.2902181051777542
2026-06-10T18:27:38+03:00,7.68,286.89,-11.697631383333597,13.296959999999999,279.998744902482,332.0003943885555,13.00001130106179,3.1687199999999995,3.09096,-0.29793805346802804,155.50074559850543,1.3980170201192088,24.80193,59.46471,10.214274598489348,15.303748028790523,264.6949968736915,3.0563576800201457,0.0029806883139513983,0.2931987934917056
2026-06-10T18:27:40+03:00,7.76,286.89,-38.701132267849296,12.49992,333.9942875156107,2.4006931615981495,11.500007793409292,3.4992,2.7799199999999997,0.8250592249883855,-173.60048234668815,-0.4239887683968092,24.801895,59.464734,10.011087176526225,51.32489656451369,282.66939095109706,2.1866622544777456,0.003519911145897325,0.2967187046376029
2026-06-10T18:27:41+03:00,7.53,286.88,-55.70079004938082,12.402719999999999,343.998130618595,13.200947599814167,7.200016836731978,2.97432,2.8188,0.7276563998161455,-163.20129836506368,4.63522856260836,24.801891,59.464748,11.004468032553874,68.6026863930865,275.39544422550847,1.0851304754509459,0.0008503279920027783,0.2975690326296057
2026-06-10T18:27:43+03:00,7.61,286.89,-74.70007053591893,11.29464,28.997394011570965,22.29951738649164,1.1000216708716675,3.96576,3.09096,0.040107045659157625,-156.4002893368608,5.7639554190160815,24.80201,59.464828,10.938808759944392,95.16849562117984,293.82889839039115,-0.3572553879567014,0.0008406494494239999,0.29840968207902974
2026-06-10T18:27:44+03:00,7.68,286.9,-77.70236938240443,11.702879999999999,43.99742908809592,24.20173726632597,-0.600001403060998,3.36312,2.99376,0.49847328176381617,-155.79868365197345,6.016056848873643,24.802027,59.464841,11.467439826543018,94.35366308085273,309.6437660072432,-0.2553033677940886,0.0009381430106916561,0.2993478250897214
2026-06-10T18:27:45+03:00,7.68,286.89,-80.69893865093864,11.89728,39.998183678082775,23.101658299674792,2.6000251785241626,3.3047999999999997,3.18816,0.2119943841984046,-157.39723590038847,3.0424058921446715,24.802046,59.464856,11.821912557959557,96.71300682116092,303.28517685692185,-0.3863185472257619,0.0010721869445197956,0.3004200120342412
2026-06-10T18:27:46+03:00,7.68,286.9,-79.701992087411,11.702879999999999,27.99471787009202,27.19830653486018,1.899985344433323,3.7908,3.38256,0.3323155211758775,-150.49882404701333,7.883899261000128,24.802073,59.464868,11.638990314623532,98.3922398761516,289.6024779939404,-0.5532636225892844,0.0010955083531830453,0.30151552038742424
