time,dpt,mtw,awa,aws,cog,hdg,rot,sog,stw,pitch,yaw,roll,lng,lat,tws,twa,twd,vmg,dist,cum_dist
2025-08-27T18:27:16+03:00,,286.65,-91.99897372746359,19.10952,14.994305498573642,21.199438419840458,0.600001403060998,8.22312,7.4844,0.6990085100596044,-161.7001489418209,14.197894163341799,24.82066,59.477398,21.065517711203107,114.96104662416526,260.0332588744084,-3.4701730655130856,0.004144003732685933,0.004144003732685933
2025-08-27T18:27:18+03:00,,286.65,-89.99935102245702,18.40968,18.43778184730989,27.19830653486018,-0.6999825383113268,7.1150400000000005,7.52328,0.0,-152.80211438343926,17.69866629159113,24.820709,59.477461,19.736695382199414,111.13013652647707,267.3076453208328,-2.5648828020177183,0.0040715218433155795,0.008215525576001512
2025-08-27T18:27:20+03:00,,286.65,-91.00202716393596,20.10096,15.996981640052585,24.20173726632597,1.200002806121996,6.8623199999999995,7.542719999999999,-1.3006141949469687,-155.7012808268012,13.602018056405743,24.820837,59.47748,21.353325985399096,109.74485519976174,266.25212644029085,-2.318312696748487,0.004070972532630145,0.012286498108631656
2025-08-27T18:27:24+03:00,,286.65,-97.99784184248331,18.895680000000002,20.99890319154467,32.60129854294384,5.499993762799311,7.62048,7.387199999999999,-0.40107045659157625,-144.09888547540206,10.3017811564522,24.82085,59.477655,21.335133493059583,118.71198133803873,262.28692185350593,-3.66093125185951,0.003899496065837733,0.01618599417446939
2025-08-27T18:27:26+03:00,,286.65,-102.00281683044777,19.303919999999998,28.997394011570965,30.802211066233056,2.1000049107134933,7.32888,7.32888,-0.6016056848873644,-149.79981553695373,8.30215845144563,24.820964,59.477679,22.02717621376097,120.99540123356984,268.0019927780011,-3.774148012131609,0.003767242938620088,0.019953237113089477
2025-08-27T18:27:30+03:00,,286.65,-104.99938609898197,17.2044,33.04820562314588,42.10093878621289,-0.9999832398418258,7.36776,7.36776,-2.6986312150661775,-139.2000963270335,5.397262430132355,24.82111,59.477787,20.39331643416633,125.42393798973526,267.6242676334106,-4.270513425413804,0.00346029007191615,0.02341352718500563
2025-08-27T18:27:32+03:00,,286.65,-110.00130765047405,15.804720000000001,42.99475294661698,37.798025744780404,1.8000042091829944,7.60104,7.40664,-0.09740282517223994,-139.69856960879733,14.10049133816956,24.8212,59.477838,19.741972423676202,131.21189056565967,271.78286238095734,-5.007911715631181,0.004116507592284118,0.02753003477728975
2025-08-27T18:27:36+03:00,,286.65,-106.00206224046092,15.29928,35.99893826806962,36.4000087246612,-0.600001403060998,7.44552,7.17336,-0.8995437383553924,-142.00185994522323,13.097815196690618,24.821364,59.477943,18.769867475435554,128.41652047742025,267.5824177906494,-4.626450475068775,0.0031533156521338537,0.030683350429423602
2025-08-27T18:27:38+03:00,,286.65,-102.00281683044777,16.50456,29.994340575098594,35.00199170454199,-1.4000223724021665,7.2122399999999995,7.056719999999999,-0.8021409131831525,-146.79751669046823,13.097815196690618,24.821431,59.477995,19.337161838005365,123.39925288794339,266.5950876871552,-3.9701206997047316,0.003735323316987023,0.034418673746410625
2025-08-27T18:27:42+03:00,,286.65,-99.00051798396224,17.107200000000002,26.997771306564392,37.998560973076195,-2.499986747494321,7.056719999999999,6.9984,-2.200157933302361,-142.70086845528286,12.198271458335228,24.821556,59.478122,19.499371977222843,119.94349861767586,267.05427268888855,-3.5223317188102463,0.0039911105001797405,0.03840978424659036
2025-08-27T18:27:44+03:00,,286.65,-97.99784184248331,17.3016,27.99471787009202,30.60167583793727,2.400005612243992,7.251119999999999,7.01784,-0.8995437383553924,-148.2012632885387,13.498885653282196,24.821608,59.478184,19.66811987975362,119.41082797095768,268.5838898991343,-3.560795824794264,0.004050671162938315,0.042460455409528676
2025-08-27T18:27:48+03:00,,286.65,-104.99938609898197,17.2044,27.99471787009202,30.298008206517935,3.399988852085818,6.804,7.03728,0.49847328176381617,-146.99805191876402,13.99735893504601,24.821725,59.478306,20.071806937345276,124.11244780991035,263.88227006018167,-3.815811671769743,0.0034698635594612483,0.04593031896898993
2025-08-27T18:27:50+03:00,,286.65,-102.9997633939754,17.107200000000002,30.99701671657754,34.60092124795042,-0.8000209693411684,6.82344,7.01784,-1.501149423242757,-147.1985871470598,13.802553284701533,24.82179,59.478363,19.79221407004823,122.62813732670548,268.36887938987206,-3.67909266928872,0.003959240700523929,0.049889559669513854
2025-08-27T18:27:52+03:00,,286.65,-106.99900880398854,16.31016,30.99701671657754,37.20214963784435,0.09998113525032865,6.9984,6.97896,-0.8995437383553924,-140.09964006538888,15.601640761412316,24.821861,59.478417,19.538185569898385,127.03079816992822,263.9662185466493,-4.214745993402958,0.0039029308966418625,0.05379249056615572
2025-08-27T18:27:54+03:00,,286.65,-99.99746454748988,16.19352,26.997771306564392,35.299929758010016,-1.4000223724021665,6.97896,6.8623199999999995,-1.902219879834333,-145.30209684517678,13.298350424986406,24.821921,59.478474,18.712975386612058,121.54571277426581,265.45205853229857,-3.651242992841053,0.0038849898108921175,0.057677480377047834
2025-08-27T18:27:56+03:00,,286.65,-95.00127257394911,15.10488,28.997394011570965,32.69870136811608,-0.9999832398418258,8.02872,6.88176,-0.8021409131831525,-147.80019283194716,12.79987714322259,24.821985,59.47853,17.713338540325136,121.84333982540667,267.1540541861643,-4.235940811680927,0.003891924438833257,0.06156940481588109
2025-08-27T18:27:58+03:00,,286.65,-93.99859643247017,17.496,18.999280486538098,26.997771306564392,-0.5000202678106694,7.387199999999999,6.92064,-1.0026761414789407,-153.99959617526267,13.699420881577984,24.822035,59.478591,19.460369378579447,116.25042816406066,262.74885232247743,-3.267324522902644,0.0039715721972815215,0.06554097701316261
2025-08-27T18:28:00+03:00,,286.65,-93.99859643247017,17.5932,21.995849755072307,30.097472978222147,0.5000202678106694,7.795439999999999,7.17336,-0.20053522829578813,-148.2012632885387,19.19981571483389,24.822091,59.478654,19.733641663474454,117.20666936780349,264.78918038726886,-3.5640865040226006,0.004154761749758021,0.06969573876292064
2025-08-27T18:28:02+03:00,,286.65,-93.99859643247017,18.29304,23.995472460078876,32.60129854294384,0.600001403060998,7.3094399999999995,7.2122399999999995,-1.0026761414789407,-146.99805191876402,19.19981571483389,24.822153,59.478715,20.16708280135881,115.19473987802519,268.8007325820537,-3.1116009842634758,0.004126230310796674,0.07382196907371731
2025-08-27T18:28:06+03:00,,286.65,-95.99821913747672,19.20672,17.171545120070775,27.100903709687937,-0.600001403060998,7.8732,7.07616,-0.40107045659157625,-156.29715693373726,18.999280486538098,24.822237,59.478845,21.50556359680072,117.35019497214402,259.82135014792675,-3.6171674831341063,0.0039925056399482605,0.07781447471366557
2025-08-27T18:28:08+03:00,,286.65,-89.99935102245702,17.90424,11.997736230039438,30.097472978222147,-0.8000209693411684,7.2122399999999995,7.3094399999999995,-0.09740282517223994,-150.99729732877717,24.402272494621762,24.822273,59.47891,19.30220947312748,111.94015234096146,260.057583889078,-2.694766278682307,0.0040586114067036475,0.08187308612036921
2025-08-27T18:28:10+03:00,,286.65,-93.00164986894255,19.20672,8.995437383553925,25.697157111617422,6.09999516586031,8.10648,7.42608,1.1000789666511805,-155.90181605509702,16.99965778153153,24.822295,59.478976,21.234862055198963,115.41151807169096,253.58391931186296,-3.478626113776854,0.004023551307166416,0.08589663742753563
2025-08-27T18:28:22+03:00,,286.65,-99.99746454748988,17.107200000000002,11.997736230039438,24.098604863202425,-0.300000701530499,7.387199999999999,7.3094399999999995,-0.8995437383553924,-157.9988415852758,14.702097023056925,24.822621,59.479377,19.776383325751457,121.58143775478973,250.4162984752497,-3.868750087580681,0.003867436835433427,0.08976407426296906
2025-08-27T18:28:26+03:00,,286.65,-89.00240445892939,16.09632,6.995814678547352,17.29759583499955,3.6999895536163168,7.63992,7.6593599999999995,1.501149423242757,-160.19899951857818,16.100114043176134,24.822613,59.479547,17.69683049918616,114.5744545926581,252.42136008588926,-3.1772545311460423,0.003810824459736668,0.09357489872270573
2025-08-27T18:28:28+03:00,,286.65,-86.00010561244387,17.70984,14.71928575691085,12.599341914926804,0.9000021045914972,8.57304,7.795439999999999,3.0997016716577535,-172.09933292344536,13.200947599814167,24.822732,59.479576,19.129928135992014,112.55509019243539,262.16419556447545,-3.2883744154665298,0.004029111516421742,0.09760401023912747
2025-08-27T18:28:32+03:00,,286.65,-76.001992087411,17.90424,7.9984908200262925,15.699043586584558,-3.2000265815851607,7.7176800000000005,7.56216,-1.1974817918234204,-164.59931538518288,19.89882422489349,24.822772,59.479705,17.699620679311728,101.03169100462242,266.9667998154039,-1.476792857414846,0.0038780708917852324,0.1014820811309127
2025-08-27T18:28:36+03:00,,286.65,-74.00236938240442,20.19816,0.0,8.800631733209444,-2.9000258800546614,6.9984,7.32888,-3.002298846485514,-174.70056131333934,14.799499848229162,24.822762,59.479837,19.468671755636425,94.21766155582105,265.78233844417895,-0.5147016538843558,0.003305976153248547,0.10478805728416124
2025-08-27T18:28:40+03:00,,286.65,-74.00236938240442,18.60408,347.40149992167204,9.001166961505232,-0.2000195662801704,6.82344,6.9984,-0.8995437383553924,-172.99887666180075,21.801044104727822,24.822628,59.480003,17.96386091020976,95.41810602162363,251.9833939000484,-0.6442891008860502,0.0036354127377833324,0.10842347002194458
2025-08-27T18:28:42+03:00,,286.65,-76.99893865093864,18.09864,349.9969987336147,7.9984908200262925,6.199976301110638,7.348319999999999,7.15392,0.09740282517223994,-172.59780620520917,19.600886171425465,24.822696,59.480017,17.93653326482428,100.52602894418419,249.4709697894305,-1.3424071926816614,0.002239794048118844,0.11066326407006342
2025-08-27T18:28:46+03:00,,286.65,-78.00161479241758,18.00144,1.6214705602202295,17.102790184655074,0.3999818367808277,7.4844,7.44552,-0.8995437383553924,-161.9006841701167,19.801421399721253,24.82267,59.480147,18.001434357987506,101.99830071146668,259.62316984875355,-1.55587713504835,0.002019332986731743,0.11268259705679516
2025-08-27T18:28:50+03:00,,286.65,-87.00278175392282,18.29304,22.098982158195852,14.799499848229162,2.400005612243992,8.00928,7.36776,0.0,-165.80252675495763,10.599719209920229,24.822662,59.480343,19.58219029945305,111.11021546373092,270.9887666944649,-2.8846474493700702,0.0040457170960679105,0.11672831415286307
2025-08-27T18:28:52+03:00,,286.65,-91.99897372746359,15.396479999999999,13.607747634357052,25.59975428644518,-2.3000244769936637,7.36776,7.44552,-1.902219879834333,-153.70165812179465,14.902632251352712,24.822716,59.48037,17.298822234377695,117.19090657396822,256.41684106038883,-3.3667477515410877,0.0023131883803144495,0.11904150253317752
2025-08-27T18:28:58+03:00,,286.65,-91.99897372746359,18.895680000000002,13.498885653282196,26.699833253096365,-1.2999839413723246,7.42608,7.56216,0.29793805346802804,-155.7012808268012,16.59858732493995,24.82278,59.480613,20.54221545654761,113.1780069680941,260.3208786851881,-2.9228239189008325,0.004130018003532612,0.12317152053671014
2025-08-27T18:29:02+03:00,,286.65,-84.99742947096492,17.90424,12.341510907117932,24.99814860155782,1.4000223724021665,7.503839999999999,7.62048,-0.20053522829578813,-154.6986046853223,13.00041237151838,24.822837,59.480747,18.799962000381512,108.42695782336821,263.91455308374975,-2.3719296874637044,0.004077912916561254,0.1272494334532714
2025-08-27T18:29:04+03:00,,286.65,-89.00240445892939,18.40968,12.249837659896999,22.500052614787425,-1.899985344433323,7.1150400000000005,7.52328,-0.40107045659157625,-155.59814842367769,13.899956109873772,24.82287,59.480809,19.620883666488208,110.26057275764563,261.98926490225136,-2.463868447428821,0.0038604134702138787,0.13110984692348526
2025-08-27T18:29:06+03:00,,286.65,-91.00202716393596,17.70984,4.996191973540778,18.397674801650734,0.2000195662801704,6.53184,7.251119999999999,-1.701684651538545,-160.69747280034198,15.601640761412316,24.822886,59.480872,18.982867651886757,111.12515272677574,253.87103924676504,-2.354116535184434,0.0038181504249120164,0.13492799734839728
2025-08-27T18:29:08+03:00,,286.65,-84.0004829074373,16.69896,355.06767522052246,22.901123071379004,-6.09999516586031,7.29,7.17336,-3.3976397251257815,-157.59777112868423,15.097437901697193,24.822969,59.480898,17.508619976207193,108.46224151472967,246.6054337057928,-2.3085945237116765,0.002976748575552398,0.13790474592394966
2025-08-27T18:29:10+03:00,,286.65,-76.001992087411,16.09632,6.995814678547352,16.501184499767707,-4.999973494988642,8.14536,7.17336,-1.3006141949469687,-161.9006841701167,21.30257082296401,24.822991,59.480964,16.186733410294632,105.22884869334688,261.7669659852005,-2.139582728875243,0.004023544710125729,0.1419282906340754
2025-08-27T18:29:16+03:00,,286.65,-72.9996932409255,19.69272,350.99967487509366,9.001166961505232,-2.7999874490248207,6.74568,7.42608,-0.6990085100596044,-174.00155280327974,13.99735893504601,24.822879,59.481212,18.858109247800407,93.00312724046051,257.99654763463315,-0.3534092917488507,0.0038528231539188508,0.14578111378799424
2025-08-27T18:29:18+03:00,,286.65,-65.99814898442683,18.895680000000002,342.17039525212766,6.399938571611295,-1.899985344433323,7.73712,7.32888,-1.501149423242757,-172.29986815174118,21.10203559466822,24.822859,59.481275,17.261889662070427,90.16926942618703,252.00112582594062,-0.022857808529147632,0.0038356789766418164,0.14961679276463605
2025-08-27T18:29:20+03:00,,286.65,-63.001579715892625,19.10952,346.9946998871292,2.4006931615981495,-0.9999832398418258,7.75656,7.44552,-0.8021409131831525,-177.80026298499706,22.797990668255455,24.822825,59.48134,17.05170252298829,86.91219736967483,260.0825025174544,0.4178167149322762,0.004042488577610793,0.15365928134224685
2025-08-27T18:29:22+03:00,,286.65,-65.0012024208992,19.20672,340.99583177210945,6.600473799907084,-1.200002806121996,8.04816,7.5816,0.6016056848873644,-174.00155280327974,20.20249185631283,24.822794,59.481406,17.407505355996214,89.77425491291491,251.22157685919456,0.031709628438600285,0.0040783970481535654,0.15773767839040043
2025-08-27T18:29:23+03:00,,286.65,-59.999280869407116,18.40968,336.99658636209637,1.7990874767107847,-2.7000063137744914,7.6788,7.4844,0.20053522829578813,177.1986573001097,17.29759583499955,24.822739,59.481467,16.016022078163964,84.53172504280556,252.4648613192908,0.7317480251891475,0.004032633280260619,0.16177031167066105
2025-08-27T18:29:25+03:00,,286.65,-54.99735931791503,18.00144,324.9988501320569,354.5004470033429,1.5000035076524951,8.59248,7.348319999999999,2.200157933302361,170.9992539567942,10.599719209920229,24.822783,59.4815,14.846975974714754,83.29536139271748,241.70348873933938,1.003181859395956,0.0023954652769068788,0.16416577694756793
2025-08-27T18:29:27+03:00,,286.65,-54.99735931791503,20.898,331.99466481060426,349.8021930832702,-2.7999874490248207,7.9120800000000004,7.270560000000001,1.3006141949469687,165.89992958012988,8.30215845144563,24.822731,59.481558,17.596506676457054,76.60885054809377,255.3858142625105,1.8324190148855914,0.0038305643424392513,0.16799634129000718
2025-08-27T18:29:31+03:00,,286.65,-48.99849120289531,20.003759999999996,318.9999820170371,339.50041192681795,-0.9999832398418258,7.46496,7.056719999999999,0.8995437383553924,157.39723590038847,11.997736230039438,24.822631,59.481658,16.122502947418322,69.45118038780492,249.54880162923217,2.6202409552053014,0.002174282145767393,0.17017062343577458
2025-08-27T18:29:33+03:00,,286.65,-48.00154463936767,18.895680000000002,320.9996047220437,343.09858688023957,0.2000195662801704,6.006959999999999,6.78456,3.002298846485514,165.0003858417745,14.301026566465348,24.822586,59.481697,15.53173220931851,64.70517637336654,256.2944283486772,2.566630937371678,0.0027169729955194557,0.17288759643129403
2025-08-27T18:29:37+03:00,,286.65,-48.99849120289531,18.40968,332.9973409520831,332.60200007344287,-1.200002806121996,6.18192,6.318,-2.1027551081301215,153.10005243690728,10.800254438216017,24.822493,59.481781,15.093027776112102,67.00426052761945,265.99308042446364,2.4150454251760345,0.0023989913137433677,0.17528658774503741
2025-08-27T18:29:39+03:00,,286.65,-42.999623087875584,17.496,335.9996397985687,335.002693235041,-1.1000216708716675,5.09328,6.201359999999999,-1.1974817918234204,155.59814842367769,14.301026566465348,24.822449,59.48183,14.202320096966364,57.15655699582956,278.8430828027391,2.7623169372750955,0.0032370346920644164,0.17852362243710182
2025-08-27T18:29:41+03:00,,286.65,-44.999245792882164,17.496,325.9957966955845,340.801026121765,-2.3000244769936637,6.37632,6.18192,-1.7990874767107847,160.39953474687397,10.89765726338826,24.822398,59.481876,13.747566948258463,64.14437049399261,261.8514262015919,2.7807452238098413,0.003173053117814742,0.18169667555491656
2025-08-27T18:29:43+03:00,,286.65,-44.999245792882164,18.29304,322.9992274270503,336.8991835369241,-2.400005612243992,6.84288,6.14304,-1.598552248414997,156.10235128339278,8.600096504913656,24.822346,59.481923,14.297932301427183,64.77936273794874,258.21986468910154,2.9157865589656797,0.0032404050682778495,0.18493708062319442
2025-08-27T18:29:46+03:00,,286.65,-46.0019219343611,20.29536,319.99692858056477,327.3021404684828,-1.5000035076524951,6.72624,6.201359999999999,-2.1027551081301215,144.79789398546166,3.2028340747813018,24.822278,59.481966,16.355209270444,63.210143383215154,256.7867851973496,3.031647625909299,0.0033148709882294554,0.18825195161142388
2025-08-27T18:29:48+03:00,,286.65,-44.999245792882164,19.49832,321.9965512855714,324.09930639370145,0.6999825383113268,5.1127199999999995,6.1236,0.0,142.70086845528286,7.597420363434716,24.822212,59.482008,16.289271307262393,57.82207142316828,264.17447986240313,2.7227804003378084,0.0032297943977116143,0.1914817460091355
2025-08-27T18:29:50+03:00,,286.65,-48.99849120289531,19.10952,324.9988501320569,330.9003154219043,1.200002806121996,5.09328,5.832,-1.902219879834333,150.0003507652495,7.597420363434716,24.822161,59.482048,16.22968755290959,62.69867326914097,262.3001768629159,2.3361354049399794,0.0028642564804087357,0.19434600248954423
2025-08-27T18:29:52+03:00,,286.65,-50.99811390790188,19.20672,329.10122794519356,337.50078922181143,2.3000244769936637,6.045839999999999,5.773680000000001,0.29793805346802804,158.3999120418674,18.197139573354946,24.822123,59.482093,16.102484715725897,67.9626358893624,261.13859205583117,2.2684666100402073,0.002943046364610138,0.19728904885415435
2025-08-27T18:29:54+03:00,,286.65,-52.00079004938082,18.99288,343.2475559069736,349.2979902235551,0.300000701530499,6.10416,5.7348,-1.598552248414997,171.80139486997734,23.800666809734395,24.822088,59.482138,15.976189815901593,69.52358910195272,273.7239668050209,2.1353677297690457,0.0029081754367085975,0.20019722429086295
2025-08-27T18:29:56+03:00,,286.65,-56.00003545939396,20.10096,340.99583177210945,357.80068390329643,2.000023775463165,8.02872,5.87088,-0.6016056848873644,177.7028601598248,21.89844692990006,24.822055,59.482195,16.971105820188466,79.0916621374171,261.9041696346924,1.5193416348220163,0.003571135796861972,0.20376836008772492
2025-08-27T18:29:58+03:00,,286.65,-57.00271160087291,20.003759999999996,335.71889047895456,2.6012283898939375,1.8000042091829944,7.1150400000000005,6.14304,-2.498095986770389,-173.10200906492432,22.998525896551243,24.822006,59.482254,17.197419139780095,77.30612258685211,258.41276789210247,1.5634728219868432,0.0038488363688796126,0.20761719645660454
2025-08-27T18:30:00+03:00,,286.65,-54.00041275438739,20.10096,338.9962090671029,1.0026761414789407,-2.1000049107134933,7.44552,6.39576,-0.49847328176381617,178.29873626676087,24.001202038030186,24.821956,59.482312,16.838876311267278,74.96058245360594,264.03562661349696,1.931989647714949,0.0038056607254679615,0.2114228571820725
2025-08-27T18:30:04+03:00,,286.65,-52.997736612908454,23.69736,328.99809554207,353.69830609015975,-0.8000209693411684,7.03728,6.6095999999999995,-1.1000789666511805,172.99887666180075,14.10049133816956,24.821701,59.482487,20.257204762585808,69.104904135957,259.89319140611303,2.509902466052049,0.0038848872270584684,0.21530774440913095
2025-08-27T18:30:06+03:00,,286.65,-48.99849120289531,23.405759999999997,332.9973409520831,346.70249141161247,-1.7000230739326654,6.201359999999999,6.57072,-1.1974817918234204,166.50153526501725,16.002711218003892,24.821646,59.482542,19.895476480747604,62.60398535358112,270.393355598502,2.853481570091866,0.0037077414573240684,0.21901548586645503
2025-08-27T18:30:08+03:00,,286.65,-50.00116734437425,24.70824,324.9988501320569,338.60086818846264,-5.299974196519141,7.056719999999999,6.648479999999999,-0.29793805346802804,155.79868365197345,13.097815196690618,24.821582,59.48259,20.884158712304878,65.00297247147125,259.9958776605856,2.9819669380570932,0.003484278027116763,0.2224997638935718
2025-08-27T18:30:10+03:00,,286.65,-44.999245792882164,24.3972,324.9988501320569,323.29716548051834,-4.899992359738313,6.29856,6.55128,-0.8021409131831525,141.10231620686784,10.89765726338826,24.821663,59.482584,20.434629610306832,57.587809934913025,267.41104019714385,3.3760685925615754,0.002498505271466014,0.2249982691650378
2025-08-27T18:30:12+03:00,,286.65,-35.00113226784929,24.4944,308.99613891405295,302.99727079903323,-8.200000076573803,5.38488,6.35688,-1.0026761414789407,118.69966641725263,7.597420363434716,24.821583,59.482619,20.31955265736978,43.74442305141716,265.2517158626358,3.8902056855232185,0.00322309057770626,0.22822135974274405
2025-08-27T18:30:14+03:00,,286.65,-20.00109719132434,22.103279999999998,291.99648113252147,277.3975165125881,-5.1000119260184835,5.69592,5.96808,1.598552248414997,93.00250930563523,3.701307356545118,24.821483,59.482644,16.86381719235343,26.635104879714675,265.3613762528068,5.0914674256771875,0.0034021199234048937,0.23162347966614893
2025-08-27T18:30:16+03:00,,286.65,-14.999175639832256,21.50064,275.99949949246883,268.2989467259106,-1.5000035076524951,5.1710400000000005,5.6181600000000005,-0.6990085100596044,87.10104401578775,-3.002298846485514,24.821393,59.482657,16.55994526060736,19.634588411130437,256.3649110813384,4.8703687166587795,0.0028560126910976568,0.2344794923572466
2025-08-27T18:30:20+03:00,,286.65,0.0,22.70592,265.9956563894847,249.20226341420027,-6.0000140306099805,2.7021599999999997,4.58784,-3.5007721282493303,67.2996226160665,-0.29793805346802804,24.821273,59.482665,20.00376,1.2074182791366184e-06,265.99565759690296,2.7021599999999992,0.0025589205471544542,0.23703841290440106
2025-08-27T18:30:22+03:00,,286.65,9.998113525032863,21.40344,242.0574797089189,233.30268459931992,-7.999980510293633,2.89656,4.0629599999999995,-4.400315866604722,51.40004380118616,-3.9018425848409057,24.821236,59.482668,18.55768374964953,11.550942716296618,253.6084224252155,2.8378961315682223,0.0011436432651948892,0.23818205616959595
2025-08-27T18:30:23+03:00,,286.65,22.998525896551243,19.59552,218.99592845490324,209.3014825612897,-11.400026658158962,1.98288,3.0132,-4.199780638308934,28.997394011570965,-19.297218540006124,24.821206,59.482661,17.78712917266692,25.494857666328357,244.4907861212316,1.7897949172343868,0.0010077213708149107,0.23918977754041088
2025-08-27T18:30:27+03:00,,286.65,54.00127219108009,18.195839999999997,189.9985344433323,202.7984115865549,-3.30000771683549,3.34368,1.71072,-3.5007721282493303,26.699833253096365,-30.40114060964148,24.821091,59.482586,16.45442226530815,63.46376110842479,253.46229555175708,1.4938350458459757,0.0018125072906762906,0.24100228483108715
2025-08-27T18:30:29+03:00,,286.65,65.0020618575919,18.50688,200.9993241098441,210.20102629964512,1.4000223724021665,3.5964,1.8273599999999999,-3.5981749534215695,30.200605381345692,-20.397297506657306,24.821069,59.482559,17.29698436917136,75.86401006381793,276.86333417366205,0.8783278477489104,0.0017563438242843888,0.24275862865537154
2025-08-27T18:30:31+03:00,,286.65,69.99825383113267,19.69272,177.99506863534154,200.39771842495674,-5.400012627548983,4.31568,2.7021599999999997,-0.49847328176381617,20.299894681485068,-24.99814860155782,24.821071,59.482517,18.6624914831717,82.54877814800933,260.5438467833509,0.5596663981167878,0.0025252620520860437,0.24528389070745757
2025-08-27T18:30:33+03:00,,286.65,73.00055267761819,18.798479999999998,186.61235387410912,202.90154398967843,2.499986747494321,4.393439999999999,3.05208,-5.202456779787875,22.700587843083216,-21.89844692990006,24.821115,59.482489,18.010905984924985,86.49046814855731,273.10282202266643,0.26894263084549863,0.00215318346731913,0.2474370741747767
2025-08-27T18:30:35+03:00,,286.65,67.99863112612611,19.40112,191.99815714833886,209.5020177895855,1.2999839413723246,5.07384,3.7908,-2.200157933302361,29.902667327877666,-20.90150036637243,24.821048,59.482432,18.121582902955694,83.04487553370672,275.0430326820456,0.6144010189218042,0.003990060005601383,0.2514271341803781
2025-08-27T18:30:37+03:00,,286.65,71.99787653613924,21.092399999999998,192.9951037118665,189.90113161816004,-9.300021747445468,5.42376,4.33512,-0.8995437383553924,4.898789148368539,-11.699798176571411,24.821092,59.482397,20.089681083991174,86.87581531528694,279.87091902715343,0.2955965083833885,0.002495899429803203,0.2539230336101813
2025-08-27T18:30:39+03:00,,286.65,82.00171963912342,22.20048,167.99695511030868,168.00268468825996,-5.700013329079481,5.26824,4.510079999999999,-1.501149423242757,-13.401482828109954,-10.800254438216017,24.821059,59.482346,22.092260031931325,95.6608861735185,263.65784128382717,-0.5196614957565074,0.0032267344199303563,0.2571497680301117
2025-08-27T18:30:41+03:00,,286.65,91.99983316415629,21.79224,165.99733240530213,162.39915745188054,2.199986045963822,5.57928,4.996079999999999,-1.1974817918234204,-16.501184499767707,-15.097437901697193,24.821116,59.482295,22.682942779164947,106.2300294290744,272.22736183437655,-1.5593773460613456,0.003524795495319986,0.26067456352543167
2025-08-27T18:30:43+03:00,,286.65,93.99945586916286,18.798479999999998,177.62837564645784,190.5027373030474,6.699996568921307,7.1928,5.67648,-0.8995437383553924,14.197894163341799,-21.600508876432034,24.821176,59.48224,20.590792189396346,114.39324788854485,292.0216235350027,-2.9706055840703445,0.0037792973802289647,0.26445386090566064
2025-08-27T18:30:45+03:00,,286.65,82.99866620265107,20.10096,167.99695511030868,195.2983940482924,4.400029387707157,6.940079999999999,6.24024,-0.6016056848873644,18.300271976478495,-22.098982158195852,24.821202,59.482178,20.450055172218445,102.6829343881658,270.6798894984745,-1.5237336404901665,0.003810240407603899,0.26826410131326456
2025-08-27T18:30:47+03:00,,286.65,76.0028515241037,19.809359999999998,186.9962355968468,210.29842912481737,5.79999446432981,6.201359999999999,6.37632,-2.200157933302361,31.70175480458845,-20.500429909780856,24.821215,59.482116,19.272822746065877,94.19550450955462,281.1917401064014,-0.453691165837243,0.0037477436666231508,0.27201184497988773
2025-08-27T18:30:49+03:00,,286.65,69.00130726760504,22.997519999999998,191.99815714833886,205.39963997644884,-1.2999839413723246,7.056719999999999,6.55128,0.8995437383553924,20.09935945318928,-18.197139573354946,24.821192,59.482052,21.502864358216904,86.84258672647307,278.84074387481195,0.3886796918229508,0.003910427386078179,0.2759222723659659
2025-08-27T18:30:51+03:00,,286.65,65.0020618575919,22.00608,178.99774477682047,206.00124566133618,2.199986045963822,7.6788,6.55128,-0.6016056848873644,28.802588361226483,-18.70134243307007,24.821183,59.481983,20.010353283519258,85.35448357027657,264.352228347097,0.6219117834278626,0.004156520278631031,0.2800787926445969
2025-08-27T18:30:53+03:00,,286.65,63.002439152585325,22.997519999999998,197.9970252633586,204.29956100979766,1.5000035076524951,6.337439999999999,6.492959999999999,-1.598552248414997,25.198683829853607,-19.801421399721253,24.821162,59.481923,20.897992052245307,78.6791354940702,276.6761607574288,1.2440599185581867,0.003662982678136065,0.283741775322733
2025-08-27T18:30:55+03:00,,286.65,60.0001403060998,22.29768,198.9997014048375,215.701421132901,3.6999895536163168,6.18192,6.37632,-2.899166443361966,36.60054395295699,-18.500807204774283,24.821138,59.48187,19.938926224243815,75.57548304172339,274.5751844465609,1.539942994660717,0.0032688508427876155,0.2870106261655206
2025-08-27T18:30:57+03:00,,286.65,58.000517601093236,23.094720000000002,198.9997014048375,213.1975955681793,1.5999846429028237,6.72624,6.55128,-3.002298846485514,33.500842281299235,-18.70134243307007,24.821036,59.481831,20.346370498520095,74.28191249415491,273.2816138989924,1.8221676166553773,0.0038972349455551093,0.2909078611110757
2025-08-27T18:31:01+03:00,,286.65,60.0001403060998,21.79224,198.9997014048375,201.10245651296765,-1.5000035076524951,6.78456,6.82344,0.6016056848873644,21.30257082296401,-19.19981571483389,24.820988,59.481702,19.315326709614077,77.7098296406446,276.7095310454821,1.4441801778351522,0.003995419452505614,0.2949032805635813
2025-08-27T18:31:05+03:00,,286.65,61.002816447578745,20.898,195.99740255835198,211.1005700380005,-0.09998113525032865,6.68736,6.804,-2.498095986770389,32.2976309115245,-26.401895199628335,24.820942,59.481585,18.599799487486706,79.3315638124932,275.3289663708452,1.237999347430389,0.0035044506033414277,0.2984077311669227
2025-08-27T18:31:07+03:00,,286.65,63.002439152585325,21.79224,186.07950312463745,206.20178088963198,-0.300000701530499,6.68736,6.72624,-1.1000789666511805,25.10128100468137,-17.89920151988692,24.820919,59.481525,19.68022290596973,80.62658134684982,266.70608447148726,1.0891585685836012,0.0036741585082532926,0.302081889675176
2025-08-27T18:31:09+03:00,,286.65,61.002816447578745,21.40344,191.99815714833886,203.40001727144224,-1.5000035076524951,6.6095999999999995,6.68736,-0.8021409131831525,21.199438419840458,-17.60126346641889,24.820902,59.481462,19.095443280988345,78.62534642299259,270.62350357133147,1.3035695700691876,0.0038221733893700053,0.30590406306454604
2025-08-27T18:31:11+03:00,,286.65,61.002816447578745,21.597839999999998,184.9966128918402,198.0027548413099,-1.5999846429028237,6.72624,6.648479999999999,-1.0026761414789407,16.39805209664416,-17.102790184655074,24.820905,59.481396,19.25779621087768,78.79045667230145,263.78706956414163,1.30756584701677,0.003968165995151138,0.3098722290596972
2025-08-27T18:31:13+03:00,,286.65,63.999385716112954,20.8008,178.99774477682047,202.29993830479106,1.5999846429028237,6.84288,6.5124,-2.4006931615981495,24.299140091498213,-20.299894681485068,24.820895,59.481334,18.83354307179129,83.05958274579983,262.0573275226203,0.8268738704623357,0.0037391579742139147,0.3136113870339111
2025-08-27T18:31:15+03:00,,286.65,61.99976301110639,20.898,184.9966128918402,199.40077186142912,-2.7999874490248207,7.01784,6.6095999999999995,-2.200157933302361,17.29759583499955,-22.797990668255455,24.820878,59.48127,18.66202346754885,81.39186161425403,266.3884745060942,1.050400721530264,0.003881733574736256,0.3174931206086474
2025-08-27T18:31:19+03:00,,286.65,67.99863112612611,21.50064,194.99472641687308,202.3973411299633,1.899985344433323,6.648479999999999,6.74568,-3.3976397251257815,22.998525896551243,-23.697534406610853,24.820858,59.481133,19.98439427939362,85.96483004741165,280.95955646428473,0.46784553796110884,0.003954408546083188,0.32144752915473057
2025-08-27T18:31:23+03:00,,286.65,63.999385716112954,20.5092,187.99891173832572,206.9007893996916,-2.3000244769936637,7.32888,7.1150400000000005,-0.6990085100596044,25.198683829853607,-22.001579333023614,24.820809,59.481017,18.50821990822418,84.8481441854819,272.8470559238076,0.6581021442151064,0.003143570980470555,0.32459110013520115
2025-08-27T18:31:27+03:00,,286.65,69.99825383113267,20.898,184.9966128918402,197.20061392812673,-2.7000063137744914,7.056719999999999,7.1150400000000005,-1.3006141949469687,16.197516868348373,-18.59821002994652,24.820795,59.480871,19.637691324102313,89.73328139154447,274.7298942833846,0.0328497449008489,0.0038309402650582238,0.32842204040025935
2025-08-27T18:31:29+03:00,,286.65,73.00055267761819,20.7036,185.99928903331917,200.9019212846719,3.099988150555319,6.6095999999999995,7.07616,-1.501149423242757,20.09935945318928,-18.999280486538098,24.820788,59.480806,19.806832942856115,91.61043215331824,277.60972118663744,-0.18575383675521182,0.003912839905649589,0.33233488030590896
2025-08-27T18:31:33+03:00,,286.65,63.999385716112954,21.306240000000003,197.53865902725394,215.00241262284143,-0.9000021045914972,7.056719999999999,7.17336,0.0,32.899236596411875,-20.20249185631283,24.820722,59.480706,19.285490819246885,83.19985779179252,280.7385168190465,0.8355610428068643,0.0024873284763249582,0.3348222087822339
2025-08-27T18:31:37+03:00,,286.65,61.002816447578745,21.79224,193.99777985334543,214.2976745348305,1.4000223724021665,7.348319999999999,7.03728,-1.902219879834333,34.400386019654626,-21.697911701604276,24.82065,59.480577,19.329821823353793,80.42338598622587,274.4211658395713,1.2225127087176473,0.0028712930249922978,0.3376935018072262
2025-08-27T18:31:39+03:00,,286.65,58.000517601093236,21.306240000000003,198.16891260189783,212.29805182982392,-2.1000049107134933,7.056719999999999,7.1928,-0.6990085100596044,31.398087173169117,-21.600508876432034,24.820606,59.480512,18.55819067973261,76.81292268632887,274.9818352882267,1.6098585660923566,0.004131407316308084,0.34182490912353425
2025-08-27T18:31:43+03:00,,286.65,61.99976301110639,21.50064,187.99891173832572,210.60209675623668,0.0,7.056719999999999,7.07616,-2.899166443361966,33.1971746498799,-26.29876279650479,24.820542,59.48038,19.225335004674037,80.91009348684088,268.9090052251666,1.114849681392639,0.003034431886931893,0.3448593410104661
2025-08-27T18:31:47+03:00,,286.65,60.0001403060998,20.898,196.99434912187962,218.600587576263,2.499986747494321,6.5124,6.97896,-1.701684651538545,38.30222860449553,-22.2021145613194,24.820523,59.48024,18.521398430075973,77.72869969169783,274.72304881357746,1.3841517050656356,0.0035562374796808574,0.348415578490147
2025-08-27T18:31:49+03:00,,286.65,61.002816447578745,21.597839999999998,199.99664796836515,197.89962243818636,-8.500000778104303,6.37632,7.07616,-1.7990874767107847,13.401482828109954,-17.60126346641889,24.820444,59.480197,19.328867797822962,77.77293741930715,277.7695853876723,1.3504180928632097,0.003534894124352301,0.3519504726144993
2025-08-27T18:31:53+03:00,,286.65,93.00250930563523,18.40968,166.99427896882975,151.30096496019647,-13.00001130106179,7.42608,6.74568,-1.7990874767107847,-33.09977182470766,-16.39805209664416,24.820493,59.480046,20.20853337604313,114.5312585474339,281.5255375162636,-3.083231359638847,0.004110686092296498,0.3560611587067958
2025-08-27T18:31:57+03:00,,286.65,133.000692983718,15.70752,115.99530562423517,90.09761328432195,-7.200016836731978,7.270560000000001,6.6679200000000005,-0.6990085100596044,-92.89937690251168,13.602018056405743,24.820673,59.479953,21.339190179614977,147.42966378563642,263.4249694098716,-6.127127915444033,0.003974270718757531,0.36003542942555333
2025-08-27T18:31:59+03:00,,286.65,-177.99993877660017,10.692,89.9944808811984,79.29735884610592,-3.9000091198964877,7.251119999999999,6.82344,0.40107045659157625,-101.90054386401691,7.700552766558264,24.820797,59.479956,17.940487519525494,178.80817877794212,271.18630210325625,-7.24955131262592,0.003789403979955079,0.3638248334055084
2025-08-27T18:32:11+03:00,,286.65,-97.00089527895568,14.91048,14.782311114375238,27.19830653486018,-4.800011224487984,6.53184,6.940079999999999,0.8995437383553924,-158.1993768135716,15.401105533116528,24.82147,59.480141,16.992021031204295,119.43001820710606,255.35229290726917,-3.209485748628417,0.004026502524765943,0.36785133593027436
2025-08-27T18:32:17+03:00,,286.65,-48.99849120289531,19.809359999999998,315.0924098542449,341.4026318066523,-4.999973494988642,4.97664,6.454079999999999,-0.09740282517223994,157.9988415852758,13.602018056405743,24.821446,59.480328,16.96525432081488,61.78881247990286,253.30359737434208,2.3525713862165643,0.003628858071697321,0.3714801940019717
2025-08-27T18:32:19+03:00,,286.65,-42.999623087875584,23.21136,315.9976831705516,320.19746380886056,0.9999832398418258,4.82112,6.2208000000000006,-1.501149423242757,138.30055258867813,3.5981749534215695,24.821381,59.480365,19.95809404493483,52.48197611714562,263.515707053406,2.936114962302245,0.0029804018648224608,0.37446059586679414
2025-08-27T18:32:21+03:00,,286.65,-37.00075497285587,23.094720000000002,311.9984377605385,312.101570163662,2.000023775463165,3.9851999999999994,5.81256,-0.40107045659157625,131.2016055070072,5.700930061551691,24.82132,59.480388,20.055952057699255,43.8689192529564,268.1295185075821,2.8730388755947542,0.002319119399060644,0.3767797152658548
2025-08-27T18:32:23+03:00,,286.65,-33.99845612637036,22.394879999999997,316.9946297340793,311.4025616536024,1.5000035076524951,3.8491199999999997,5.307119999999999,-0.29793805346802804,131.49954356047525,4.400315866604722,24.821265,59.480414,19.323993823704463,40.39335313443422,276.6012765996451,2.931541718939344,0.0022936671697974097,0.3790733824356522
2025-08-27T18:32:25+03:00,,286.65,-35.99807883137692,22.103279999999998,316.9946297340793,311.29942925047885,3.099988150555319,3.2464799999999996,4.74336,-2.2975607584746007,132.30168447365838,5.2998596049601145,24.821216,59.480437,19.570006131314937,41.5935104243533,275.401119309726,2.4279556621148197,0.002036759187320543,0.38111014162297274
2025-08-27T18:32:27+03:00,,286.65,-35.99807883137692,21.209039999999998,331.99466481060426,318.9025791918649,0.9000021045914972,4.704479999999999,4.45176,-1.701684651538545,142.20239517351902,13.699420881577984,24.821178,59.480467,17.62124238776508,45.02615028738242,286.96851452322187,3.32505108845772,0.0021440839719396787,0.3832542255949124
2025-08-27T18:32:31+03:00,,286.65,-33.99845612637036,22.103279999999998,274.8994205258177,281.40249150055257,-14.69997707921494,2.916,3.9851999999999994,-1.3006141949469687,93.30044735910326,2.2975607584746007,24.820953,59.480551,19.753174691940384,38.73336892877745,236.16605159704022,2.274672850049562,0.0014366016851867327,0.3846908272800991
2025-08-27T18:32:33+03:00,,286.65,-12.999552934825683,21.40344,295.9957265425346,240.0005612243992,-14.59999594396461,2.7799199999999997,3.61584,2.1027551081301215,53.10172845272469,-1.598552248414997,24.82107,59.480534,18.70521967179222,14.915336308855302,281.0803902336793,2.686256762029476,0.0037146798313355514,0.3884055071114347
2025-08-27T18:32:37+03:00,,286.65,35.99893826806962,16.60176,209.99476149339802,204.40269341292117,-7.500017538262475,3.09096,1.69128,1.902219879834333,22.998525896551243,-26.797236078268604,24.820917,59.480501,14.217641446891108,43.340443393567256,253.33520488696527,2.248019592504978,0.001447743087365252,0.3898532501987999
2025-08-27T18:32:39+03:00,,286.65,48.00240407606037,16.60176,184.9966128918402,219.90120177120997,3.0000070153049903,4.16016,1.22472,1.3980170201192088,41.40193027615329,-27.100903709687937,24.820905,59.480469,14.15985007932184,60.61419028408358,245.61080317592376,2.041340454852399,0.0019580143861667853,0.3918112645849667
2025-08-27T18:32:41+03:00,,286.65,48.999350639587995,18.895680000000002,195.99740255835198,233.8011578810837,7.299997971982305,4.859999999999999,1.98288,-2.1027551081301215,57.398911916205876,-22.402649789615186,24.820932,59.480424,16.12975535366725,62.14320091331501,258.14060347166696,2.2708997528777437,0.0028276221833524826,0.39463888676831915
2025-08-27T18:32:43+03:00,,286.65,46.00278137105379,20.7036,216.9963057498967,229.49824483965122,4.299990956677315,5.26824,3.0326400000000002,-3.9992454100131463,52.50012276783733,-17.801798694714677,24.820881,59.480386,17.46041567797247,58.53877069249023,275.5350764423869,2.7496076378051924,0.002764159877427366,0.3974030466457465
2025-08-27T18:32:45+03:00,,286.65,41.00085981956171,22.394879999999997,234.99863967290713,207.89773596321922,-8.700020344384471,4.393439999999999,3.7519199999999997,-1.3980170201192088,23.19906112484703,-12.100868633162985,24.82077,59.48035,19.29565504877154,49.59192061685155,284.5905602897587,2.847947663394161,0.004020268753579697,0.4014233153993262
2025-08-27T18:32:47+03:00,,286.65,43.000482524568284,21.40344,192.69716565839846,205.60017520474463,-1.2999839413723246,5.79312,4.21848,0.40107045659157625,24.20173726632597,-18.59821002994652,24.820739,59.480302,17.615444150419652,55.96150035133978,248.65866600973823,3.2426980241631993,0.0030363843793043506,0.40445969977863055
2025-08-27T18:32:49+03:00,,286.65,41.99780638308934,19.69272,192.9951037118665,221.99822730138877,6.199976301110638,4.93776,4.5684000000000005,-1.701684651538545,44.70216717610683,-21.49737647330849,24.820772,59.480268,16.36019532366723,53.64854900996322,246.6436527218297,2.926791345018931,0.0022784305091179324,0.40673813028774847
2025-08-27T18:32:51+03:00,,286.65,37.998560973076195,19.49832,214.99668304489012,215.79882395807326,-2.400005612243992,4.89888,4.859999999999999,-1.501149423242757,35.79840303977384,-14.501561794761136,24.820722,59.480232,15.926050679667911,48.914722495243495,263.9114055401336,3.2194537547078665,0.0026479764099831007,0.40938610669773157
2025-08-27T18:32:55+03:00,,286.65,43.99742908809592,22.103279999999998,205.99551608338487,200.39771842495674,-4.999973494988642,5.69592,5.307119999999999,-0.49847328176381617,16.701719728063498,-20.00195662801704,24.820573,59.480113,18.43537410402323,56.39045567904931,262.38597176243417,3.152864246224879,0.0031896337352643246,0.4125757404329959
2025-08-27T18:32:57+03:00,,286.65,46.99972793458143,19.90656,183.99966632831257,202.3973411299633,-3.9999902551468165,6.18192,5.52096,-1.1974817918234204,20.99890319154467,-26.098227568209,24.820557,59.480058,16.32886818720377,63.07385679208127,247.07352312039384,2.799430396032253,0.003341806437505534,0.4159175468705014
2025-08-27T18:32:59+03:00,,286.65,58.000517601093236,18.00144,172.9072034145798,195.40152645141598,-2.3000244769936637,7.2122399999999995,5.598719999999999,-2.1027551081301215,13.097815196690618,-31.100149119701083,24.820557,59.480001,15.44249504444104,81.33345131856625,254.24065473314607,1.08676683922578,0.003426139835212431,0.41934368670571387
2025-08-27T18:33:01+03:00,,286.65,67.99863112612611,17.398799999999998,163.9977097002955,199.60130708972486,-4.899992359738313,6.9984,5.598719999999999,0.6016056848873644,17.29759583499955,-24.402272494621762,24.820617,59.479951,16.138879557565957,91.70543221260459,255.7031419129001,-0.20827946790360383,0.003519481722795924,0.4228631684285098
2025-08-27T18:33:07+03:00,,286.65,93.00250930563523,16.09632,155.99921888026924,189.2995259332727,2.9000258800546614,7.251119999999999,6.5124,-1.7990874767107847,11.298727719979832,-24.001202038030186,24.82071,59.479752,17.997149537098732,116.72772474656273,272.72694362683194,-3.2612001953620546,0.003926246245281321,0.4267894146737911
2025-08-27T18:33:09+03:00,,286.65,93.00250930563523,15.396479999999999,163.9977097002955,175.10163176993086,-6.60001543367098,6.804,6.6679200000000005,-1.3006141949469687,-7.098947081670899,-23.399596353142822,24.82076,59.479698,17.155767520781215,116.33441455966994,280.33212425996544,-3.018319603341643,0.0035867548491110195,0.43037616952290214
2025-08-27T18:33:13+03:00,,286.65,114.0014124971799,15.10488,149.99462118729824,152.09737629542832,-10.000004285756797,7.07616,6.95952,-2.6012283898939375,-35.59786781147805,-18.999280486538098,24.820881,59.479576,19.109735182215548,133.77315240872375,283.767773596022,-4.895322135068828,0.004088062073062354,0.4344642315959645
2025-08-27T18:33:17+03:00,,286.65,140.99918380374427,14.30784,108.99949094568781,90.80235137233286,-9.799984719476626,6.006959999999999,7.29,-0.6016056848873644,-93.3978501842755,10.50231638474799,24.821093,59.479509,19.34896519585846,152.26601046099373,261.26550140668155,-5.316866691418258,0.004146015375275057,0.4386102469712395
2025-08-27T18:33:19+03:00,,286.65,-179.0026149180791,10.1088,87.99485817619184,70.5024566908478,-12.40000989800079,6.47352,7.01784,-1.701684651538545,-114.09881532235214,14.799499848229162,24.821216,59.479512,16.58172208128762,179.39197833013807,268.6028798460538,-6.4731554985388895,0.003758963049394741,0.44236921002063423
2025-08-27T18:33:23+03:00,,286.65,-102.9997633939754,12.30552,28.997394011570965,35.50046498630581,-7.999980510293633,6.7068,6.201359999999999,-0.6990085100596044,-146.2990434087044,27.100903709687937,24.821387,59.479584,15.281918832626166,128.3166147574922,260.68077925407874,-4.158260110151813,0.0034874022879208635,0.4458566123085551
2025-08-27T18:33:25+03:00,,286.65,-86.00010561244387,16.69896,347.13220975796054,26.401895199628335,-9.700003584226298,5.832,6.08472,-2.4006931615981495,-154.89913991361806,26.602430427924123,24.82141,59.479635,17.2997373855263,105.65133761183739,241.48087214612315,-1.5733728007952696,0.0031448645268048157,0.4490014768353599
2025-08-27T18:33:27+03:00,,286.65,-65.0012024208992,17.107200000000002,330.60810694638764,14.398429391637588,-9.19998331641563,6.39576,6.1236,-1.701684651538545,-166.5989380901895,27.599376991451756,24.821407,59.479693,15.526940301421757,86.9219833661769,243.68612358021073,0.34342473569980814,0.0034874500952615465,0.4524889269306214
2025-08-27T18:33:31+03:00,,286.65,-44.999245792882164,21.209039999999998,319.99692858056477,339.7009471551138,-3.30000771683549,7.1928,6.35688,2.6012283898939375,153.3979904903753,14.301026566465348,24.821301,59.479811,16.906071714054004,62.50726591838652,257.48966266217826,3.3204563123771553,0.003635087918275123,0.45612401484889653
2025-08-27T18:33:35+03:00,,286.65,-39.00037767786244,21.40344,315.9976831705516,337.2028511683434,-0.9999832398418258,5.38488,6.37632,0.8021409131831525,154.2975342287307,15.097437901697193,24.82105,59.479934,17.548939726110277,50.134602768266944,265.8630804022847,3.4516337624746165,0.0030224361188494297,0.459146450967746
2025-08-27T18:33:37+03:00,,286.65,-39.00037767786244,20.7036,323.9961739905779,334.60162277844944,3.399988852085818,6.14304,6.5124,-1.1000789666511805,159.40258818334632,16.30064927147192,24.82099,59.479974,16.391994150028705,52.64182252496356,271.35435146561434,3.7275708856817418,0.0030224348051380253,0.462168885772884
2025-08-27T18:33:39+03:00,,286.65,-41.00000038286902,20.5092,322.1798977800132,336.601245483456,0.5000202678106694,5.98752,6.29856,-2.2975607584746007,160.89800802863775,16.30064927147192,24.82093,59.480016,16.465787193393577,54.801883090188866,267.37801468982434,3.4512392167037347,0.0031189141968865665,0.4652877999697706
2025-08-27T18:33:41+03:00,,286.65,-37.9977015363835,20.8008,324.9988501320569,331.1982534753724,1.200002806121996,5.87088,6.39576,-0.09740282517223994,149.5018774834857,18.397674801650734,24.820862,59.480057,16.5732407542082,50.59397701651636,274.4048731155405,3.7269035489418454,0.0032220929397286917,0.4685098929094993
2025-08-27T18:33:43+03:00,,286.65,-37.9977015363835,21.50064,316.7998240837348,331.59932393196397,0.300000701530499,5.81256,6.25968,1.598552248414997,148.40179851683453,16.002711218003892,24.820793,59.480098,17.29438832478049,49.939045357938824,266.86077872579597,3.7409764571519983,0.0032418398375778437,0.47175173274707716
2025-08-27T18:33:45+03:00,,286.65,-37.00075497285587,22.20048,322.9992274270503,330.7971830187808,0.600001403060998,5.598719999999999,6.24024,0.0,150.8024916784327,18.500807204774283,24.820805,59.480093,18.046531842394902,47.76155121015927,275.23767621689103,3.763557902419664,0.0004738130394222065,0.4722255457864994
2025-08-27T18:33:49+03:00,,286.65,-39.00037767786244,19.20672,318.9426862375241,346.70249141161247,-1.8000042091829944,5.832,6.08472,-3.5007721282493303,168.5011579700238,26.699833253096365,24.820679,59.48017,15.12644792029012,53.04257106309724,265.90011517442684,3.5063235940165205,0.0009886439969658206,0.4732141897834652
2025-08-27T18:33:53+03:00,,286.65,-37.9977015363835,22.00608,320.9996047220437,342.697516423648,-0.9000021045914972,6.901199999999999,6.1624799999999995,2.6012283898939375,160.30213192170172,20.99890319154467,24.82053,59.480261,17.10376614891654,52.3805863098042,268.61901841223954,4.2125862162441035,0.00048472163155074646,0.4736989114150159
2025-08-27T18:33:57+03:00,,286.65,-31.00188685783615,23.69736,293.99610383752804,305.30056113545913,-5.1000119260184835,5.90976,6.045839999999999,0.29793805346802804,119.79974538390384,4.497718691776963,24.82037,59.480321,18.87881559327094,40.280450789305405,253.71565304822263,4.508490711884113,0.0009636592033285577,0.4746625706183445
2025-08-27T18:33:59+03:00,,286.65,-20.998043754851974,21.40344,280.99569146600965,275.30049098240926,-8.29998121182413,5.22936,5.851439999999999,-3.300236899953542,88.29852580761116,5.597797658428142,24.820284,59.480331,16.627276333131242,27.468936868712575,253.52675459729707,4.639807400633875,0.0026930642635986587,0.47735563488194316
2025-08-27T18:34:03+03:00,,286.65,9.998113525032863,19.10952,267.99527909449125,225.60213183276164,-8.100018941323475,2.0412,3.7908,-0.6016056848873644,41.60246550444908,-2.200157933302361,24.820191,59.480334,17.102990671467307,11.185402246512695,279.18068134100395,2.002426610580204,0.0017019152659398953,0.47905755014788304
2025-08-27T18:34:05+03:00,,286.65,22.001579333023614,17.398799999999998,226.99441927492956,207.80033313804697,-10.200023852036967,1.57464,2.50776,1.1000789666511805,25.50235146127294,-12.198271458335228,24.820166,59.480329,15.949748306028518,24.121180682420174,251.11559995734973,1.4371474209223927,0.0008201668260991315,0.4798777169739822
2025-08-27T18:34:07+03:00,,286.65,37.001614409548566,16.407359999999997,187.99891173832572,215.79882395807326,-3.0000070153049903,2.21616,1.67184,2.200157933302361,36.49741154983344,-23.502728756266368,24.820157,59.480312,14.69813437015866,42.208027629032586,230.2069393673583,1.641532926747888,0.0010581170020965863,0.48093583397607875
2025-08-27T18:34:09+03:00,,286.65,48.00240407606037,15.610319999999998,183.99966632831257,220.30227222780155,2.499986747494321,3.12984,1.20528,-1.7990874767107847,44.30109671951525,-27.301438937983725,24.820107,59.480296,13.714828907272363,57.766870838191934,241.76653716650452,1.66934857265212,0.0018039724342520126,0.48273980641033076
2025-08-27T18:34:11+03:00,,286.65,48.00240407606037,16.19352,215.99935918636905,229.80191247107058,0.8000209693411684,3.6935999999999996,1.59408,0.6016056848873644,48.3003421295284,-19.102412889661643,24.820067,59.480264,13.993995340886771,59.314571002185716,275.31393018855476,1.8849335784578132,0.002278260101154315,0.4850180665114851
2025-08-27T18:34:13+03:00,,286.65,45.00010522957485,17.70984,201.99627067337175,230.0998505245386,2.1000049107134933,3.9074399999999994,2.41056,-0.09740282517223994,49.89889437794339,-13.401482828109954,24.820024,59.480227,15.200096294310901,55.473212948024695,257.4694836213964,2.21470367068909,0.002582430075115924,0.48760049658660104
2025-08-27T18:34:15+03:00,,286.65,41.99780638308934,18.798479999999998,207.99513878839142,220.10173699950576,-0.300000701530499,5.26824,3.2464799999999996,0.0,41.60246550444908,-13.401482828109954,24.820047,59.480177,15.295017999704504,55.322350124649574,263.31748891304096,2.997411379420627,0.0030863001964769477,0.49068679678307797
2025-08-27T18:34:17+03:00,,286.65,39.998183678082775,18.895680000000002,220.99555115990984,225.90006988622966,5.1000119260184835,4.14072,3.7908,1.9996227050065731,46.197587021398284,-16.799122553235737,24.819927,59.48015,15.947282728017768,49.60545178980598,270.60100294971585,2.6833829811740095,0.0040064090133643685,0.4946932057964423
2025-08-27T18:34:19+03:00,,286.65,35.00199170454199,20.8008,201.99627067337175,237.69727088797333,6.0000140306099805,4.60728,4.16016,0.8995437383553924,58.80265851427639,-12.301403861458775,24.819874,59.480118,17.23070164287098,43.82455399072546,245.82082466409722,3.3239845628502547,0.002513362955272531,0.4972065687517149
2025-08-27T18:34:21+03:00,,286.65,31.999692858056477,21.597839999999998,225.9974727114019,234.90123684773494,1.8000042091829944,4.87944,4.33512,-2.899166443361966,55.89776249296312,-7.901087994854052,24.8199,59.480078,17.650249668024152,40.42359889373071,266.4210716051326,3.7145776143316183,0.002531912079866445,0.49973848083158134
2025-08-27T18:34:23+03:00,,286.65,28.000447448043335,21.306240000000003,240.99750778792685,225.20106137617006,-1.7000230739326654,4.80168,4.43232,-2.6986312150661775,44.70216717610683,-9.602772646392598,24.819825,59.480055,17.214863309038225,35.524936617004755,276.5224444049316,3.907908269468757,0.0026744116857447156,0.502412892517326
2025-08-27T18:34:25+03:00,,286.65,28.000447448043335,20.898,231.99634082642166,224.39892046298692,-1.5999846429028237,3.888,4.33512,-0.6990085100596044,42.7999472962725,-9.499640243269049,24.819711,59.480043,17.560240468626652,33.96694277990315,265.9632836063248,3.2245519327123335,0.003553817994232801,0.5059667105115588
2025-08-27T18:34:27+03:00,,286.65,30.0000701530499,19.90656,228.9997715578874,223.49937672463153,-0.09998113525032865,3.09096,4.276800000000001,0.6016056848873644,43.69949103462789,-14.10049133816956,24.819667,59.480015,17.298887088939683,35.12571141958077,264.1254829774682,2.528070226322201,0.0021532448297624305,0.5081199553413213
2025-08-27T18:34:29+03:00,,286.65,31.999692858056477,19.40112,218.99592845490324,227.49862213464465,0.09998113525032865,3.7519199999999997,4.33512,-0.20053522829578813,48.90194781441576,-16.002711218003892,24.819669,59.479977,16.340705185254777,38.98827057587502,257.98419903077826,2.916272784316242,0.0022849089629005427,0.5104048643042218
2025-08-27T18:34:31+03:00,,286.65,33.00236899953541,18.50688,218.99592845490324,220.19913982467796,-1.4000223724021665,4.16016,4.257359999999999,-0.29793805346802804,39.00123711455514,-13.498885653282196,24.819612,59.479941,15.187951105852099,41.5825079649467,260.57843641984994,3.1118027921035654,0.002776638805921774,0.5131815031101437
2025-08-27T18:34:33+03:00,,286.65,33.00236899953541,19.10952,220.42832294273032,225.40159660446585,2.9000258800546614,4.723920000000001,4.41288,0.0,45.40117568616643,-19.19981571483389,24.819511,59.479913,15.36478323071071,42.642571708761466,263.0708946514918,3.474886991045812,0.0035125001726997204,0.5166940032828434
2025-08-27T18:34:35+03:00,,286.65,33.00236899953541,18.60408,205.99551608338487,228.79923632959162,3.2000265815851607,4.23792,4.58784,-0.8995437383553924,50.998973344594575,-21.801044104727822,24.819464,59.479876,15.225943938658414,41.72214545207598,247.71766153546085,3.163102999882655,0.002646587101313723,0.5193405903841571
2025-08-27T18:34:37+03:00,,286.65,31.999692858056477,19.90656,219.3912693335435,233.6006226527879,1.899985344433323,5.0544,4.723920000000001,-1.1974817918234204,53.69760455966075,-21.697911701604276,24.819485,59.47982,15.848141357804847,41.72961355208281,261.1208828856263,3.772069685564567,0.0034265274369982292,0.5227671178211554
2025-08-27T18:34:39+03:00,,286.65,31.999692858056477,19.49832,217.99898189137562,232.50054368613678,3.399988852085818,5.50152,4.87944,-2.2975607584746007,54.201807419375875,-22.29951738649164,24.819429,59.479778,15.116536740652109,43.11928055469065,261.1182624460663,4.015737187805011,0.0030488217872264834,0.5258159396083818
2025-08-27T18:34:41+03:00,,286.65,31.999692858056477,19.90656,221.99822730138877,228.59870110129586,-1.899985344433323,4.704479999999999,4.97664,-1.501149423242757,48.50087735782419,-23.30219352797058,24.819372,59.47974,16.110968311162598,40.90127333666496,262.8995006380537,3.5558290733068465,0.0028713191513633184,0.5286872587597451
2025-08-27T18:34:43+03:00,,286.65,33.99931556306306,19.20672,212.99706033988352,222.89777103974416,-2.7999874490248207,5.3654399999999995,5.151599999999999,0.6016056848873644,42.50200924280447,-26.602430427924123,24.819246,59.479717,15.060407287816712,45.49038843855058,258.4874487784341,3.76132852600633,0.004087101487365334,0.5327743602471104
2025-08-27T18:34:45+03:00,,286.65,37.001614409548566,20.10096,205.99551608338487,224.5994556912827,-3.2000265815851607,7.01784,5.28768,1.598552248414997,41.00085981956171,-21.30257082296401,24.819269,59.479661,15.099135937081892,53.2453819016317,259.24089798501655,4.199399526501342,0.0034384723607300207,0.5362128326078405
2025-08-27T18:34:47+03:00,,286.65,37.998560973076195,20.5092,193.99777985334543,229.09717438305967,4.2000098214269865,6.27912,5.443199999999999,-0.6990085100596044,51.40004380118616,-22.098982158195852,24.819225,59.479615,16.034058413798267,51.94957867701439,245.94735853035982,3.8701651274296793,0.0030739124747753426,0.5392867450826159
2025-08-27T18:34:49+03:00,,286.65,39.00123711455514,20.7036,205.99551608338487,220.50280745609732,2.199986045963822,6.43464,5.598719999999999,-1.3006141949469687,43.4989558063321,-18.500807204774283,24.819163,59.47957,16.216786512291968,53.461824141706714,259.45734022509157,3.830916074247089,0.0033012182417787293,0.5425879633243946
2025-08-27T18:34:51+03:00,,286.65,39.00123711455514,21.209039999999998,213.99973648136248,223.2014386711635,2.7000063137744914,5.81256,5.79312,-1.501149423242757,44.79957000127907,-16.002711218003892,24.819103,59.479525,17.088045862528,51.36228491000335,265.36202139136583,3.6293270033917677,0.003266602418123239,0.5458545657425179
2025-08-27T18:34:55+03:00,,286.65,37.001614409548566,22.00608,213.99973648136248,235.8007805860903,5.700013329079481,5.7153599999999996,5.9292,-1.1000789666511805,57.79998237279744,-26.201359971332543,24.818987,59.479436,17.77762983486212,48.15789355618256,262.157630037545,3.8126031352500505,0.003169719522826174,0.5490242852653441
2025-08-27T18:34:59+03:00,,286.65,33.99931556306306,23.094720000000002,231.99634082642166,236.0013158143861,-0.3999818367808277,5.07384,5.94864,0.8021409131831525,54.90081592943548,-15.601640761412316,24.818735,59.479375,19.100181509626697,42.54183693659607,274.53817776301776,3.7383232656752274,0.0030291801517035206,0.5520534654170476
2025-08-27T18:35:01+03:00,,286.65,30.0000701530499,24.008399999999998,231.99634082642166,233.49749024966442,2.7000063137744914,5.26824,5.87088,-0.40107045659157625,54.7002807011397,-15.097437901697193,24.818762,59.479347,19.62357013870937,37.71432545899714,269.7106662854188,4.167549832099805,0.0018739891525361436,0.5539274545695837
2025-08-27T18:35:03+03:00,,286.65,26.00082474303676,23.60016,222.99517386491638,230.50092098113018,0.6999825383113268,5.03496,5.7153599999999996,-3.3976397251257815,51.19950857289036,-18.70134243307007,24.818698,59.47931,19.20208113637944,32.60146706383637,255.59664092875275,4.241644660778031,0.0029602074865860534,0.5568876620561698
2025-08-27T18:35:05+03:00,,286.65,26.997771306564392,24.008399999999998,221.99822730138877,234.09909593455174,0.9999832398418258,5.09328,5.57928,1.3980170201192088,53.10172845272469,-22.700587843083216,24.818631,59.479274,19.606968612133514,33.770053698538305,255.76828099992707,4.2339168927333946,0.0029774647779776554,0.5598651268341475
2025-08-27T18:35:07+03:00,,286.65,28.000447448043335,23.69736,213.99973648136248,239.10101748604384,-0.09998113525032865,4.723920000000001,5.48208,1.0026761414789407,58.69952611115284,-25.3992190581494,24.818573,59.479238,19.65194588198158,34.48024530545865,248.47998178682113,3.8940284787573045,0.0027958913302951927,0.5626610181644427
2025-08-27T18:35:09+03:00,,286.65,30.0000701530499,24.202799999999996,229.99671812141503,238.79734985462449,-2.7999874490248207,4.91832,5.5404,-1.1000789666511805,57.79998237279744,-25.59975428644518,24.818504,59.479209,20.094457283855526,37.02956517444292,267.026283295858,3.9264171322428605,0.0027340230980661072,0.5653950412625088
2025-08-27T18:35:11+03:00,,286.65,30.0000701530499,23.60016,226.99441927492956,241.70224587593776,3.8000279846461584,5.79312,5.52096,-2.4006931615981495,64.1025181192365,-31.398087173169117,24.818424,59.479172,18.807564127435565,38.85949484834859,265.8539141232782,4.511026604345687,0.003302995656741908,0.5686980369192507
