time,dpt,mtw,awa,aws,cog,hdg,rot,sog,stw,pitch,yaw,roll,lng,lat,tws,twa,twd,vmg,dist,cum_dist
2024-08-28T18:26:30+03:00,6.3,289.65,-71.00007053591892,11.00304,32.417952048501974,15.699043586584558,0.0,6.82344,5.404319999999999,-0.09740282517223994,-165.0003858417745,12.198271458335228,24.818246,59.47413,10.896788787493016,107.30430770263519,285.11364434586676,-2.029609407589971,0.0018487104393055899,0.0018487104393055899
2024-08-28T18:26:31+03:00,6.3,289.65,-74.99931594593207,11.508479999999999,30.372492719884942,13.699420881577984,0.0,6.804,5.50152,1.3006141949469687,-166.5989380901895,14.598964619933378,24.818273,59.474154,11.756051430673095,108.98895678675423,281.3835359331307,-2.213925723156292,0.0016614915760144028,0.0035102020153199927
2024-08-28T18:26:32+03:00,6.3,289.65,-74.99931594593207,13.00536,28.017636181897256,13.99735893504601,0.0,6.78456,5.404319999999999,0.40107045659157625,-166.1978676335979,16.002711218003892,24.818293,59.474182,13.018966054803764,105.22254437235071,282.79509180954653,-1.7814142307797816,0.0017903584007641369,0.00530056041608413
2024-08-28T18:26:33+03:00,6.3,289.65,-74.00236938240442,14.21064,25.41067821405201,11.098192491684046,0.0,6.57072,5.50152,0.49847328176381617,-170.20284262156233,14.301026566465348,24.818315,59.47421,13.915792250370183,100.99598736651706,284.414690847535,-1.2533007620653038,0.001812092405559606,0.007112652821643736
2024-08-28T18:26:34+03:00,6.3,289.65,-72.00274667739787,14.502239999999999,21.932824397607913,9.900710699860626,0.0,6.25968,5.50152,0.09740282517223994,-170.70131590332616,16.799122553235737,24.818333,59.474237,13.90690810731142,97.34912648241419,284.58369791519374,-0.8007071600011346,0.001713426688912585,0.008826079510556322
2024-08-28T18:26:35+03:00,6.3,289.65,-72.9996932409255,14.40504,22.167737093611553,7.9984908200262925,0.0,6.7068,5.598719999999999,0.0,-172.20246532656893,18.300271976478495,24.818353,59.474261,13.999724513791184,100.26638496891663,281.90135212469494,-1.1953190674386551,0.001566489833977071,0.010392569344533392
2024-08-28T18:26:36+03:00,6.3,289.65,-72.00274667739787,14.30784,19.57223828166892,7.500017538262475,1.8000042091829944,6.5124,5.69592,0.6990085100596044,-173.19941189009654,18.300271976478495,24.818376,59.47429,13.767597160933647,98.73868667137388,280.83355161029505,-0.9894173820488463,0.0018792441187912643,0.012271813463324656
2024-08-28T18:26:37+03:00,6.3,289.65,-73.99663980445312,14.30784,20.139466498848435,8.502693679741416,2.000023775463165,6.68736,5.79312,-0.6990085100596044,-170.00230739326656,18.197139573354946,24.818398,59.474317,14.02417172057932,101.27831893573106,278.86114756311736,-1.3078808318663875,0.0017564066864239956,0.014028220149748652
2024-08-28T18:26:38+03:00,6.3,289.65,-76.99893865093864,14.21064,20.569184845196556,10.599719209920229,2.499986747494321,7.056719999999999,5.90976,0.6016056848873644,-169.4007017083792,15.699043586584558,24.818416,59.474343,14.37426709824839,105.57616280934127,274.9930220358553,-1.8948640020479484,0.0016566059948175168,0.01568482614456617
2024-08-28T18:26:39+03:00,6.3,289.65,-78.00161479241758,14.696639999999999,26.361788153969176,10.89765726338826,3.30000771683549,7.056719999999999,6.006959999999999,0.20053522829578813,-168.59856079519605,14.301026566465348,24.818446,59.474373,14.922103373678144,105.5548478270342,280.806940326935,-1.8923350666219152,0.0020225045641781426,0.017707330708744314
2024-08-28T18:26:40+03:00,6.3,289.65,-76.99893865093864,14.21064,28.83123625098302,14.398429391637588,3.9999902551468165,7.15392,6.10416,0.8021409131831525,-163.9977097002955,13.200947599814167,24.818481,59.474403,14.400671539170213,105.94869106159794,282.8825451893851,-1.9657285697361737,0.0020960562721997556,0.019803386980944068
2024-08-28T18:26:41+03:00,6.3,289.65,-80.00123749742416,14.094,32.5726506531873,16.701719728063498,3.2000265815851607,7.15392,6.201359999999999,0.8995437383553924,-162.89763073364438,9.001166961505232,24.818512,59.474429,14.656286227438233,108.73230482758454,283.84034582560275,-2.2974599534266456,0.0018270416251793562,0.021630428606123426
2024-08-28T18:26:42+03:00,6.3,289.65,-82.00086020243072,13.802399999999999,32.58983938704122,19.102412889661643,0.9000021045914972,7.40664,6.201359999999999,0.49847328176381617,-159.40258818334632,7.500017538262475,24.81855,59.474458,14.727947384844779,111.86888390607517,280.72095548096604,-2.75885370774675,0.0020938986315063453,0.02372432723762977
2024-08-28T18:26:43+03:00,6.3,289.65,-84.0004829074373,13.608,33.168526760123356,21.30257082296401,0.09998113525032865,7.3094399999999995,6.201359999999999,-0.09740282517223994,-158.49731486703965,5.901465289847479,24.818585,59.474485,14.75848937608254,113.5093002892639,279.65922647085944,-2.91572042315572,0.0019430990524369417,0.02566742629006671
2024-08-28T18:26:44+03:00,6.3,289.65,-84.0004829074373,12.908159999999999,36.291146743586346,21.10203559466822,0.0,6.84288,6.201359999999999,-0.20053522829578813,-159.2994557802228,6.399938571611295,24.818618,59.47451,13.963570277773997,113.1682297403467,283.12291700323965,-2.6922092815620204,0.0018091775711619542,0.027476603861228664
2024-08-28T18:26:45+03:00,6.3,289.65,-82.00086020243072,11.80008,37.66051587394901,20.09935945318928,0.0,6.78456,6.10416,-1.1000789666511805,-159.90106146511013,8.10162322314984,24.818655,59.474533,12.766776610839159,113.75345522321126,283.9070606507378,-2.7328335704968216,0.0017852906422044248,0.029261894503433087
2024-08-28T18:26:46+03:00,6.3,289.65,-84.99742947096492,10.808639999999999,36.0505044696314,20.798367963248886,0.0,6.59016,6.006959999999999,-0.29793805346802804,-159.00151772675477,9.098569786677473,24.818692,59.474556,12.158709512992623,117.67744897869119,278.3730554909402,-3.0610866686877527,0.00178529015555287,0.031047184658985958
2024-08-28T18:26:47+03:00,6.3,289.65,-87.00278175392282,10.692,34.88740014551583,21.30257082296401,1.200002806121996,6.5124,6.006959999999999,-0.09740282517223994,-158.30250921669514,8.10162322314984,24.818725,59.47458,12.224917328089813,119.14255788523133,275.7448422602845,-3.171436311493921,0.0017595696372097714,0.03280675429619573
2024-08-28T18:26:48+03:00,6.3,289.65,-87.99972831745043,10.90584,31.690295648685836,21.89844692990006,0.0,6.78456,5.90976,-0.6990085100596044,-157.9014387601036,7.9984908200262925,24.81876,59.474607,12.641296577707916,120.43667090351386,271.253624745172,-3.4369610316240773,0.0019430969298143289,0.034749851226010056
2024-08-28T18:26:49+03:00,6.3,289.65,-87.00278175392282,10.692,33.357602832516534,21.39997364813625,0.0,6.9984,6.006959999999999,0.09740282517223994,-159.098920551927,8.19902604832208,24.818796,59.474635,12.468819047636686,121.09346247982046,272.2641403526961,-3.6142230735071297,0.0020101026686557893,0.036759953894665846
2024-08-28T18:26:50+03:00,6.3,289.65,-84.0004829074373,10.303199999999999,33.00809857748673,20.00195662801704,0.0,7.32888,5.90976,0.29793805346802804,-160.10159669340592,10.198648753328653,24.818829,59.474658,12.003482747825926,121.38914369767066,271.6189548798161,-3.8172317075372377,0.001710635123157308,0.03847058901782315
2024-08-28T18:26:53+03:00,6.3,289.65,-80.00123749742416,10.206,35.99893826806962,19.497753768301912,0.0,6.7068,5.90976,-0.20053522829578813,-159.49999100851855,10.101245928156414,24.818944,59.474738,11.197062884858777,116.14979609523459,279.84914217283506,-2.95581743927648,0.0017287904370111118,0.04019937945483426
2024-08-28T18:26:54+03:00,6.3,289.65,-78.00161479241758,9.992159999999998,31.787698473858068,20.20249185631283,0.0,6.492959999999999,5.79312,-0.8995437383553924,-160.69747280034198,7.700552766558264,24.818969,59.474763,10.725077608211723,114.31304345428774,277.4746550195703,-2.6732933733859325,0.0016854164548252759,0.04188479590965954
2024-08-28T18:26:55+03:00,6.3,289.65,-78.00161479241758,9.992159999999998,30.67043077335297,16.501184499767707,0.0,6.68736,5.79312,-0.6990085100596044,-164.50191256001065,8.502693679741416,24.819001,59.474787,10.806568563147774,115.25236971933984,275.41806105401315,-2.852868884961452,0.001742265341604633,0.04362706125126417
2024-08-28T18:26:56+03:00,6.3,289.65,-78.00161479241758,9.60336,32.068447793472174,17.801798694714677,0.0,6.97896,5.69592,0.49847328176381617,-161.09854325693357,10.89765726338826,24.819036,59.474814,10.633203133317963,117.94257302111689,274.1258747723553,-3.270245446947548,0.0019430933300438192,0.04557015458130799
2024-08-28T18:26:57+03:00,6.3,289.65,-76.99893865093864,9.097919999999998,30.510002590716336,18.197139573354946,0.300000701530499,6.68736,5.598719999999999,0.20053522829578813,-162.70282508329987,9.602772646392598,24.819067,59.474841,10.00590884469379,117.63173824586562,272.8782643448507,-3.1015097286457878,0.0018787083253440032,0.04744886290665199
2024-08-28T18:26:58+03:00,6.3,289.65,-76.99893865093864,9.00072,30.95118009296707,15.601640761412316,0.0,7.1928,5.598719999999999,0.0,-165.0003858417745,12.100868633162985,24.819101,59.474869,10.179398920576109,120.5096726859372,270.44150740702986,-3.6516681527998576,0.001977373829175846,0.049426236735827835
2024-08-28T18:26:59+03:00,6.3,289.65,-76.99893865093864,9.408959999999999,32.652864744505614,15.49850835828877,0.0,6.82344,5.598719999999999,0.8995437383553924,-164.7998506134787,14.398429391637588,24.819136,59.474897,10.305394975335913,117.17587370326622,275.4769910412394,-3.1164244991776733,0.0019935690808989283,0.05141980581672676
2024-08-28T18:27:00+03:00,6.3,289.65,-76.99893865093864,9.408959999999999,30.452706811203257,13.899956109873772,0.0,6.62904,5.598719999999999,0.40107045659157625,-166.30100003672143,14.702097023056925,24.819165,59.474922,10.218071553921007,116.20610146867128,274.246605342532,-2.927393344495275,0.0017441181102550427,0.053163923926981806
2024-08-28T18:27:01+03:00,6.3,289.65,-78.00161479241758,9.195120000000001,31.231929412581177,12.198271458335228,0.0,6.318,5.598719999999999,0.20053522829578813,-169.2001664800834,15.899578814880346,24.819187,59.474945,10.015657538842744,116.10127709437873,275.13065231820246,-2.779662139257358,0.00153699710815291,0.054700921035134714
2024-08-28T18:27:02+03:00,6.3,289.65,-73.99663980445312,9.89496,25.519540195126865,10.50231638474799,0.6999825383113268,6.1236,5.598719999999999,1.1974817918234204,-168.9022284266154,15.601640761412316,24.819209,59.47497,10.099436268027608,109.64667698315598,275.87286321197087,-2.0588701877354008,0.0016459652109735523,0.056346886246108265
2024-08-28T18:27:03+03:00,6.3,289.65,-76.001992087411,10.5948,25.519540195126865,12.398806686631014,0.0,5.96808,5.69592,-1.1974817918234204,-167.69901705684066,13.802553284701533,24.819224,59.474996,10.829510248138776,108.32752386174182,277.192016333385,-1.8766538435073057,0.0016285141275033744,0.05797540037361164
2024-08-28T18:27:04+03:00,6.3,289.65,-72.9996932409255,11.39184,18.581021296092597,9.29910501497326,0.3999818367808277,6.39576,5.598719999999999,0.8021409131831525,-171.89879769514957,11.401860123103383,24.819241,59.475023,11.317019081620218,105.71398722888704,272.86703406720557,-1.7321985587808624,0.0017038764857273544,0.05967927685933899
2024-08-28T18:27:05+03:00,6.3,289.65,-74.99931594593207,11.89728,23.829314699490936,8.800631733209444,0.0,6.95952,5.69592,-0.49847328176381617,-170.7987187284984,12.79987714322259,24.819265,59.475055,12.129228282003274,108.65687752945931,275.1724371700316,-2.2263504607742477,0.0020582784561622865,0.06173755531550128
2024-08-28T18:27:06+03:00,6.3,289.65,-72.00274667739787,11.99448,24.79188379531072,8.898034558381685,0.600001403060998,6.97896,5.79312,0.29793805346802804,-170.90185113162195,11.201324894807593,24.819287,59.475089,11.867858332525905,106.00895815552374,278.782925639787,-1.9247109432920457,0.0021512015869584135,0.0638887569024597
2024-08-28T18:27:07+03:00,6.2,289.65,-71.00007053591892,12.30552,19.64099321708462,10.800254438216017,1.8000042091829944,6.901199999999999,5.79312,0.29793805346802804,-168.59856079519605,9.700175471564837,24.81931,59.47512,11.989838510617473,103.97204957114965,275.668943645935,-1.6662845977826282,0.001991252561809371,0.06588000946426907
2024-08-28T18:27:08+03:00,6.2,289.65,-72.00274667739787,12.091679999999998,21.10203559466822,11.201324894807593,0.600001403060998,6.7068,5.79312,-0.09740282517223994,-168.79909602349184,8.697499330085895,24.819334,59.475147,11.87757995617803,104.48459525516284,276.6174403395054,-1.6775027732932584,0.0017806433154897864,0.06766065277975886
2024-08-28T18:27:09+03:00,6.2,289.65,-69.99739439443997,12.091679999999998,21.45153984969802,10.198648753328653,0.9999832398418258,6.4152,5.79312,-0.09740282517223994,-170.20284262156233,9.602772646392598,24.819355,59.475171,11.588593889662697,101.34207699067086,280.1094628590272,-1.2616532443686646,0.0015786336466667372,0.0692392864264256
2024-08-28T18:27:10+03:00,6.1,289.65,-67.9977716894334,12.091679999999998,21.921365241705296,11.201324894807593,0.600001403060998,6.454079999999999,5.79312,-0.29793805346802804,-168.10008751343221,10.599719209920229,24.819376,59.475195,11.37493501492397,99.73814985498467,282.18321538672063,-1.091679644110451,0.0015786334609573425,0.07081791988738294
2024-08-28T18:27:11+03:00,6.1,289.65,-67.00082512590576,11.80008,24.95804155589866,11.900333404867197,0.9000021045914972,6.6679200000000005,5.69592,0.20053522829578813,-167.89955228513642,9.29910501497326,24.819401,59.475221,11.055230715069891,100.72547945729295,284.23256209860574,-1.2409236853837715,0.0017392161059791428,0.07255713599336208
2024-08-28T18:27:12+03:00,6.1,289.65,-67.9977716894334,11.80008,25.662779643909573,11.900333404867197,0.0,6.95952,5.69592,-1.0026761414789407,-168.39802556690026,8.898034558381685,24.819428,59.475251,11.23135476578533,103.0638911158219,282.5988885280877,-1.5731121149594463,0.001982700689466189,0.07453983668282826
2024-08-28T18:27:13+03:00,6.1,289.65,-69.00044783091235,11.99448,23.330841417727125,10.800254438216017,0.0,6.53184,5.69592,0.0,-169.29756930525565,10.50231638474799,24.819456,59.475281,11.41841580563528,101.2800226118719,282.0508188058552,-1.2776554699988125,0.0019955858802242258,0.07653542256305249
2024-08-28T18:27:14+03:00,6.1,289.65,-69.99739439443997,11.99448,26.138334613868157,10.198648753328653,0.0,6.045839999999999,5.69592,0.20053522829578813,-169.89917499014302,12.79987714322259,24.819483,59.475307,11.437184311506716,99.78096812202872,286.35736649183946,-1.0270804059238035,0.0017668620983081777,0.07830228466136066
2024-08-28T18:27:15+03:00,6.1,289.65,-69.99739439443997,11.89728,24.809072529164645,9.797578296737077,0.0,6.0264,5.69592,0.40107045659157625,-170.90185113162195,12.89727996839483,24.819509,59.475333,11.349558522770138,99.92799576926018,284.88107675990443,-1.0390141685276697,0.00175282705230558,0.08005511171366624
2024-08-28T18:27:16+03:00,6.1,289.65,-69.99739439443997,11.89728,25.571106396688638,8.800631733209444,0.0,6.318,5.69592,-0.20053522829578813,-171.10238635991774,12.301403861458775,24.819537,59.475361,11.40345143311585,101.37133065945359,284.19977573723503,-1.245699924959872,0.0018876595942818233,0.08194277130794805
2024-08-28T18:27:17+03:00,6.1,289.65,-69.99739439443997,11.702879999999999,20.660858092417484,8.697499330085895,1.1000216708716675,6.62904,5.69592,0.6990085100596044,-171.60085964168155,10.3017811564522,24.819559,59.475389,11.306099053331648,103.42997973647114,277.23087835594634,-1.5396400945509012,0.0018120837176194915,0.08375485502556755
2024-08-28T18:27:18+03:00,6.1,289.65,-67.9977716894334,11.80008,18.048170546620934,8.502693679741416,0.3999818367808277,6.10416,5.598719999999999,-1.3980170201192088,-171.49772723855799,8.600096504913656,24.819578,59.475416,11.069415261447137,98.74701385432124,279.3011566922997,-0.9282710533560802,0.0017234544187694528,0.085478309444337
2024-08-28T18:27:19+03:00,6.1,289.65,-67.9977716894334,12.091679999999998,19.990497472114424,8.30215845144563,0.0,5.96808,5.598719999999999,0.40107045659157625,-171.89879769514957,9.700175471564837,24.819599,59.47544,11.302884333170617,97.30932356980568,282.68117390230873,-0.7592950351027326,0.0015786315727531865,0.08705694101709019
2024-08-28T18:27:20+03:00,6.1,289.65,-67.00082512590576,12.30552,22.030227222780155,7.402614713090236,2.1000049107134933,6.18192,5.598719999999999,0.6016056848873644,-172.50040338003691,10.800254438216017,24.819626,59.475467,11.410380381088107,96.91581352312298,285.1144136996572,-0.7443701388463477,0.0018202420032519852,0.08887718302034217
2024-08-28T18:27:21+03:00,6.1,289.65,-67.9977716894334,12.20832,24.79188379531072,7.797955591730505,0.0,6.14304,5.598719999999999,-0.40107045659157625,-172.79834143350496,11.997736230039438,24.81965,59.475491,11.427443655152349,97.89313005656943,286.8987537387413,-0.8435977587248318,0.0016179926407343741,0.09049517566107655
2024-08-28T18:27:22+03:00,6.1,289.65,-65.99814898442683,11.99448,22.3396244321508,4.400315866604722,0.0,6.318,5.598719999999999,0.20053522829578813,-176.70018401834588,14.10049133816956,24.819668,59.475518,11.051437956800989,97.48195628764323,284.85766814450756,-0.822691785164092,0.0017134200059727453,0.0922085956670493
2024-08-28T18:27:23+03:00,6.1,289.65,-65.99814898442683,11.80008,22.04168637868277,3.5981749534215695,0.0,6.55128,5.598719999999999,1.0026761414789407,-176.99812207181392,17.498131063295343,24.819688,59.475546,10.921104855303783,99.22831574773608,282.8133706309467,-1.0506223132449517,0.0017903499931337275,0.09399894566018302
2024-08-28T18:27:24+03:00,6.1,289.65,-63.99852627942025,11.702879999999999,13.859849064214615,359.8977094334753,0.0,6.804,5.598719999999999,0.40107045659157625,178.40186866988444,17.498131063295343,24.819701,59.475579,10.650648151788271,99.04028584965155,274.81956321456306,-1.069104970619429,0.002022869490414577,0.0960218151505976
2024-08-28T18:27:25+03:00,6.1,289.65,-61.99890357441368,12.20832,9.849144498298852,355.6005259699941,0.0,6.8623199999999995,5.69592,0.6016056848873644,173.4973499435646,18.002333923010465,24.819711,59.47561,10.838333338755808,95.98798879996038,273.8611556983385,-0.715877046634876,0.0018881830351808924,0.09790999818577849
2024-08-28T18:27:26+03:00,6.1,289.65,-59.999280869407116,12.79152,9.018355695359158,350.002728311566,0.0,6.454079999999999,5.69592,0.8995437383553924,168.19749033860447,16.902254956359283,24.819718,59.475638,11.077853782152216,90.3009191951328,278.71743650022637,-0.033896870707667864,0.00169652940872724,0.09960652759450572
2024-08-28T18:27:27+03:00,6.1,289.65,-56.99698202292161,13.5108,9.482451509415124,347.40149992167204,0.0,6.201359999999999,5.69592,-0.49847328176381617,165.99733240530213,15.29797312999298,24.819724,59.475665,11.389716957731318,84.16590239437411,285.316549115041,0.6303580003987993,0.001633212832875477,0.1012397404273812
2024-08-28T18:27:28+03:00,6.1,289.65,-54.00041275438739,15.10488,357.38815429080233,340.4973584903456,0.0,6.27912,5.598719999999999,-0.40107045659157625,159.5973938336908,11.900333404867197,24.819719,59.475689,12.493536430647953,77.99219174790963,279.3959625428927,1.306339461099226,0.0014506386421826174,0.10269037906956381
2024-08-28T18:27:30+03:00,6.1,289.65,-52.00079004938082,15.70752,348.6219000253007,340.8984289469372,4.6999727934581434,6.1236,5.598719999999999,0.09740282517223994,161.40221088835293,11.699798176571411,24.819699,59.475745,12.875947393658029,74.01086818847537,274.6110318368253,1.6867763193699445,0.003420961588111088,0.1061113406576749
2024-08-28T18:27:31+03:00,6.1,289.65,-50.99811390790188,15.70752,351.7101425410558,342.80064882677146,6.699996568921307,5.94864,5.598719999999999,-0.20053522829578813,164.50191256001065,11.699798176571411,24.819692,59.475771,12.825847487696494,72.12480675771074,279.58533578334504,1.8259028484503477,0.0015773441018789537,0.10768868475955386
2024-08-28T18:27:33+03:00,6.1,289.65,-52.00079004938082,15.610319999999998,358.6372022841875,347.40149992167204,2.6000251785241626,6.37632,5.50152,0.20053522829578813,168.300622741728,10.702851613043778,24.819689,59.475829,12.719287008192945,75.26943397821144,283.367768305976,1.6213319086457878,0.0034874503703584145,0.11117613512991227
2024-08-28T18:27:34+03:00,6.1,289.65,-52.997736612908454,15.20208,4.6810651862188255,349.49852545185087,1.2999839413723246,6.27912,5.50152,0.49847328176381617,170.00230739326656,12.301403861458775,24.819697,59.475858,12.47522469937815,76.69869006657638,287.9823751196425,1.4446496123561634,0.0017601502790908267,0.11293628540900309
2024-08-28T18:27:35+03:00,6.2,289.65,-52.997736612908454,14.91048,5.391532852181046,350.7991396467978,0.09998113525032865,6.37632,5.50152,-0.49847328176381617,171.60085964168155,14.702097023056925,24.819709,59.475886,12.187697013838457,77.69445958752043,287.6970732646606,1.3589523332119904,0.0017224261876724524,0.11465871159667554
2024-08-28T18:27:36+03:00,6.2,289.65,-52.997736612908454,14.696639999999999,7.121865393476132,351.80181578827677,2.499986747494321,6.74568,5.50152,1.1974817918234204,172.70093860833276,15.49850835828877,24.819722,59.47592,11.923199882198595,79.85846026518563,287.2634051282905,1.187782368667145,0.0020818416403033464,0.11674055323697889
2024-08-28T18:27:37+03:00,6.2,289.65,-54.00041275438739,14.59944,8.628744394670198,354.5004470033429,2.199986045963822,6.68736,5.50152,-0.29793805346802804,175.19903459510311,15.401105533116528,24.819741,59.47595,11.962132345207403,80.89038213471363,287.73836225995655,1.0587683520276108,0.0018942272431780734,0.11863478048015696
2024-08-28T18:27:38+03:00,6.2,289.65,-52.997736612908454,14.59944,10.737229080751627,356.20213165488144,2.499986747494321,6.337439999999999,5.50152,0.29793805346802804,177.30178970323325,14.197894163341799,24.819754,59.475978,11.91374848889687,78.13676981119721,292.60045926955445,1.3028267103438727,0.0017291764724062348,0.1203639569525632
2024-08-28T18:27:39+03:00,6.2,289.65,-54.99735931791503,14.502239999999999,13.808282862652838,357.69755150017295,1.7000230739326654,6.6095999999999995,5.50152,-0.09740282517223994,177.80026298499706,13.298350424986406,24.819764,59.476006,12.00147248711485,81.8128617231146,291.9954211395383,0.9412516265350618,0.0017104803501362253,0.12207443730269943
2024-08-28T18:27:40+03:00,6.2,289.65,-56.00003545939396,14.40504,16.89079580045667,359.1987009234157,0.8000209693411684,6.97896,5.598719999999999,0.8021409131831525,-179.39881523341205,13.802553284701533,24.819781,59.476038,11.990720574991018,84.85047961651578,292.0403161839409,0.6263975012401753,0.0019922338003901573,0.12406667110308958
2024-08-28T18:27:41+03:00,6.3,289.65,-56.99698202292161,14.502239999999999,17.200193009827313,0.8021409131831525,0.6999825383113268,7.056719999999999,5.598719999999999,0.8995437383553924,-179.8972885151759,12.702474318050351,24.819801,59.476071,12.191325290424308,86.03776983291081,291.1624231769165,0.4876112825731544,0.0020754005702302925,0.12614207167331987
2024-08-28T18:27:42+03:00,6.3,289.65,-58.99660472792817,14.40504,17.572615576662347,359.8977094334753,0.0,7.17336,5.598719999999999,-0.09740282517223994,-179.59935046170784,12.398806686631014,24.819822,59.4761,12.34955024232372,88.85621336132668,288.7164022153357,0.14319114684036902,0.0018572802969029564,0.12799935197022283
2024-08-28T18:27:43+03:00,6.3,289.65,-61.00195701088606,14.40504,13.831201174458073,1.3980170201192088,0.0,6.88176,5.598719999999999,0.29793805346802804,-178.00079821329285,12.599341914926804,24.819837,59.476128,12.599579329553347,89.5383773501597,284.29282382429835,0.055444605956600175,0.0017442022479257659,0.1297435542181486
2024-08-28T18:27:44+03:00,6.3,289.65,-61.99890357441368,14.30784,16.340756317131078,1.9996227050065731,0.0,6.39576,5.598719999999999,0.29793805346802804,-178.99774477682047,10.702851613043778,24.819851,59.476155,12.63703735314221,88.54169601097328,287.7990603061578,0.16276862639270673,0.0016782436705325187,0.1314217978886811
2024-08-28T18:27:45+03:00,6.3,289.65,-61.99890357441368,14.40504,18.941984707025018,359.3992361517115,0.0,6.37632,5.69592,-0.49847328176381617,179.1982800051163,11.499262948275621,24.819871,59.476182,12.72464260497196,88.25861159523839,290.68337311178664,0.19376541204409217,0.0017339629422405143,0.13315576083092162
2024-08-28T18:27:46+03:00,6.3,289.65,-61.99890357441368,14.094,16.971009891774983,0.8021409131831525,0.0,6.492959999999999,5.69592,0.40107045659157625,-178.79720954852468,14.301026566465348,24.81989,59.476209,12.444754640820651,89.42904565340415,287.54196423837084,0.06470149129700528,0.0017234498354876855,0.13487921066640932
2024-08-28T18:27:47+03:00,6.3,289.65,-61.99890357441368,14.094,11.63104324115571,0.6990085100596044,0.300000701530499,6.045839999999999,5.69592,0.8021409131831525,-179.7024828648314,14.702097023056925,24.819899,59.476237,12.45723602457689,87.3722234353098,284.2588198058459,0.27718529651196505,0.0017052958690403227,0.13658450653544965
2024-08-28T18:27:48+03:00,6.3,289.65,-59.999280869407116,13.608,14.931280141109253,359.5997713800073,0.0,5.98752,5.598719999999999,0.29793805346802804,179.39881523341205,15.29797312999298,24.819911,59.476263,11.813048561550842,86.03602070704247,288.8952594340668,0.41391313516947864,0.0016051640762585208,0.13818967061170817
2024-08-28T18:27:49+03:00,6.3,289.65,-59.999280869407116,13.7052,11.361753077444225,0.40107045659157625,0.0,6.14304,5.598719999999999,-0.49847328176381617,-179.7024828648314,16.902254956359283,24.819923,59.476291,11.890165070893705,86.57805314347304,284.7836999339712,0.3666703167411916,0.001722425252800335,0.1399120958645085
2024-08-28T18:27:50+03:00,6.3,289.65,-58.99660472792817,13.802399999999999,11.000789666511807,357.80068390329643,0.0,6.27912,5.69592,1.1000789666511805,176.60278119317363,17.60126346641889,24.819932,59.47632,11.859648229692288,85.9852029103039,285.0155867562079,0.43962693714007023,0.0017646447446349417,0.14167674060914345
2024-08-28T18:27:51+03:00,6.3,289.65,-58.99660472792817,13.8996,12.08940947726037,357.69755150017295,0.9999832398418258,6.201359999999999,5.69592,-1.0026761414789407,178.60240389818023,19.801421399721253,24.819944,59.476348,11.952326532436839,85.40189718701203,286.6875122902484,0.49713772210603646,0.0017224251213314493,0.1433991657304749
2024-08-28T18:27:52+03:00,6.3,289.65,-57.99965816440055,14.094,10.977871354706574,0.20053522829578813,4.099971390397145,6.39576,5.79312,1.3006141949469687,-178.90034195164822,16.799122553235737,24.819954,59.476378,12.000411377663207,84.87015862468891,286.1077127300177,0.5718644285311195,0.001828890849217685,0.1452280565796926
2024-08-28T18:27:53+03:00,6.3,289.65,-59.999280869407116,14.30784,15.189111148918125,2.8017636181897254,3.30000771683549,5.98752,5.79312,-0.40107045659157625,-176.4022459648779,11.401860123103383,24.819964,59.476405,12.445655494682736,84.62165994666745,290.5674512022507,0.5612219070679624,0.0016513719324114796,0.14687942851210406
2024-08-28T18:27:54+03:00,6.3,289.65,-61.00195701088606,14.696639999999999,15.29797312999298,2.6986312150661775,1.1000216708716675,6.24024,5.90976,-0.09740282517223994,-177.5997277567013,7.901087994854052,24.81998,59.476444,12.884602352247356,86.06414833405884,289.23382479593414,0.42832731483314507,0.002394548781683922,0.14927397729378797
2024-08-28T18:27:55+03:00,6.3,289.65,-63.99852627942025,15.007679999999999,18.237246619014105,3.701307356545118,0.5000202678106694,6.201359999999999,5.90976,0.6016056848873644,-175.89804310516274,9.900710699860626,24.819996,59.476475,13.49393740824023,88.39512366487011,289.842122954144,0.17367971309962515,0.0019262965325753992,0.15120027382636336
2024-08-28T18:27:56+03:00,6.3,289.65,-65.0012024208992,14.59944,18.552373406336056,5.202456779787875,0.0,6.454079999999999,5.79312,0.0,-174.59742891021577,12.301403861458775,24.820017,59.476505,13.234771013708194,91.23117540044252,287.3211980058935,-0.13867501425935727,0.0019138034319651394,0.1531140772583285
2024-08-28T18:27:57+03:00,6.3,289.65,-65.99814898442683,13.9968,20.55772568929394,3.9018425848409057,0.0,7.03728,5.79312,-0.6016056848873644,-177.1986573001097,13.802553284701533,24.820039,59.476539,12.856954336977115,95.99972122409814,284.55800446519584,-0.7355620112578566,0.0021511925872816453,0.15526526984561015
2024-08-28T18:27:58+03:00,6.3,289.65,-65.99814898442683,13.9968,18.649776231508298,3.002298846485514,0.0,7.1150400000000005,5.79312,0.6016056848873644,-176.4996487900501,15.29797312999298,24.820062,59.476574,12.86531452560412,96.34413115265674,282.30564507885157,-0.7862109303297591,0.0022178502885433398,0.1574831201341535
2024-08-28T18:27:59+03:00,6.3,289.65,-63.99852627942025,13.608,15.412564689019145,2.498095986770389,0.0,6.84288,5.79312,-0.29793805346802804,-179.1982800051163,14.398429391637588,24.820074,59.476604,12.262053433215524,94.1023674221749,281.3101972668443,-0.48953045094847464,0.0018400671264721803,0.15932318726062566
2024-08-28T18:28:00+03:00,6.3,289.65,-63.001579715892625,13.608,14.432806859345437,357.80068390329643,0.0,6.4152,5.79312,0.8021409131831525,176.00117550828628,14.501561794761136,24.820087,59.47663,12.127315496866595,91.1227676838848,283.31003917546064,-0.12570416764239284,0.0016124043922826612,0.16093559165290833
2024-08-28T18:28:01+03:00,6.3,289.65,-61.99890357441368,14.21064,9.791848718785769,358.0012191315923,0.0,6.5124,5.69592,-0.29793805346802804,178.69980672335248,16.902254956359283,24.820099,59.476657,12.548134317702592,89.27246025947659,280.5193884593092,0.08269199794772628,0.0016637410479865321,0.16259933270089486
2024-08-28T18:28:02+03:00,6.2,289.65,-58.99660472792817,13.9968,8.210485204224698,357.39961344670496,0.0,6.1624799999999995,5.79312,1.1000789666511805,176.20171073658207,14.501561794761136,24.820107,59.476683,12.042781622254498,85.01185214928338,283.1986330549413,0.5358255963240343,0.0015817684366256494,0.1641811011375205
2024-08-28T18:28:03+03:00,6.2,289.65,-58.99660472792817,14.21064,8.170378158565539,354.90151745993455,0.0,6.25968,5.79312,-0.8021409131831525,174.09895562845193,14.799499848229162,24.820114,59.476712,12.226503658060517,85.0260955810306,283.1442825775349,0.5427268570718291,0.0017561738459604774,0.16593727498348096
2024-08-28T18:28:04+03:00,6.2,289.65,-57.99965816440055,14.40504,6.961437210839502,352.3976918952128,0.0,6.24024,5.79312,1.1974817918234204,171.49772723855799,16.799122553235737,24.820123,59.476742,12.295324991370494,83.49310183650324,283.4683353743363,0.7071616859572666,0.0018240429020358769,0.16776131788551685
2024-08-28T18:28:05+03:00,6.2,289.65,-57.99965816440055,14.502239999999999,5.907194867798787,351.2002101033894,0.0,6.37632,5.79312,-0.20053522829578813,170.7987187284984,17.498131063295343,24.82013,59.476771,12.367992525861416,83.92564006576457,281.9815548020342,0.674736385898393,0.00175617379979788,0.16951749168531471
2024-08-28T18:28:06+03:00,6.2,289.65,-56.00003545939396,14.40504,6.411397727513911,350.70173682162556,3.099988150555319,6.92064,5.79312,0.20053522829578813,171.10238635991774,16.39805209664416,24.82014,59.476803,11.996095717001667,84.57305467496563,281.8383430525483,0.6545299116894362,0.0019475224413397268,0.17146501412665444
2024-08-28T18:28:07+03:00,6.2,289.65,-56.99698202292161,14.59944,6.881223119521186,353.69830609015975,2.499986747494321,6.8623199999999995,5.69592,0.6990085100596044,174.00155280327974,16.501184499767707,24.820151,59.476835,12.292102677034125,84.91379555094348,281.9674275685777,0.6083753407134418,0.0019525405301616305,0.17341755465681608
2024-08-28T18:28:08+03:00,6.2,289.65,-57.99965816440055,14.696639999999999,6.789549872300254,353.1024299832237,0.0,6.4152,5.69592,-0.49847328176381617,172.90147383662853,16.501184499767707,24.820159,59.476864,12.538799388031153,83.71392715039397,283.07562272190626,0.7024175764835914,0.0017601492691740786,0.17517770392599016
2024-08-28T18:28:09+03:00,6.2,289.65,-57.99965816440055,14.79384,5.958761069360561,352.19715666691707,0.0,6.59016,5.69592,0.49847328176381617,171.80139486997734,17.200193009827313,24.820162,59.476893,12.60790496926994,84.31259709285001,281.64616397651054,0.6530912727371208,0.0017455280162452312,0.1769232319422354
2024-08-28T18:28:10+03:00,6.2,289.65,-57.99965816440055,14.79384,7.207809062745755,352.9992975801002,0.0,6.74568,5.79312,-0.8021409131831525,173.60048234668815,16.902254956359283,24.820167,59.476925,12.593443671073366,85.01669355470702,282.1911155080387,0.5859668003519255,0.0019294939245413404,0.17885272586677672
2024-08-28T18:28:11+03:00,6.2,289.65,-57.99965816440055,14.696639999999999,5.529042723012444,352.9018947549279,0.0,6.454079999999999,5.90976,0.40107045659157625,172.59780620520917,15.699043586584558,24.820176,59.476953,12.534601888303362,83.89057973595341,281.63846298705903,0.6868919451287253,0.0017052949307983186,0.18055802079757505
2024-08-28T18:28:12+03:00,6.2,289.65,-58.99660472792817,14.79384,7.041651302157818,349.8995959084425,0.0,6.39576,6.006959999999999,1.0026761414789407,168.79909602349184,15.20057030482074,24.820183,59.476981,12.739318866738197,84.4847607247934,282.5568905773644,0.6146996924796446,0.0016965283393426734,0.18225454913691772
2024-08-28T18:28:15+03:00,6.1,289.65,-56.00003545939396,14.91048,357.9381937741279,344.8002715317781,0.0,6.8623199999999995,6.006959999999999,-0.09740282517223994,163.60236882165526,16.100114043176134,24.820206,59.477088,12.44910343354337,83.1931229690071,274.7450708051208,0.8133437824275008,0.0021647389808244462,0.18441928811774216
2024-08-28T18:28:16+03:00,6.1,289.65,-54.00041275438739,15.20208,357.6517148765625,340.4973584903456,0.0,6.95952,6.006959999999999,1.1000789666511805,159.5973938336908,15.20057030482074,24.820205,59.477122,12.45652411355507,80.8727477276712,276.7789671488913,1.1039726834587935,0.0020438903518442595,0.18646317846958643
2024-08-28T18:28:17+03:00,6.1,289.65,-54.00041275438739,15.396479999999999,350.98821571919103,338.1023949066988,0.0,6.55128,5.90976,0.09740282517223994,156.19975410856503,14.902632251352712,24.820195,59.477153,12.704179680715487,78.65805670179434,272.3301590173967,1.2884005978673305,0.0018881807806946475,0.18835135925028107
2024-08-28T18:28:18+03:00,6.1,289.65,-50.99811390790188,15.29928,346.6222773202941,332.80253530173866,0.0,6.68736,5.90976,1.1000789666511805,150.6019564501369,13.401482828109954,24.820177,59.477188,12.247845618310837,76.10528036327976,270.5169969570143,1.6058931376475527,0.0021743494125101145,0.19052570866279117
2024-08-28T18:28:19+03:00,6.1,289.65,-50.00116734437425,15.20208,338.0622878610396,327.50267569677857,0.0,6.2208000000000006,5.90976,-0.20053522829578813,145.10156161688099,12.79987714322259,24.820157,59.477218,12.174927121479747,73.04395381877693,265.01833404226267,1.8142216718126738,0.0019037901612247237,0.1924294988240159
2024-08-28T18:28:20+03:00,6.2,289.65,-46.0019219343611,15.396479999999999,330.48205623145884,320.59853426545214,0.0,5.81256,5.69592,-0.40107045659157625,137.20047362202695,10.89765726338826,24.820133,59.47724,12.104036363358714,66.2111990091737,264.27085722228514,2.344591698481162,0.0015117719112354702,0.19394127073525136
2024-08-28T18:28:21+03:00,6.2,289.65,-42.999623087875584,15.49368,324.64934587702703,315.9002803453794,0.0,5.46264,5.69592,-1.1974817918234204,135.20085091702038,10.198648753328653,24.820104,59.477262,12.08699768772987,60.951768747727,263.69757712930004,2.6523613525095007,0.0015913563807219216,0.19553262711597327
2024-08-28T18:28:22+03:00,6.2,289.65,-37.9977015363835,15.901919999999999,323.8185570740874,312.6974462705981,2.7000063137744914,5.443199999999999,5.598719999999999,2.1027551081301215,132.10114924536262,5.001921551492087,24.820075,59.47728,12.08631438126739,54.09417069372816,269.7243863803592,3.192190592161209,0.0013979786087497616,0.19693060572472304
2024-08-28T18:28:23+03:00,6.1,289.65,-39.00037767786244,15.901919999999999,325.0103092879595,313.99806046554505,2.000023775463165,5.0544,5.50152,-2.1027551081301215,134.599245232133,4.297183463481174,24.820045,59.477299,12.389228956151637,53.87734044232742,271.1329688456321,2.979648953932452,0.0014639008792163872,0.19839450660393942
2024-08-28T18:28:24+03:00,6.1,289.65,-37.00075497285587,16.09632,322.59242739250743,315.298674660492,3.6999895536163168,4.704479999999999,5.404319999999999,0.0,136.10039465537574,4.400315866604722,24.820016,59.477317,12.659849813207174,49.9238005219342,272.66862687057323,3.0287716406807306,0.0013979779947452659,0.19979248459868468
2024-08-28T18:28:25+03:00,6.1,289.65,-37.00075497285587,15.901919999999999,325.80099104524004,317.29829736549857,1.2999839413723246,4.62672,5.307119999999999,-0.6016056848873644,137.89948213208652,7.901087994854052,24.81999,59.477334,12.52044630518078,49.85046702722374,275.95052401801627,2.983238146078461,0.0012938782909845974,0.20108636288966927
2024-08-28T18:28:26+03:00,6.1,289.65,-35.00113226784929,15.29928,335.9824510647147,316.3987536271432,0.0,4.6655999999999995,4.996079999999999,1.902219879834333,135.4987889704884,11.900333404867197,24.819967,59.477354,11.785361204527128,48.12602227609659,287.85642878861813,3.114262056263053,0.001392179378040458,0.20247854226770973
2024-08-28T18:28:27+03:00,6.1,289.65,-33.99845612637036,14.91048,338.49773578533905,315.6997451170836,0.0,4.80168,4.89888,-1.1974817918234204,135.0977185138968,13.99735893504601,24.819948,59.477376,11.254595097214418,47.800346643567224,290.69738914177185,3.225365798531758,0.0014439828033982506,0.20392252507110797
2024-08-28T18:28:28+03:00,6.1,289.65,-31.99883342136378,14.59944,330.37892382833536,313.2016491303132,0.0,4.91832,4.80168,1.1000789666511805,132.89756058059447,12.89727996839483,24.819929,59.477397,10.749151693867436,46.03054614618529,284.34837768215004,3.4146654845008904,0.0013891470743301662,0.20531167214543813
2024-08-28T18:28:28+03:00,6.2,289.65,-33.99845612637036,15.007679999999999,325.1420895808396,312.39950821713006,0.2000195662801704,5.151599999999999,4.80168,0.40107045659157625,131.70007878877104,10.800254438216017,24.819902,59.477416,11.116447830469298,49.016997623295964,276.12509195754365,3.3786001248063826,0.0014084180365726727,0.20672009018201082
2024-08-28T18:28:30+03:00,6.3,289.65,-33.99845612637036,15.29928,333.55883959131137,311.5973673039469,2.7999874490248207,4.5684000000000005,4.60728,-0.20053522829578813,132.10114924536262,10.101245928156414,24.819888,59.477436,11.791857873983428,46.509851686349975,287.0489879049614,3.144109207836235,0.0012758649877926103,0.20799595516980343
2024-08-28T18:28:31+03:00,6.3,289.65,-35.00113226784929,15.20208,327.9610419328832,313.9006576403728,0.5000202678106694,4.33512,4.510079999999999,-1.0026761414789407,134.50184240696075,10.800254438216017,24.819872,59.477457,11.913400095109939,47.04862143084634,280.91242050203687,2.953853162151566,0.001353468452746091,0.20934942362254952
2024-08-28T18:28:32+03:00,6.3,289.65,-35.00113226784929,15.396479999999999,332.96869306232657,314.702798553556,2.400005612243992,4.41288,4.393439999999999,1.1000789666511805,135.2982537421926,10.702851613043778,24.819856,59.477477,12.0505455873608,47.12630921674142,285.8423838455851,3.0024548273912344,0.0012975924336883016,0.2106470160562378
2024-08-28T18:28:33+03:00,6.3,289.65,-37.00075497285587,15.007679999999999,335.5928397640258,315.79714794225583,0.5000202678106694,4.41288,4.393439999999999,-0.09740282517223994,135.80245660190772,11.997736230039438,24.819843,59.477495,11.78653495201158,50.02265986333069,285.57017990069517,2.8352074288636815,0.0011524260474643016,0.2117994421037021
2024-08-28T18:28:34+03:00,6.3,289.65,-35.99807883137692,15.007679999999999,337.67840613830197,316.70242125856254,0.0,4.52952,4.29624,0.6016056848873644,136.7020003402631,12.79987714322259,24.819827,59.477517,11.651364090832821,49.20647901218308,288.4719271261189,2.9592939434923404,0.0014096922821509284,0.21320913438585304
2024-08-28T18:28:35+03:00,6.3,289.65,-37.00075497285587,14.696639999999999,336.7272961983848,315.6023422919114,0.6999825383113268,5.03496,4.29624,0.49847328176381617,135.60192137361193,13.802553284701533,24.819814,59.47754,11.097295532964818,52.84686927603991,283.8804269223449,3.040850662287801,0.0014383106756403505,0.21464744506149339
2024-08-28T18:28:36+03:00,6.3,289.65,-37.00075497285587,14.696639999999999,335.0428002807002,316.7998240837348,0.0,4.704479999999999,4.29624,0.40107045659157625,136.7020003402631,15.20057030482074,24.819795,59.477563,11.299958381153434,51.51119109893105,283.5316091817691,2.927888474074449,0.001499221403046309,0.2161466664645397
2024-08-28T18:28:37+03:00,6.3,289.65,-35.99807883137692,14.79384,338.3774146483616,316.1982183988474,0.0,4.82112,4.29624,0.6990085100596044,136.10039465537574,14.501561794761136,24.819779,59.477584,11.255898367543782,50.579066199533145,287.79834844882845,3.0614729087041535,0.0013534677900893931,0.21750013425462908
2024-08-28T18:28:38+03:00,6.3,289.65,-37.00075497285587,14.59944,332.06914932397126,315.6023422919114,0.0,5.09328,4.29624,-0.09740282517223994,135.00031568872456,11.098192491684046,24.819763,59.477609,10.96881014084591,53.22831094299086,278.8408383809804,3.0489793510145295,0.001580080772491596,0.21908021502712066
2024-08-28T18:28:39+03:00,6.3,289.65,-37.00075497285587,14.59944,330.3216280488222,315.00073660702395,1.2999839413723246,4.859999999999999,4.29624,1.1974817918234204,134.599245232133,5.700930061551691,24.819744,59.477629,11.110029625056562,52.264586891649856,278.05704115717236,2.974397561231933,0.0013347638449984801,0.22041497887211914
2024-08-28T18:28:40+03:00,6.3,289.65,-39.00037767786244,15.007679999999999,331.0722027604436,315.6023422919114,2.6000251785241626,4.704479999999999,4.393439999999999,-1.3980170201192088,136.30092988367153,2.498095986770389,24.819721,59.477647,11.731367807805599,53.618198874540454,277.45400388590315,2.7905244018697903,0.0012897951708440202,0.22170477404296315
2024-08-28T18:28:41+03:00,6.3,289.65,-41.00000038286902,14.502239999999999,332.12071552553294,318.10043827868174,1.5999846429028237,4.80168,4.393439999999999,-0.8021409131831525,139.2000963270335,2.2975607584746007,24.819698,59.477668,11.325304343713817,57.150096908564336,274.97061861696864,2.604623854996144,0.001444397698467387,0.22314917174143054
2024-08-28T18:28:42+03:00,6.3,289.65,-41.00000038286902,15.29928,335.58138060812314,319.6989905270967,2.9000258800546614,4.82112,4.29624,0.6990085100596044,140.7986485754485,5.2998596049601145,24.819678,59.477688,12.082090709476745,56.17614805335427,279.4052325547689,2.683635477968705,0.0013483092027042603,0.2244974809441348
2024-08-28T18:28:43+03:00,6.3,289.65,-39.00037767786244,14.59944,344.26742078230643,321.6012104069311,1.4000223724021665,4.74336,4.29624,0.09740282517223994,141.60078948863168,8.697499330085895,24.819666,59.47771,11.314077514682928,54.29847358604384,289.9689471962626,2.768048660372887,0.001372172067959883,0.2258696530120947
2024-08-28T18:28:44+03:00,6.3,289.65,-37.00075497285587,13.8996,343.74029961078605,323.4002978836418,0.9999832398418258,4.68504,4.29624,-0.29793805346802804,144.2020178785256,11.79720100174365,24.819659,59.477734,10.542055457401146,52.51392490008783,291.2263747106982,2.851168224943974,0.0014583262150615812,0.22732797922715628
2024-08-28T18:28:45+03:00,6.3,289.65,-37.00075497285587,13.608,347.4817140129903,324.70091207858883,1.8000042091829944,4.60728,4.19904,0.40107045659157625,145.1989644420532,12.599341914926804,24.819649,59.477755,10.308413900077777,52.60445974467952,294.8772542683108,2.7980656590558524,0.0012986515210705314,0.2286266307482268
2024-08-28T18:28:46+03:00,6.3,289.65,-39.00037767786244,13.39416,347.98018729475416,324.9014473068846,1.1000216708716675,4.74336,4.101839999999999,1.1974817918234204,144.59735875716584,13.200947599814167,24.81964,59.477778,10.156484769814002,56.09271311911202,291.8874741756421,2.646086532630155,0.0014095133993156967,0.2300361441475425
2024-08-28T18:28:47+03:00,6.3,289.65,-39.997324241390075,13.10256,343.8090545462018,326.9010700118912,0.0,4.60728,4.101839999999999,-0.8021409131831525,148.49920134200676,14.501561794761136,24.819629,59.477799,10.02060998125933,57.18632705240955,286.62272749379224,2.4967255113344646,0.0013061644004619024,0.23134230854800442
2024-08-28T18:28:48+03:00,6.3,289.65,-39.00037767786244,12.69432,340.06764014399755,327.89801657541886,0.09998113525032865,4.957199999999999,4.19904,1.501149423242757,147.5022547784791,13.99735893504601,24.819611,59.47782,9.376096844880811,58.434831667882136,281.63280847611543,2.5949356743464103,0.001376677481916811,0.23271898602992122
2024-08-28T18:28:49+03:00,6.4,289.65,-39.00037767786244,13.608,342.50271077330353,327.39954329365503,1.4000223724021665,5.2488,4.19904,0.49847328176381617,147.5022547784791,12.79987714322259,24.819593,59.477843,10.085227585034376,58.1192374657854,284.3834733075181,2.772170813529097,0.0014876757037272168,0.23420666173364843
2024-08-28T18:28:50+03:00,6.4,289.65,-39.00037767786244,13.39416,342.14174736237106,327.8006137502466,0.2000195662801704,5.22936,4.29624,0.09740282517223994,148.00072806024295,10.89765726338826,24.81958,59.477867,9.893594874549086,58.42924956440791,283.7124977979631,2.7378368146879026,0.0014961760003271466,0.23570283773397557
2024-08-28T18:28:51+03:00,6.4,289.65,-39.00037767786244,13.7052,346.1123448826277,329.39916599866154,1.8000042091829944,5.38488,4.393439999999999,0.6016056848873644,150.09775359042175,8.800631733209444,24.819566,59.477889,10.105541817745959,58.59389295388664,287.5184519287411,2.8060642377331564,0.0013897169978945264,0.2370925547318701
2024-08-28T18:28:52+03:00,6.4,289.65,-42.999623087875584,13.5108,344.6627616609467,329.50229840178514,1.1000216708716675,5.151599999999999,4.393439999999999,0.6990085100596044,148.99767462377056,9.20170218980102,24.819554,59.47791,10.357237417371199,62.82884069492968,281.83392096601705,2.3524790055732074,0.0013143432865096749,0.23840689801837978
2024-08-28T18:28:53+03:00,6.4,289.65,-44.999245792882164,13.39416,350.839246692457,330.6023773684363,0.3999818367808277,5.307119999999999,4.510079999999999,-0.49847328176381617,151.90257064508384,11.401860123103383,24.819546,59.477933,10.345974026961485,66.26633957172007,284.5729071207369,2.136039619346459,0.0014038821683483623,0.23981078018672813
2024-08-28T18:28:54+03:00,6.4,289.65,-43.99656965140322,12.59712,350.4897424374272,331.1982534753724,0.0,5.2488,4.60728,0.8995437383553924,151.30096496019647,11.401860123103383,24.819542,59.477944,9.544981885935648,66.45233255892411,284.03740987850307,2.0969579685921182,0.0006723657664208397,0.24048314595314899
2024-08-28T18:28:55+03:00,6.4,289.65,-44.999245792882164,12.402719999999999,349.65895363448743,330.09817450872123,0.0,5.1710400000000005,4.60728,0.20053522829578813,150.09775359042175,11.499262948275621,24.819531,59.477977,9.479735870195178,67.68707338531206,281.97188024917534,1.9632623238567346,0.0020117772841558713,0.24249492323730484
2024-08-28T18:28:56+03:00,6.4,289.65,-44.00229922935453,12.59712,345.71127442603614,328.0011489785424,0.0,5.38488,4.60728,1.1974817918234204,147.5022547784791,11.201324894807593,24.819518,59.478002,9.491932588602413,67.2123959258507,278.49887850018547,2.0856508958444495,0.0015542121185002414,0.24404913535580508
2024-08-28T18:28:57+03:00,6.4,289.65,-44.999245792882164,12.49992,349.5901986990718,327.697481347123,0.0,5.19048,4.704479999999999,-1.3980170201192088,147.1985871470598,13.00041237151838,24.819504,59.478024,9.56205375077062,67.57018982901015,282.02000887006164,1.9804346655299438,0.0013897164726327474,0.24543885182843783
2024-08-28T18:28:58+03:00,6.4,289.65,-42.002676524347955,13.296959999999999,346.1810998180434,325.4973234138207,0.0,5.443199999999999,4.704479999999999,1.9996227050065731,144.29942070369782,12.89727996839483,24.819492,59.47805,9.943208997791766,63.49154385232556,282.68955596571783,2.4294628544246892,0.0016051596527948454,0.24704401148123267
2024-08-28T18:28:59+03:00,6.4,289.65,-42.002676524347955,13.608,342.382389636326,322.70128937358226,0.0,5.346,4.60728,-0.40107045659157625,141.6981923138039,13.602018056405743,24.819476,59.478078,10.277975557211017,62.37141189631967,280.01097774000635,2.479144173952556,0.001752457051677745,0.24879646853291043
2024-08-28T18:29:00+03:00,6.4,289.65,-39.00037767786244,14.40504,341.28231066967487,320.9022018968714,0.0,5.326560000000001,4.704479999999999,1.0026761414789407,140.09964006538888,13.699420881577984,24.819458,59.478102,10.798995733913952,57.08445147756693,284.19785919210796,2.8944648487350904,0.001543691176058401,0.25034015970896883
2024-08-28T18:29:01+03:00,6.4,289.65,-39.00037767786244,14.59944,336.7272961983848,320.00265815851606,0.0,5.307119999999999,4.60728,-0.49847328176381617,139.60116678362508,12.398806686631014,24.819437,59.478122,10.994623796509332,56.684935371682485,280.0423608267023,2.9148961519165666,0.0013624005727100768,0.2517025602816789
2024-08-28T18:29:02+03:00,6.4,289.65,-39.00037767786244,14.696639999999999,336.49811308033253,317.89990305038594,0.0,5.307119999999999,4.60728,0.8021409131831525,138.00261453521009,11.298727719979832,24.819414,59.478144,11.087269771504461,56.53234797310019,279.96576510723236,2.9266967858885766,0.001497206448328068,0.253199766730007
2024-08-28T18:29:03+03:00,6.4,289.65,-39.00037767786244,14.79384,336.17725671505923,321.40067517863525,2.199986045963822,5.443199999999999,4.60728,-1.1000789666511805,142.00185994522323,13.00041237151838,24.819392,59.478167,11.105230717949823,56.96696161915773,279.21029509590153,2.9672110413780874,0.0015369691166768572,0.2547367358466838
2024-08-28T18:29:04+03:00,6.4,289.65,-37.9977015363835,15.007679999999999,337.8216455870847,323.6982359371099,3.099988150555319,4.93776,4.60728,0.29793805346802804,146.00110535523638,14.197894163341799,24.819371,59.478187,11.524680786597502,53.291412640344106,284.53023294674057,2.9515228747570137,0.0013623999922694535,0.2560991358389533
2024-08-28T18:29:05+03:00,6.4,289.65,-42.002676524347955,14.30784,345.3789589048602,328.4996222603062,7.699979808763134,5.1710400000000005,4.510079999999999,0.6990085100596044,149.39874508036215,15.802175989708104,24.81936,59.478208,11.022401085933732,60.29900750166024,285.07995140319997,2.5621143997783613,0.001306163355944447,0.25740529919489774
2024-08-28T18:29:06+03:00,6.4,289.65,-42.999623087875584,14.21064,346.6795730998072,330.000771683549,1.200002806121996,4.7628,4.60728,1.598552248414997,150.8024916784327,13.899956109873772,24.819353,59.478232,11.208315897564571,59.84576028942571,286.8338128103815,2.392495027805864,0.0014583257534434666,0.2588636249483412
2024-08-28T18:29:07+03:00,6.4,289.65,-46.99886849788874,14.094,347.1207506020579,330.6023773684363,1.5999846429028237,4.87944,4.60728,0.09740282517223994,150.49882404701333,13.00041237151838,24.819342,59.478253,11.342160342972313,65.3370644748462,281.7836861272117,2.036089186013147,0.0013061632409411337,0.2601697881892823
2024-08-28T18:29:08+03:00,6.4,289.65,-44.999245792882164,14.79384,345.49928004183766,330.7971830187808,0.0,5.22936,4.60728,0.8021409131831525,150.8998945036049,12.301403861458775,24.819333,59.478276,11.695966505939506,63.42943309877779,282.0698469430599,2.339091147369273,0.0014095126098069694,0.2615793007990893
2024-08-28T18:29:09+03:00,6.4,289.65,-46.0019219343611,14.502239999999999,342.8121079826742,330.000771683549,0.0,5.48208,4.60728,-0.29793805346802804,149.39874508036215,10.599719209920229,24.819321,59.478301,11.398154775623558,66.24394035772312,276.5681676249511,2.208420248415852,0.0015466983209149756,0.2631259991200043
2024-08-28T18:29:10+03:00,6.4,289.65,-43.99656965140322,14.696639999999999,350.300666365034,330.69978019360855,0.9000021045914972,5.307119999999999,4.704479999999999,-0.6990085100596044,151.19783255707296,12.599341914926804,24.819307,59.478323,11.486418554645793,62.71611737130149,287.5845489937325,2.432781511347783,0.0013897153092793468,0.2645157144292836
2024-08-28T18:29:11+03:00,6.4,289.65,-44.999245792882164,14.502239999999999,348.54168593398236,330.40184214014056,0.6999825383113268,4.97664,4.704479999999999,2.2975607584746007,151.1004297319007,15.097437901697193,24.819302,59.478344,11.533140991038982,62.764512423319914,285.77717351066246,2.2775529341761604,0.0012714567368107572,0.2657871711660944
2024-08-28T18:29:12+03:00,6.4,289.65,-48.00154463936767,13.9968,348.1005084317316,331.10085065020013,1.5000035076524951,4.84056,4.704479999999999,-0.20053522829578813,149.89721836212598,17.29759583499955,24.819292,59.478363,11.343447615164912,66.49086951162992,281.6096389201017,1.930876168099297,0.0011821410262551344,0.26696931219234954
2024-08-28T18:29:13+03:00,6.4,289.65,-44.999245792882164,13.9968,345.4018772166655,329.30176317348935,0.0,4.78224,4.80168,0.29793805346802804,149.39874508036215,17.498131063295343,24.819284,59.478384,11.140785619078626,62.668707622669686,282.73316959399585,2.195692848103515,0.0012856691024709472,0.2682549812948205
2024-08-28T18:29:14+03:00,6.4,289.65,-46.0019219343611,13.802399999999999,344.61119545938493,327.1016052401869,0.0,5.2488,4.704479999999999,1.3006141949469687,145.69743772381705,16.701719728063498,24.819273,59.478406,10.835550344099872,66.39528238184116,278.21591307754375,2.1017480245144293,0.001364337827714894,0.2696193191225354
2024-08-28T18:29:15+03:00,6.4,289.65,-44.999245792882164,14.094,338.9675611773464,325.60045581694425,0.0,5.20992,4.704479999999999,-0.49847328176381617,145.50263207347254,16.799122553235737,24.819257,59.47843,11.04259914347728,64.48727942637719,274.4802817509692,2.243972325091073,0.001523026495041113,0.2711423456175765
2024-08-28T18:29:16+03:00,6.4,289.65,-44.00229922935453,14.40504,340.7609190761058,323.89877116540566,0.0,5.48208,4.704479999999999,1.1000789666511805,143.1019389118744,16.99965778153153,24.81924,59.478452,11.133321835590007,64.00509602291245,276.75582305319335,2.402747444583302,0.0014205529393225122,0.272562898556899
2024-08-28T18:29:17+03:00,6.4,289.65,-42.999623087875584,14.696639999999999,339.47749361501275,324.70091207858883,0.6999825383113268,5.7348,4.80168,0.09740282517223994,145.30209684517678,17.29759583499955,24.819224,59.478479,11.207054517861637,63.42488347611382,276.0526101388989,2.5655815804066116,0.0016948122262565378,0.2742577107831556
2024-08-28T18:29:18+03:00,6.4,289.65,-42.002676524347955,14.59944,339.2998766985222,325.1019825351804,2.000023775463165,5.598719999999999,4.89888,0.6016056848873644,145.1989644420532,16.39805209664416,24.819206,59.478503,11.090888957428586,61.74539000866713,277.5544866898551,2.650381093654875,0.0015436888534698177,0.2758013996366254
2024-08-28T18:29:19+03:00,6.4,289.65,-42.999623087875584,14.502239999999999,342.8923220739925,325.6978586421165,1.1000216708716675,5.46264,4.80168,0.0,145.6000348986448,16.100114043176134,24.819188,59.478526,11.148015709308371,62.52253046374781,280.36979161024465,2.520460881037823,0.0014876716008419514,0.2772890712374674
2024-08-28T18:29:20+03:00,6.4,289.65,-41.99694694639665,14.79384,344.2502320484526,326.0015262735358,0.600001403060998,5.26824,4.80168,-0.20053522829578813,146.70011386529598,16.002711218003892,24.819174,59.478549,11.435418572013136,59.95055751389634,284.29967453455623,2.638056095232006,0.0014470274336431492,0.27873609867111054
2024-08-28T18:29:21+03:00,6.4,289.65,-42.999623087875584,14.696639999999999,345.3789589048602,326.2994643270039,0.2000195662801704,5.598719999999999,4.80168,1.3980170201192088,146.09850818040863,16.197516868348373,24.819164,59.478571,11.268589951815473,62.80606590240362,282.57289300245657,2.558636102458988,0.001357146855655294,0.28009324552676584
2024-08-28T18:29:22+03:00,6.4,289.65,-42.999623087875584,14.91048,340.65205709503095,326.2994643270039,0.0,5.46264,4.89888,-0.40107045659157625,146.2990434087044,15.699043586584558,24.819151,59.478597,11.533592062309767,61.84478127818451,278.8072758168464,2.577611202121788,0.001612398704630878,0.2817056442313967
2024-08-28T18:29:23+03:00,6.4,289.65,-42.999623087875584,15.007679999999999,340.86978105718066,324.3972444471695,0.0,5.5598399999999994,4.80168,1.1000789666511805,143.60041219363822,15.699043586584558,24.819135,59.478621,11.579844005920396,62.11346168053478,278.7563193766459,2.6004603742743826,0.0015230256086436382,0.28322866984004036
2024-08-28T18:29:24+03:00,6.4,289.65,-42.999623087875584,15.007679999999999,340.9328064146451,321.40067517863525,0.0,5.57928,4.89888,1.0026761414789407,140.3001752936847,15.899578814880346,24.819118,59.478647,11.570764245139785,62.19854572508062,278.73426068956445,2.602226921730321,0.001646709322504516,0.28487537916254485
2024-08-28T18:29:25+03:00,6.4,289.65,-41.00000038286902,15.007679999999999,337.67267656035074,317.89990305038594,0.0,5.94864,4.89888,0.20053522829578813,136.50146511196732,15.699043586584558,24.819098,59.478672,11.218865853708182,61.35682973638666,276.3158468239641,2.8514999164622674,0.001621982428738731,0.2864973615912836
2024-08-28T18:29:26+03:00,6.4,289.65,-37.9977015363835,15.20208,333.9198030022438,314.89760420390047,0.0,5.57928,4.89888,1.0026761414789407,133.99763954724563,13.401482828109954,24.819077,59.478696,11.33818902835603,55.63186981546647,278.2879331867773,3.149547973959933,0.0015786064790150628,0.28807596807029867
2024-08-28T18:29:27+03:00,6.4,289.65,-37.00075497285587,15.20208,328.5397293059653,311.7979025322427,0.0,5.07384,4.89888,-0.6990085100596044,130.80053505041565,10.101245928156414,24.819056,59.478717,11.560542014121303,52.31643266041041,276.2232966455549,3.101638843271268,0.0014157158253308437,0.2894916838956295
2024-08-28T18:29:28+03:00,6.4,289.65,-35.99807883137692,15.396479999999999,323.291435902567,309.0992713171765,0.0,5.13216,4.704479999999999,-0.6016056848873644,127.79823620393013,8.800631733209444,24.81903,59.478738,11.641951498816123,51.014944133407226,272.27649176915975,3.228732546758069,0.0014910517264438976,0.2909827356220734
2024-08-28T18:29:29+03:00,6.4,289.65,-35.99807883137692,15.396479999999999,323.6523993134994,305.3979639606314,0.0,5.3654399999999995,4.704479999999999,1.0026761414789407,124.20006125050854,8.697499330085895,24.819002,59.478759,11.496621041692089,51.91868147918069,271.7337178343187,3.30929211046359,0.0015244257974828647,0.29250716141955624
2024-08-28T18:29:30+03:00,6.4,289.65,-35.00113226784929,15.610319999999998,321.4808892699536,303.9999469405122,0.0,5.346,4.704479999999999,-1.501149423242757,122.8994470555616,7.700552766558264,24.818973,59.478777,11.642279970591753,50.27226731943395,271.2086219505196,3.4168432553470978,0.0013979537647603292,0.29390511518431656
2024-08-28T18:29:31+03:00,6.4,289.65,-31.00188685783615,15.49368,321.73872027776247,301.59925377891403,0.0,5.38488,4.704479999999999,1.1000789666511805,121.10035957885079,5.500394833255903,24.818941,59.478795,11.226049667717973,45.30582160645122,276.43289867131125,3.7873071428880762,0.0014576699315580028,0.29536278511587455
2024-08-28T18:29:32+03:00,6.4,289.65,-31.99883342136378,15.70752,319.2979200705052,299.8975691273755,0.0,4.93776,4.704479999999999,-1.1974817918234204,119.30127210214,4.801386323196299,24.818913,59.478809,11.813417168175178,44.79527261017583,274.5026474603294,3.50397706120507,0.0011994590423032936,0.29656224415817783
2024-08-28T18:29:33+03:00,6.4,289.65,-29.999210716357208,16.19352,317.48164385994045,298.4995521072563,0.0,4.89888,4.704479999999999,-1.598552248414997,117.50218462542924,4.801386323196299,24.818888,59.47882,12.199354047236957,41.58176295285688,275.89988090708357,3.664408181776358,0.0010097365699633153,0.29757198072814117
2024-08-28T18:29:34+03:00,6.4,289.65,-27.99958801135063,16.19352,315.00073660702395,295.89832371736236,0.0,4.704479999999999,4.60728,0.49847328176381617,115.1014914638311,5.700930061551691,24.818857,59.47883,12.240593124429068,38.39448785576411,276.60624875125984,3.687151307318289,0.0011210688094776785,0.2986930495376188
2024-08-28T18:29:37+03:00,6.4,289.65,-20.00109719132434,16.19352,314.89187462594913,289.49838514575106,0.0,4.04352,4.29624,1.902219879834333,97.09915754082061,7.901087994854052,24.818783,59.478868,12.470808716063532,26.36841366552781,288.5234609604213,3.622819017782033,0.0032124521978676665,0.30190550173548647
2024-08-28T18:29:38+03:00,6.4,289.65,-16.0018517813112,15.29928,306.10270204864236,281.0988238691332,0.0,4.02408,4.101839999999999,-0.6016056848873644,86.20150027743236,5.202456779787875,24.818749,59.478879,11.4848212959253,21.544657204539817,284.55804484410254,3.742924084642192,0.00123059877120247,0.30313610050668893
