time,dpt,mtw,awa,aws,cog,hdg,rot,sog,stw,pitch,yaw,roll,lng,lat,tws,twa,twd,vmg,dist,cum_dist
2026-06-17T18:24:06+03:00,5.66,287.691,62.299008421119524,21.209039999999998,204.8324117592693,196.1979377866478,-1.4000223724021665,6.940079999999999,7.13448,4.199780638308934,16.799122553235737,17.801798694714677,24.821378,59.477807,19.003713130491235,81.16399900698114,285.99641076625045,1.0660431014448695,0.0021048174872712938,0.0021048174872712938
2026-06-17T18:24:07+03:00,5.73,287.69,61.302061857591895,21.597839999999998,207.99513878839142,195.699464504884,2.199986045963822,7.56216,7.387199999999999,1.1974817918234204,20.90150036637243,20.397297506657306,24.821343,59.477775,19.151944877224373,81.56620618275953,289.56134497115096,1.1091154577799724,0.002200278649751317,0.004305096137022611
2026-06-17T18:24:08+03:00,5.85,287.7,61.302061857591895,21.209039999999998,199.99664796836515,200.7987888815483,-1.0499451595772336,7.03728,7.892639999999999,4.497718691776963,23.800666809734395,19.89882422489349,24.821319,59.477744,18.868110647816994,80.39840243286372,280.3950504012289,1.173791836705697,0.002002200957930778,0.006307297094953389
2026-06-17T18:24:09+03:00,6.0,287.7,60.29938571611295,21.306240000000003,206.94089644535075,196.72505895816815,2.253901374485632,6.8623199999999995,8.32032,2.4006931615981495,22.402649789615186,18.59821002994652,24.821274,59.477716,18.872263163577898,78.71147810836848,285.65237455371926,1.3432970333338776,0.0021724751567557023,0.008479772251709091
2026-06-17T18:24:09+03:00,6.0,287.706,61.302061857591895,21.40344,205.99551608338487,196.89694629670743,2.1104327425848743,6.84288,7.32888,1.0026761414789407,20.20249185631283,17.801798694714677,24.821264,59.477686,19.08594521416811,79.63204362264406,285.62755970602893,1.2315065325157988,0.0018288888316588538,0.010308661083367945
2026-06-17T18:24:10+03:00,5.7,287.7,60.29938571611295,22.103279999999998,208.9978149298704,198.44393234356062,-2.716450202494746,6.97896,8.04816,1.3980170201192088,11.000789666511807,16.99965778153153,24.821207,59.477662,19.60615112425545,78.31005955581917,287.3078744856896,1.414044546995767,0.002260269367812027,0.01256893045117997
2026-06-17T18:24:11+03:00,5.7,287.702,62.299008421119524,21.092399999999998,212.99706033988352,195.09785881999662,-2.6000251785241626,7.5816,7.6593599999999995,4.102377813136695,18.397674801650734,19.801421399721253,24.821193,59.477626,18.806793023740354,83.2105584371536,296.2076187770371,0.896304205603633,0.002205679299973534,0.014774609751153505
2026-06-17T18:24:12+03:00,6.11,287.7,62.299008421119524,21.092399999999998,203.9958933783783,194.79992076652857,0.9000021045914972,7.73712,7.056719999999999,4.199780638308934,20.00195662801704,17.801798694714677,24.821153,59.477603,18.789041943978255,83.68148461492608,287.6773779933044,0.8515126739413387,0.0018445325415241776,0.016619142292677684
2026-06-17T18:24:13+03:00,6.15,287.703,62.299008421119524,20.10096,208.29880641981077,195.52757716634474,0.42828595186029034,6.6095999999999995,7.40664,1.3006141949469687,14.301026566465348,17.400728238123104,24.821138,59.477562,18.005947657913747,81.2649587323735,289.56376515218426,1.0037691541934284,0.002506596946086623,0.019125739238764306
2026-06-17T18:24:14+03:00,5.81,287.7,61.302061857591895,20.7036,197.9970252633586,197.40114915642252,-0.5000202678106694,6.84288,7.8732,2.2975607584746007,16.002711218003892,20.500429909780856,24.821072,59.477543,18.422929094810417,80.31655208227126,278.3135773456299,1.1510039911388001,0.0023159633415211303,0.021441702580285438
2026-06-17T18:24:15+03:00,5.88,287.703,61.302061857591895,21.69504,201.99627067337175,195.99740255835198,0.09998113525032865,7.42608,7.8732,1.701684651538545,18.70134243307007,20.00195662801704,24.821085,59.477499,19.263822109204,81.06570918619668,283.06197985956845,1.1532824049209187,0.0026743486747429863,0.024116051255028425
2026-06-17T18:24:16+03:00,6.0,287.7,59.30243915258532,21.209039999999998,201.99627067337175,198.0027548413099,0.5000202678106694,7.42608,8.28144,2.899166443361966,12.89727996839483,16.59858732493995,24.821063,59.477467,18.551563953312566,79.4355551022562,281.43182577562794,1.3615075410484072,0.002037325728115262,0.026153376983143687
2026-06-17T18:24:17+03:00,5.92,287.71,61.302061857591895,20.898,199.99664796836515,194.3014474847648,-2.345058959690946,7.503839999999999,7.698239999999999,1.3980170201192088,17.200193009827313,17.89920151988692,24.821041,59.477442,18.50489623420737,82.1380908749039,282.134738843269,1.026420362882005,0.001645944954044287,0.027799321937187975
2026-06-17T18:24:18+03:00,5.88,287.7,61.302061857591895,21.092399999999998,209.99476149339802,195.2983940482924,2.791049307420779,7.01784,7.4844,3.798710181717358,14.799499848229162,19.102412889661643,24.821002,59.477412,18.76114150098001,80.45640320466265,290.45116469806067,1.1635440485411013,0.002160808868467025,0.029960130805655
2026-06-17T18:24:19+03:00,5.88,287.713,62.299008421119524,20.5092,204.04173000198875,193.79724462504964,0.09998113525032865,7.1150400000000005,8.456399999999999,2.2975607584746007,8.502693679741416,21.30257082296401,24.820944,59.477384,18.318940788088216,82.41257167580554,286.4543016777943,0.939462036563249,0.0024428526673720115,0.03240298347302701
2026-06-17T18:24:20+03:00,5.85,287.71,60.29938571611295,20.8008,205.99551608338487,189.80372879298778,-3.50002728311566,7.29,7.387199999999999,2.1027551081301215,11.900333404867197,22.29951738649164,24.82093,59.477347,18.318133082766717,80.52293930092533,286.5184553843102,1.2003183076396131,0.002264678481943831,0.03466766195497084
2026-06-17T18:24:21+03:00,6.03,287.715,63.30168456259847,20.003759999999996,200.12269868329392,191.90075432316664,-2.1000049107134933,7.503839999999999,8.00928,2.4006931615981495,7.901087994854052,17.102790184655074,24.82092,59.477328,17.932535926531287,85.25403058340662,285.3767292667005,0.6208534790308295,0.0011821433980490834,0.035849805353019924
2026-06-17T18:24:22+03:00,6.03,287.71,68.29787653613924,20.19816,197.9970252633586,188.8984554766811,0.300000701530499,7.270560000000001,8.00928,5.099324376664327,13.802553284701533,21.199438419840458,24.820893,59.477283,18.767539624778216,89.39447373420427,287.39149899756285,0.0768369525798641,0.0028276445229971628,0.03867744987601709
2026-06-17T18:24:23+03:00,6.03,287.715,69.30055267761819,21.40344,198.9997014048375,190.80067535651546,0.600001403060998,7.44552,7.970399999999999,0.8995437383553924,5.001921551492087,21.49737647330849,24.820891,59.477268,20.022151957345773,89.65699142470972,288.65669282954724,0.04457329971217171,0.0009036806232808206,0.03958113049929791
2026-06-17T18:24:24+03:00,6.0,287.7,67.30092997261161,20.5092,190.9954810068599,187.9015089131535,-4.2000098214269865,6.201359999999999,7.83432,3.5981749534215695,8.898034558381685,21.49737647330849,24.820887,59.477241,18.99802862105209,84.82690096337751,275.8223819702374,0.5591455757820929,0.001627495736426552,0.04120862623572446
2026-06-17T18:24:25+03:00,5.88,287.707,70.29749924114583,19.40112,198.16891260189783,189.59746398674073,0.2000195662801704,7.56216,7.7176800000000005,2.8017636181897254,8.800631733209444,21.600508876432034,24.820872,59.477209,18.293830224936404,93.20046451495003,291.3693771168479,-0.42219236540581806,0.001977203253138448,0.043185829488862904
2026-06-17T18:24:26+03:00,5.88,287.71,71.30017538262474,19.40112,193.99777985334543,183.28346908439906,1.9517807291131493,7.6788,7.75656,5.397262430132355,9.499640243269049,20.397297506657306,24.82083,59.477154,18.434754195146628,94.5381328833238,288.5359127366692,-0.607566398335102,0.003545852209765097,0.046731681698628
2026-06-17T18:24:27+03:00,5.92,287.718,73.29979808763133,18.701279999999997,195.99740255835198,191.4022810414028,1.899985344433323,7.4844,9.31176,4.698253920072751,5.597797658428142,21.10203559466822,24.820841,59.477143,18.03637153258955,96.71922533593742,292.7166278942894,-0.875704620691836,0.0007415724448741106,0.04747325414350211
2026-06-17T18:24:28+03:00,5.92,287.72,73.29979808763133,19.40112,198.9997014048375,185.9763707215139,-0.7821446861330869,7.44552,9.0396,1.3980170201192088,9.998113525032863,24.60280772291755,24.820824,59.477108,18.67669606384003,95.7473995926447,294.7471009974822,-0.7456159960481615,0.002166836027664004,0.049640090171166114
2026-06-17T18:24:29+03:00,6.18,287.722,71.30017538262474,18.29304,193.99777985334543,185.4893565956527,-0.7745816432373599,7.46496,8.1648,1.701684651538545,15.802175989708104,24.20173726632597,24.820813,59.477074,17.40109066785481,95.27578751639031,289.27356736973576,-0.6864015666280262,0.0020710674698051343,0.05171115764097125
2026-06-17T18:24:30+03:00,6.18,287.72,73.29979808763133,17.3016,187.99891173832572,186.55505809459603,3.712193554652604,7.62048,8.43696,2.899166443361966,12.398806686631014,21.39997364813625,24.820806,59.477039,16.78217006880068,99.08060076255101,287.0795125008767,-1.2026926471087258,0.002114595383025028,0.053825753023996274
2026-06-17T18:24:31+03:00,6.03,287.722,71.30017538262474,18.40968,191.99815714833886,187.88432017929955,-2.106765812696037,8.14536,8.49528,3.9992454100131463,6.399938571611295,21.801044104727822,24.82079,59.476996,17.581524824674418,97.3297059455953,289.3278630939342,-1.0391757072333299,0.0026303800129220786,0.056456133036918356
2026-06-17T18:24:32+03:00,5.77,287.72,68.29787653613924,19.20672,197.9970252633586,186.15398763800448,-1.8000042091829944,8.203679999999999,8.43696,3.0997016716577535,1.0026761414789407,21.89844692990006,24.820768,59.47696,17.87928218097958,93.53175996852485,291.5287852318835,-0.5053615550158463,0.002265707092449646,0.058721840129368
2026-06-17T18:24:33+03:00,5.88,287.738,68.29787653613924,19.303919999999998,199.99664796836515,182.65321550975514,-4.981982620221534,7.698239999999999,8.10648,2.200157933302361,4.400315866604722,20.90150036637243,24.820746,59.476929,17.944376951627092,91.78839410853077,291.78504207689593,-0.24024896313002958,0.0019806805492165753,0.06070252067858457
2026-06-17T18:24:34+03:00,6.15,287.72,69.30055267761819,18.701279999999997,195.99740255835198,181.87399290837723,0.0,7.9120800000000004,8.6508,0.29793805346802804,0.8021409131831525,17.801798694714677,24.820727,59.476891,17.54243483121626,94.2558080143521,290.25321057270406,-0.5871521340587277,0.002356589796368938,0.06305911047495351
2026-06-17T18:24:35+03:00,6.18,287.725,72.3028515241037,18.99288,190.9954810068599,182.29798167677404,-0.600001403060998,7.03728,7.814879999999999,1.3006141949469687,2.899166443361966,18.70134243307007,24.820708,59.476857,18.13814881826515,93.9951354161231,284.990616422983,-0.4902998050060846,0.002124379948140532,0.06518349042309404
2026-06-17T18:24:36+03:00,6.45,287.73,73.29979808763133,19.20672,191.99815714833886,181.19790271012286,-1.200002806121996,7.63992,7.46496,3.0997016716577535,6.302535746439056,19.19981571483389,24.820694,59.476821,18.518428030982562,96.57554072849376,288.5736978768326,-0.8748707269447826,0.002205681273429965,0.067389171696524
2026-06-17T18:24:37+03:00,6.3,287.735,74.30247422911027,18.60408,183.99966632831257,185.30028052325954,0.300000701530499,7.6788,7.2122399999999995,5.202456779787875,8.30215845144563,21.49737647330849,24.820687,59.476787,18.104510459973334,98.40172542755973,282.4013917558723,-1.1219711209176664,0.002054804521889983,0.06944397621841399
2026-06-17T18:24:38+03:00,5.96,287.73,73.29979808763133,18.701279999999997,184.9966128918402,186.89883277167453,0.9000021045914972,6.92064,7.5816,4.497718691776963,7.402614713090236,24.60280772291755,24.820676,59.476752,17.97912920929786,94.93468984748851,279.9313027393287,-0.5953144684214537,0.0021304026155593877,0.07157437883397337
2026-06-17T18:24:39+03:00,5.62,287.727,71.30017538262474,18.29304,188.99585830185336,188.80105265150885,1.8000042091829944,7.15392,9.70056,5.099324376664327,3.002298846485514,27.19830653486018,24.820666,59.47672,17.37525129759421,94.25440822311474,283.2502665249681,-0.5307151034386165,0.0019475225136002929,0.07352190134757366
2026-06-17T18:24:40+03:00,5.88,287.73,70.29749924114583,18.29304,189.9985344433323,184.40073678490415,-0.9999832398418258,7.07616,8.57304,3.2028340747813018,0.49847328176381617,26.797236078268604,24.820656,59.476687,17.24605680039871,93.0210336145977,283.01956805793,-0.3729317146363898,0.0020069093311286816,0.07552881067870235
2026-06-17T18:24:41+03:00,6.22,287.735,67.30092997261161,18.09864,187.99891173832572,180.49889420006323,-3.8000279846461584,7.795439999999999,7.75656,0.40107045659157625,0.8021409131831525,22.2021145613194,24.820647,59.476658,16.716498874949878,92.78194771703649,280.7808594553622,-0.37835223974907817,0.0017646442791004855,0.07729345495780283
2026-06-17T18:24:42+03:00,6.33,287.73,70.29749924114583,18.00144,188.99585830185336,181.59897316671442,-1.1000216708716675,7.1928,8.8452,2.6012283898939375,2.6986312150661775,18.79874525824231,24.820638,59.476625,16.984783598089507,93.79395640764926,282.7898147095026,-0.4759378754212948,0.0020024929692058187,0.07929594792700866
2026-06-17T18:24:43+03:00,6.33,287.739,73.29979808763133,19.40112,188.99585830185336,181.59897316671442,-0.2000195662801704,7.60104,8.98128,1.701684651538545,-1.701684651538545,18.79874525824231,24.820628,59.47659,18.69291075367388,96.22169424857924,285.21755255043263,-0.823768557980296,0.002125804577496873,0.08142175250450553
2026-06-17T18:24:44+03:00,6.15,287.74,75.2994207926379,19.90656,188.99585830185336,180.2009561465952,-1.899985344433323,7.42608,8.30088,2.6986312150661775,-4.801386323196299,19.600886171425465,24.820616,59.476552,19.400773026508823,97.02998795467893,286.0258462565323,-0.9088691236871403,0.0023132845084025866,0.08373503701290812
2026-06-17T18:24:45+03:00,5.88,287.728,77.29904349764448,19.40112,189.9985344433323,177.10125447493746,-2.199986045963822,7.73712,8.1648,3.5981749534215695,-3.5007721282493303,20.00195662801704,24.820604,59.476516,19.24213857381586,100.3938455678659,290.39238001119816,-1.3958808509734,0.0021946687103028177,0.08592970572321093
2026-06-17T18:24:46+03:00,5.92,287.72,79.29866620265106,18.701279999999997,188.99585830185336,176.29911356175433,0.3999818367808277,7.6788,7.60104,2.8017636181897254,-1.0026761414789407,23.399596353142822,24.820596,59.476484,18.85127483951044,102.8925777832358,291.88843608508915,-1.7133233541577586,0.0019388899554103462,0.08786859567862128
2026-06-17T18:24:47+03:00,5.96,287.727,80.30134234412998,19.10952,183.99966632831257,176.09857833345853,0.600001403060998,7.85376,7.42608,3.002298846485514,3.5007721282493303,25.3992190581494,24.820592,59.476446,19.398142351490673,103.82233812590202,287.8220044542146,-1.8763579748218011,0.0022873551170515343,0.09015595079567282
2026-06-17T18:24:48+03:00,6.03,287.73,82.30096504913656,18.50688,176.99812207181392,182.4985169050698,2.1000049107134933,7.36776,8.63136,5.901465289847479,10.101245928156414,25.50235146127294,24.820592,59.476415,18.98035497430103,104.9247755310146,281.9228976028285,-1.8975713344456697,0.0018633392092280178,0.09201929000490083
2026-06-17T18:24:49+03:00,6.0,287.731,78.30171963912342,18.60408,181.9943140453547,188.60051742321306,5.499993762799311,7.4844,9.4284,3.701307356545118,3.701307356545118,24.99814860155782,24.820591,59.476381,18.592037593221843,101.51767339423547,283.5119874395902,-1.49441158083805,0.0020438903613886907,0.09406318036628952
2026-06-17T18:24:50+03:00,5.96,287.73,76.30209693411685,19.40112,185.99928903331917,184.49813961007638,-1.200002806121996,7.42608,8.53416,1.7990874767107847,1.902219879834333,22.402649789615186,24.820584,59.476349,19.060844723566888,98.54398863599741,284.5432776693166,-1.1032829105397879,0.0019352816466104168,0.09599846201289994
2026-06-17T18:24:51+03:00,6.18,287.735,74.30247422911027,18.701279999999997,187.99891173832572,183.79913110001678,-2.7999874490248207,7.93152,8.456399999999999,1.501149423242757,-9.602772646392598,16.197516868348373,24.820573,59.476312,18.231377266114183,99.06271068421407,287.0616224225398,-1.2493365757960235,0.0022491956883808,0.09824765770128074
2026-06-17T18:24:52+03:00,6.07,287.72,75.2994207926379,18.00144,186.9962355968468,173.69788517186038,-7.3999791072326335,8.242560000000001,7.5816,1.3980170201192088,-11.60239535139917,12.301403861458775,24.820557,59.476273,17.7956334203755,101.91593068689343,288.91216628374025,-1.7018928374595428,0.002394549170992198,0.10064220687227295
2026-06-17T18:24:53+03:00,6.18,287.732,77.29904349764448,18.60408,187.99891173832572,170.20284262156233,-5.700013329079481,7.950959999999999,7.9120800000000004,3.701307356545118,-14.598964619933378,8.30215845144563,24.82055,59.476238,18.55492679591832,102.00894816626872,290.00785990459445,-1.654312122928785,0.0021145958950891256,0.10275680276736207
2026-06-17T18:24:54+03:00,5.81,287.73,82.30096504913656,18.29304,183.99966632831257,166.3984028618937,-0.8000209693411684,7.9120800000000004,7.5816,1.3006141949469687,-15.699043586584558,11.699798176571411,24.820543,59.476205,18.932931788208194,106.7657088000106,290.76537512832317,-2.282309062022012,0.00199503292775085,0.10475183569511293
2026-06-17T18:24:55+03:00,5.62,287.731,81.29828890765764,18.00144,186.9962355968468,164.70244778830644,1.2999839413723246,7.32888,7.7176800000000005,1.7990874767107847,-11.000789666511807,15.899578814880346,24.820536,59.476172,18.380553194197706,104.5106673769202,291.50690297376696,-1.8363260069572152,0.0019950329501220226,0.10674686864523494
2026-06-17T18:24:56+03:00,5.92,287.73,85.29753431767077,16.31016,179.99469134034814,167.6016142316684,2.199986045963822,6.95952,7.814879999999999,1.7990874767107847,-3.798710181717358,16.100114043176134,24.82054,59.47614,17.20013592367136,109.07954790646981,289.07423924681797,-2.2749318826564804,0.0019273193616004647,0.10867418800683541
2026-06-17T18:24:57+03:00,6.11,287.733,84.30058775414314,14.30784,172.99887666180075,173.3025442932201,1.7000230739326654,6.82344,7.40664,2.2975607584746007,-2.6012283898939375,12.89727996839483,24.820549,59.476109,15.227695108596645,110.78017615038837,283.7790528121891,-2.4208439216370925,0.0018834872959594276,0.11055767530279484
2026-06-17T18:24:58+03:00,6.03,287.73,84.30058775414314,14.21064,170.9992539567942,177.10125447493746,2.199986045963822,6.92064,7.950959999999999,1.701684651538545,0.6016056848873644,15.29797312999298,24.820556,59.476075,15.175770524729543,111.28691385510271,282.2861678118969,-2.512458253601889,0.0020548049902943733,0.1126124802930892
2026-06-17T18:24:59+03:00,5.88,287.732,84.30058775414314,14.91048,179.99469134034814,178.90034195164822,2.6000251785241626,6.9984,7.60104,3.2028340747813018,4.898789148368539,17.400728238123104,24.820554,59.476042,15.829536114422897,110.39966497593299,290.3943563162811,-2.439408260898185,0.001984494142360339,0.11459697443544954
2026-06-17T18:25:00+03:00,5.88,287.72,82.30096504913656,15.396479999999999,179.99469134034814,184.49813961007638,3.6999895536163168,6.43464,8.242560000000001,1.598552248414997,-4.898789148368539,18.002333923010465,24.820556,59.476007,15.87171247233885,105.98927674463285,285.983968084981,-1.7724694938197036,0.002104655914207542,0.11670163034965708
2026-06-17T18:25:01+03:00,5.77,287.718,78.30171963912342,15.610319999999998,182.99699018683364,177.50232493152905,-2.1000049107134933,7.07616,7.251119999999999,-0.8995437383553924,-5.901465289847479,19.297218540006124,24.820548,59.475973,15.7784789947963,104.3516277627363,287.3486179495699,-1.753982410176625,0.0020582040281359026,0.11875983437779299
2026-06-17T18:25:02+03:00,6.15,287.71,76.30209693411685,15.70752,185.99928903331917,175.3021669982267,-4.099971390397145,7.348319999999999,7.32888,5.397262430132355,5.099324376664327,17.69866629159113,24.820542,59.475941,15.686256487803972,103.37552554502173,289.3748145783409,-1.6999041458564808,0.0019321490978244649,0.12069198347561745
2026-06-17T18:25:03+03:00,6.18,287.722,81.29828890765764,15.804720000000001,179.99469134034814,173.54891614512636,7.77331840653988,6.940079999999999,6.43464,3.701307356545118,3.701307356545118,17.498131063295343,24.820542,59.47591,16.2716014468445,106.23427459217758,286.22896593252574,-1.9402069912791708,0.0018633392084633142,0.12255532268408076
2026-06-17T18:25:04+03:00,5.85,287.72,82.30096504913656,17.398799999999998,179.99469134034814,185.09974529496375,6.09999516586031,6.55128,7.2122399999999995,6.302535746439056,2.2975607584746007,25.10128100468137,24.820538,59.47588,17.75096176250388,103.75404870115375,283.7487400415019,-1.5575964962383781,0.0018073615844838202,0.12436268426856457
2026-06-17T18:25:05+03:00,5.73,287.728,80.30134234412998,17.90424,190.9954810068599,183.22044372693466,1.7575480365638003,6.901199999999999,7.46496,3.5007721282493303,15.00003507652495,28.29838550151136,24.820527,59.475849,18.070880805609562,102.41455272192033,293.41003372878026,-1.4836433577798507,0.0018933583452679092,0.1262560426138325
2026-06-17T18:25:06+03:00,6.11,287.72,73.29979808763133,15.99912,186.9962355968468,187.40303563138968,6.2376769240302465,7.6593599999999995,6.78456,1.501149423242757,14.702097023056925,24.499675319793997,24.820524,59.475811,15.627180084540473,101.29889655345929,288.2951321503061,-1.5006774087238537,0.0022859286803138716,0.12854197129414638
2026-06-17T18:25:07+03:00,6.22,287.717,71.30017538262474,16.407359999999997,177.99506863534154,188.5432216437,-0.22637562485618823,7.056719999999999,7.15392,3.0997016716577535,14.902632251352712,19.297218540006124,24.820528,59.475777,15.644708719086282,96.59335127618748,274.588419911529,-0.8102658332949497,0.0020473075014663957,0.13058927879561277
2026-06-17T18:25:08+03:00,6.11,287.71,72.3028515241037,17.70984,186.9962355968468,189.80945837093915,-1.4585213632850234,6.8623199999999995,7.03728,4.698253920072751,19.801421399721253,18.197139573354946,24.820517,59.475744,16.93643288190841,95.0090855673987,282.0053211642455,-0.5991746273168436,0.002011780933907014,0.1326010597295198
2026-06-17T18:25:09+03:00,5.88,287.72,72.3028515241037,18.798479999999998,193.99777985334543,191.7976219200431,3.809252605147765,7.15392,7.9120800000000004,4.60085109490051,16.100114043176134,18.70134243307007,24.820502,59.475712,17.96662812166194,94.59535341091762,288.5931332642631,-0.5731583850522928,0.0019772079528908304,0.13457826768241063
2026-06-17T18:25:10+03:00,5.85,287.71,71.30017538262474,19.59552,197.9970252633586,191.94086136882578,-0.801739842726561,6.62904,7.892639999999999,4.400315866604722,15.20057030482074,20.500429909780856,24.820492,59.475684,18.564331481552205,91.0695350558275,289.0665603191861,-0.12373649470533271,0.0017104808250859162,0.13628874850749653
2026-06-17T18:25:11+03:00,5.73,287.709,71.30017538262474,19.20672,201.99627067337175,190.6230584400249,0.5349706933136497,6.8623199999999995,9.46728,1.501149423242757,11.79720100174365,21.10203559466822,24.820466,59.475654,18.206455010200596,92.21746572516962,294.21373639854136,-0.26551974717322546,0.0019701999071726397,0.13825894841466918
2026-06-17T18:25:12+03:00,5.77,287.71,71.30017538262474,18.701279999999997,196.36982512518705,189.08753154907427,-1.35361279099657,6.804,8.125919999999999,2.1027551081301215,11.60239535139917,20.397297506657306,24.820441,59.475627,17.73248949017094,92.61223340298308,288.9820585281701,-0.3101010122329152,0.001793416694520576,0.14005236510918975
2026-06-17T18:25:13+03:00,5.88,287.693,71.30017538262474,18.60408,199.99664796836515,189.14482732858735,-3.1285787445323474,7.3094399999999995,9.38952,1.1974817918234204,7.2020794847944485,19.89882422489349,24.820417,59.4756,17.67323169652014,94.36394477164401,294.36059274000917,-0.5561868763921398,0.0017806390317692653,0.141833004140959
2026-06-17T18:25:14+03:00,5.92,287.71,70.29749924114583,18.99288,198.9997014048375,187.2025004030939,-1.899985344433323,7.73712,8.1648,0.49847328176381617,3.9018425848409057,18.500807204774283,24.820388,59.475562,17.930644552547005,94.26639542676851,293.26609683160603,-0.5755941792636632,0.0024496760384033235,0.14428268017936233
2026-06-17T18:25:15+03:00,6.03,287.704,71.30017538262474,18.40968,197.9970252633586,186.1024214364427,-2.1000049107134933,7.73712,8.41752,4.898789148368539,12.501939089754565,18.90187766136586,24.820367,59.475534,17.534117749602995,96.00649395385375,294.00351921721233,-0.8096213865560908,0.0018009902103922938,0.14608367038975462
2026-06-17T18:25:16+03:00,6.18,287.69,73.29979808763133,18.50688,195.99740255835198,188.80105265150885,2.000023775463165,7.270560000000001,7.095599999999999,1.1974817918234204,7.597420363434716,17.29759583499955,24.820365,59.475482,17.833477870739152,96.28515234024034,292.2825548985923,-0.7959571473134771,0.0031261975787857193,0.14920986796854033
2026-06-17T18:25:17+03:00,6.11,287.699,71.30017538262474,18.60408,189.9985344433323,189.50006116156848,-1.1000216708716675,7.17336,7.5816,3.798710181717358,10.399183981624443,18.70134243307007,24.820335,59.475469,17.663398311007686,93.92380965472007,283.92234409805235,-0.4908721592294758,0.0012039152171928133,0.15041378318573315
2026-06-17T18:25:18+03:00,5.92,287.7,74.30247422911027,18.99288,197.9970252633586,189.00158787980467,0.8000209693411684,6.804,7.60104,2.899166443361966,11.60239535139917,19.801421399721253,24.820317,59.475438,18.36019016874884,95.20399960318211,293.2010248665407,-0.6171370810960883,0.0019426812775642666,0.15235646446329743
2026-06-17T18:25:19+03:00,5.81,287.7,73.29979808763133,18.895680000000002,198.98251267098362,191.29914863827926,0.600001403060998,7.056719999999999,7.776,1.701684651538545,5.202456779787875,19.297218540006124,24.820305,59.475406,18.171652124751034,95.13617566262806,294.11868833361166,-0.6317399012854804,0.001958024657629295,0.1543144891209267
2026-06-17T18:25:20+03:00,5.73,287.69,76.30209693411685,18.701279999999997,193.99777985334543,187.9015089131535,-1.2999839413723246,7.17336,7.503839999999999,4.297183463481174,11.60239535139917,20.500429909780856,24.820286,59.475372,18.375536796926884,98.59071707330111,292.58849692664654,-1.0715216938043386,0.002124386910783104,0.1564388760317098
2026-06-17T18:25:21+03:00,5.92,287.691,76.30209693411685,18.29304,198.9997014048375,189.2995259332727,1.200002806121996,7.503839999999999,8.553600000000001,3.300236899953542,15.601640761412316,17.400728238123104,24.820291,59.475333,18.053588846480583,100.11934867064481,299.11905007548233,-1.3184185412267273,0.002349165580142434,0.15878804161185223
2026-06-17T18:25:22+03:00,5.88,287.69,75.2994207926379,18.40968,198.42101403175536,193.6998417998774,3.099988150555319,6.901199999999999,9.21456,1.3980170201192088,9.602772646392598,16.902254956359283,24.82027,59.475304,17.94605994069191,97.13622194886455,295.5572359806199,-0.8573277709480445,0.0018572853213350258,0.16064532693318725
2026-06-17T18:25:23+03:00,5.85,287.704,71.30017538262474,18.895680000000002,198.9997014048375,192.39922760493045,-1.200002806121996,6.78456,8.553600000000001,1.3006141949469687,5.500394833255903,16.99965778153153,24.820227,59.475273,17.9129358633559,92.32412434039385,291.3238257452314,-0.2751308621627411,0.002279335927060826,0.1629246628602481
2026-06-17T18:25:24+03:00,6.0,287.7,71.30017538262474,18.701279999999997,199.99664796836515,185.99928903331917,-4.2000098214269865,7.07616,7.4844,0.6016056848873644,11.499262948275621,15.49850835828877,24.820231,59.475206,17.7469761824331,93.49001813875076,293.4866661071159,-0.4307587436270443,0.004029068058523844,0.16695373091877194
2026-06-17T18:25:25+03:00,6.07,287.7,70.29749924114583,17.5932,195.99740255835198,189.9985344433323,1.899985344433323,7.3094399999999995,8.242560000000001,3.0997016716577535,10.101245928156414,16.30064927147192,24.820194,59.475203,16.620455188734446,94.75630496692915,290.75370752528113,-0.6060832066737096,0.0011438896563472354,0.16809762057511918
2026-06-17T18:25:27+03:00,5.73,287.7,70.29749924114583,18.50688,196.99434912187962,189.00158787980467,0.2000195662801704,7.83432,7.056719999999999,3.5981749534215695,15.29797312999298,20.09935945318928,24.82016,59.47513,17.496261714758553,95.23040639823745,292.22475552011707,-0.7141850335447739,0.0010806341944178228,0.169178254769537
2026-06-17T18:25:28+03:00,5.73,287.69,71.30017538262474,17.80704,196.99434912187962,194.100912256469,3.399988852085818,6.88176,7.8732,2.1027551081301215,6.102000518143266,17.801798694714677,24.820145,59.4751,16.907742372375374,93.97696453497196,290.9713136568516,-0.4772872365558207,0.0018604716173278907,0.17103872638686488
2026-06-17T18:25:29+03:00,5.77,287.696,71.30017538262474,18.09864,196.99434912187962,188.8984554766811,-0.9000021045914972,7.056719999999999,7.795439999999999,1.902219879834333,13.200947599814167,19.297218540006124,24.820125,59.475067,17.189046705002724,94.18401949889027,291.1783686207699,-0.5148585095883668,0.002075405733311181,0.17311413212017607
2026-06-17T18:25:30+03:00,6.22,287.69,73.29979808763133,18.00144,191.28768948237663,190.69754295339192,0.3999818367808277,7.892639999999999,7.095599999999999,1.3980170201192088,18.397674801650734,18.79874525824231,24.820107,59.475035,17.4553408548803,98.96364176973182,290.25133125210846,-1.2297338909898867,0.002000408160079544,0.1751145402802556
2026-06-17T18:25:31+03:00,6.26,287.696,73.29979808763133,17.496,189.9985344433323,195.89999973317975,0.600001403060998,6.72624,7.503839999999999,5.397262430132355,18.197139573354946,16.30064927147192,24.820097,59.475004,16.84390201611959,95.78748262634092,285.7860170696732,-0.6782669373275507,0.0018881838745785765,0.17700272415483417
2026-06-17T18:25:32+03:00,5.92,287.69,73.29979808763133,18.00144,198.9997014048375,198.79916617654175,1.200002806121996,6.55128,7.892639999999999,2.4006931615981495,9.40223741809681,16.799122553235737,24.820076,59.474974,17.297168600445715,94.5704305245411,293.5701319293786,-0.5220354144140074,0.001913812974233361,0.17891653712906752
2026-06-17T18:25:33+03:00,5.55,287.692,69.30055267761819,18.60408,201.0680790452598,192.69716565839846,-2.9000258800546614,7.03728,7.63992,1.501149423242757,9.29910501497326,16.799122553235737,24.820046,59.474943,17.409253667413747,91.51860934774508,292.58668839300486,-0.18649939085308515,0.0020762668615853723,0.1809928039906529
2026-06-17T18:25:34+03:00,5.73,287.68,70.29749924114583,17.496,213.99973648136248,188.60051742321306,-0.9000021045914972,6.62904,7.17336,0.6016056848873644,11.000789666511807,14.10049133816956,24.820015,59.474918,16.487901752935137,92.53934136658144,306.53907784794393,-0.2937020028736368,0.0017758924526799045,0.1827686964433328
2026-06-17T18:25:35+03:00,6.03,287.695,68.29787653613924,16.79616,209.99476149339802,190.19906967162808,0.09998113525032865,5.94864,7.98984,1.598552248414997,13.899956109873772,11.60239535139917,24.819991,59.474893,15.60783277298743,89.03719295688018,299.0319544502782,0.09995715202240273,0.0016718111007893797,0.18444050754412217
2026-06-17T18:25:37+03:00,6.03,287.692,65.30130726760504,17.5932,200.74722267998652,195.60206167971174,-0.300000701530499,7.56216,7.6788,1.7990874767107847,9.098569786677473,12.398806686631014,24.81995,59.474833,15.985125191906054,90.75597506670034,291.50319774668685,-0.09977416467544119,0.0014150541109534621,0.18585556165507564
2026-06-17T18:25:38+03:00,5.96,287.69,65.30130726760504,17.009999999999998,198.9997014048375,190.5027373030474,-2.199986045963822,6.940079999999999,7.07616,2.4006931615981495,11.60239535139917,14.197894163341799,24.819943,59.474767,15.454793836975183,89.37906336693895,288.37876477177645,0.07521087226126477,0.00397286134626842,0.18982842300134406
2026-06-17T18:25:39+03:00,5.88,287.681,66.29825383113267,16.50456,203.9958933783783,190.39960489992387,1.1000216708716675,6.82344,7.73712,3.0997016716577535,13.802553284701533,15.802175989708104,24.81992,59.474736,15.113587925248375,90.71655097004152,294.7124443484198,-0.08533290132597865,0.001991255149042451,0.1918196781503865
2026-06-17T18:25:40+03:00,5.96,287.68,68.29787653613924,15.901919999999999,197.9970252633586,193.99777985334543,0.9000021045914972,6.55128,7.32888,1.1974817918234204,17.102790184655074,16.501184499767707,24.819888,59.474737,14.790005095127652,92.60050506996625,290.59753033332487,-0.2972433278200339,0.000978801099842217,0.19279847925022872
2026-06-17T18:25:41+03:00,5.92,287.688,67.30092997261161,15.49368,196.99434912187962,191.70594867282213,0.6724232683655342,6.940079999999999,7.32888,1.0026761414789407,12.501939089754565,14.398429391637588,24.819872,59.474705,14.325889858514108,93.84719735402933,290.84154647590896,-0.4656503307663,0.001984504460431544,0.19478298371066027
2026-06-17T18:25:42+03:00,5.88,287.68,68.29787653613924,15.396479999999999,199.7388169605563,195.89999973317975,-2.3000244769936637,7.01784,7.6788,2.4006931615981495,8.502693679741416,16.30064927147192,24.819854,59.474673,14.366347291758531,95.28992003515357,295.0287369957099,-0.6470126332419365,0.0020004097777125175,0.1967833934883728
2026-06-17T18:25:43+03:00,5.88,287.674,70.29749924114583,16.407359999999997,206.9981922248638,187.1509342015321,0.046008510949005106,7.251119999999999,6.92064,3.002298846485514,6.302535746439056,16.197516868348373,24.81983,59.474639,15.542226661902527,96.35224930856126,303.35044153342506,-0.8022688523737298,0.0021710435595193654,0.19895443704789215
2026-06-17T18:25:44+03:00,6.07,287.67,68.29787653613924,15.901919999999999,190.58868097231704,186.69829754337877,0.554737737245663,7.15392,7.15392,4.898789148368539,20.20249185631283,17.102790184655074,24.819817,59.474607,14.829572741762115,94.92711634459383,285.51579731691083,-0.6144391244628856,0.0019639676150693774,0.20091840466296151
2026-06-17T18:25:45+03:00,6.03,287.663,69.30055267761819,15.901919999999999,192.9951037118665,195.89999973317975,5.700013329079481,6.5124,7.814879999999999,1.3006141949469687,18.70134243307007,16.99965778153153,24.819792,59.474564,14.902107581950673,93.43013855314803,286.4252422650145,-0.38964637698957133,0.002694971225163716,0.20361337588812523
2026-06-17T18:25:46+03:00,6.0,287.66,68.29787653613924,16.69896,206.7804682627141,199.80184231802068,2.3000244769936637,6.95952,7.776,2.899166443361966,16.002711218003892,17.69866629159113,24.819764,59.474533,15.535142416614395,92.89479357067032,299.6752618333844,-0.35147097980938996,0.00205006908034151,0.20566344496846672
2026-06-17T18:25:47+03:00,6.0,287.664,67.30092997261161,17.107200000000002,199.99664796836515,196.30107018977134,-1.7000230739326654,6.9984,8.6508,1.701684651538545,13.200947599814167,15.699043586584558,24.819772,59.474516,15.787140324844316,91.44055171487875,291.4371996832439,-0.17593782794161983,0.0010506151166896052,0.20671406008515633
2026-06-17T18:25:48+03:00,5.96,287.65,65.30130726760504,17.70984,202.74111580704178,195.2983940482924,-1.7000230739326654,6.940079999999999,7.98984,0.8021409131831525,5.001921551492087,15.601640761412316,24.81975,59.474483,16.096275079828256,88.3626896065448,291.1038054135866,0.19829590827817625,0.00209418641530058,0.2088082465004569
2026-06-17T18:25:49+03:00,5.88,287.656,67.30092997261161,18.60408,203.9958933783783,187.29990322826615,-4.099971390397145,7.23168,8.378639999999999,2.498095986770389,2.6012283898939375,17.400728238123104,24.819683,59.474443,17.163169339551498,90.1753667290765,294.1712601074548,-0.022134162376693016,0.003156711199400157,0.21196495769985707
2026-06-17T18:25:50+03:00,6.03,287.65,70.29749924114583,18.195839999999997,202.99894681485068,184.49813961007638,-3.099988150555319,7.44552,8.02872,1.7990874767107847,1.701684651538545,17.400728238123104,24.819703,59.474411,17.180674840713458,94.37644072696347,297.3753875418141,-0.5681605329279878,0.0020180392723080517,0.21398299697216513
2026-06-17T18:25:51+03:00,6.03,287.648,72.3028515241037,17.5932,193.99777985334543,181.39843793841862,-2.7000063137744914,7.542719999999999,7.270560000000001,0.8995437383553924,1.9996227050065731,16.197516868348373,24.819659,59.47437,16.90370275156401,97.45987806533294,291.45765791867836,-0.979285602634294,0.0028067544606368527,0.216789751432802
2026-06-17T18:25:52+03:00,6.03,287.64,74.30247422911027,17.2044,188.81251180741148,182.000043623306,-2.7000063137744914,7.251119999999999,7.7176800000000005,3.002298846485514,-0.20053522829578813,12.702474318050351,24.819654,59.47434,16.764994756303796,98.90898755873788,287.7214993661494,-1.1229472964534077,0.0018096812059275476,0.21859943263872955
2026-06-17T18:25:53+03:00,5.88,287.644,76.30209693411685,17.2044,187.99891173832572,180.0004209182994,-0.600001403060998,7.387199999999999,8.10648,1.1974817918234204,-2.6012283898939375,13.200947599814167,24.819666,59.474318,17.04026147716581,101.21148085061398,289.2103925889397,-1.4363000167507578,0.0013721818240975106,0.21997161446282706
2026-06-17T18:25:54+03:00,5.73,287.63,76.30209693411685,17.70984,186.78997079059968,178.20133344158864,-1.1000216708716675,7.056719999999999,7.5816,2.200157933302361,-4.102377813136695,14.10049133816956,24.819654,59.474289,17.442697301670023,99.44707819805487,286.2370489886546,-1.1582656280636716,0.0017812079818544427,0.2217528224446815
2026-06-17T18:25:55+03:00,5.7,287.637,78.30171963912342,16.893359999999998,185.99928903331917,176.99812207181392,-0.6999825383113268,7.46496,7.892639999999999,2.498095986770389,-0.6990085100596044,15.00003507652495,24.819644,59.474258,17.02857445346478,103.72314133068758,289.72243036400675,-1.7709164027210096,0.001888184965352884,0.2236410074100344
2026-06-17T18:25:56+03:00,5.73,287.63,79.29866620265106,16.79616,184.9966128918402,177.30178970323325,0.9999832398418258,7.7176800000000005,8.59248,1.598552248414997,0.0,14.301026566465348,24.819636,59.474221,17.13279569194094,105.57035466068757,290.5669675525278,-2.0715907472117987,0.002237356857020336,0.22587836426705474
2026-06-17T18:25:57+03:00,5.88,287.634,78.30171963912342,16.60176,182.99699018683364,180.0004209182994,0.8000209693411684,7.698239999999999,8.456399999999999,1.501149423242757,5.901465289847479,15.401105533116528,24.819635,59.474185,16.824228258393617,104.92129019026379,287.9182803770974,-1.9822341763954066,0.002164093157090451,0.2280424574241452
2026-06-17T18:25:58+03:00,5.88,287.63,79.29866620265106,16.60176,182.99699018683364,184.20020155660836,1.1000216708716675,7.4844,8.22312,1.1000789666511805,3.5981749534215695,15.699043586584558,24.819668,59.474122,16.896427900864644,105.10011242365091,288.09710261048457,-1.9497341230374967,0.003918521072273818,0.231960978496419
2026-06-17T18:25:59+03:00,5.88,287.624,77.29904349764448,16.407359999999997,184.9966128918402,183.99966632831257,-0.2000195662801704,7.5816,7.970399999999999,2.498095986770389,5.2998596049601145,17.200193009827313,24.819658,59.474085,16.49190570319555,103.94445074883889,288.9410636406791,-1.8270220312324885,0.0022448434089477674,0.23420582190536676
2026-06-17T18:26:00+03:00,5.7,287.62,79.29866620265106,16.09632,191.99815714833886,180.68797027245643,-1.9621512652050173,7.40664,8.39808,2.498095986770389,1.902219879834333,18.099736748182707,24.819634,59.474049,16.42175881528922,105.60574572587952,297.60390287421836,-1.9925076805354578,0.0022845700061842663,0.23649039191155102
2026-06-17T18:26:01+03:00,5.66,287.626,79.29866620265106,16.407359999999997,191.99815714833886,179.71967159868532,-1.2436048943314517,7.1928,8.1648,3.300236899953542,2.200157933302361,16.902254956359283,24.819595,59.474055,16.64660914750573,104.42232560975057,296.4204827580894,-1.791491145485277,0.001244106164564467,0.2377344980761155
2026-06-17T18:26:02+03:00,5.66,287.61,80.30134234412998,16.09632,187.99891173832572,179.7826969561497,0.9935661125363605,7.17336,7.4844,-0.49847328176381617,-2.2975607584746007,14.799499848229162,24.819612,59.47399,16.481650206092276,105.70625030942271,293.70516204774844,-1.9418677396611903,0.003941324722769112,0.2416758227988846
2026-06-17T18:26:03+03:00,5.77,287.608,78.30171963912342,16.09632,187.99891173832572,177.96642074558503,-1.8139843793841866,7.17336,7.03728,0.49847328176381617,0.8995437383553924,11.79720100174365,24.819604,59.473959,16.23963825236868,103.93085003053834,291.92976176886407,-1.7269912618532248,0.0018792786157370163,0.24355510141462164
2026-06-17T18:26:04+03:00,6.15,287.61,80.30134234412998,15.610319999999998,181.9943140453547,177.4736770417725,-0.4221553034523906,7.095599999999999,7.32888,2.6012283898939375,6.497341396783535,8.10162322314984,24.819607,59.473929,16.02215443643334,106.18416951846943,288.17848356382416,-1.9777265877056533,0.0018055560992787075,0.24536065751390035
2026-06-17T18:26:05+03:00,6.03,287.602,80.30134234412998,15.70752,181.9943140453547,179.639457507367,0.6985501438234997,6.97896,6.901199999999999,2.4006931615981495,1.3980170201192088,8.30215845144563,24.819589,59.473908,16.077835456950954,105.63376040443707,287.62807444979177,-1.88074107593393,0.0013767027458182891,0.24673736025971862
2026-06-17T18:26:06+03:00,5.62,287.6,79.29866620265106,16.31016,195.99740255835198,178.14403766207553,1.2531159937306235,6.82344,7.387199999999999,2.6012283898939375,7.597420363434716,12.599341914926804,24.819551,59.473894,16.46964986850576,103.32136395983555,299.31876651818754,-1.57220649536098,0.0014332166513462028,0.24817057691106484
2026-06-17T18:26:07+03:00,5.43,287.592,77.29904349764448,16.407359999999997,195.99740255835198,182.000043623306,3.50002728311566,6.82344,7.776,3.300236899953542,3.5981749534215695,16.701719728063498,24.819557,59.473852,16.325793864230445,101.36120799444852,297.3586105528005,-1.3441740391413848,0.0025311614086682916,0.25070173831973314
2026-06-17T18:26:08+03:00,5.4,287.59,76.30209693411685,16.19352,195.99740255835198,183.91945223699423,0.8423625504013363,7.03728,8.96184,3.5981749534215695,6.89841185337511,20.700965138076644,24.819538,59.473815,16.055595366832147,101.50597848312736,297.5033810414793,-1.403727528054153,0.002298392141062494,0.2530001304607956
2026-06-17T18:26:09+03:00,5.81,287.585,72.3028515241037,15.70752,195.99740255835198,184.60127201319995,0.9000021045914972,6.8623199999999995,8.6508,0.09740282517223994,11.201324894807593,17.801798694714677,24.819528,59.473779,15.109082596706147,97.94134331548129,293.9387458738333,-0.9480929091066808,0.002185309858614521,0.25518544031941015
2026-06-17T18:26:10+03:00,5.88,287.58,71.30017538262474,14.696639999999999,191.99815714833886,189.79799921503653,0.300000701530499,6.53184,7.9120800000000004,2.200157933302361,5.901465289847479,12.100868633162985,24.819499,59.473779,14.039285013021999,97.4483617517144,289.44651890005326,-0.8467393514275016,0.0008853894406288093,0.256070829760039
2026-06-17T18:26:11+03:00,5.88,287.58,75.2994207926379,16.31016,197.9970252633586,188.8984554766811,-2.000023775463165,7.03728,7.698239999999999,-0.49847328176381617,2.4006931615981495,11.298727719979832,24.81948,59.473749,16.040266067462664,100.40985182745507,298.4068770908137,-1.2715539105220999,0.0018942386580712589,0.25796506841811023
2026-06-17T18:26:12+03:00,5.77,287.57,75.2994207926379,17.2044,197.9970252633586,182.000043623306,-3.099988150555319,7.03728,7.251119999999999,2.4006931615981495,9.20170218980102,10.89765726338826,24.819459,59.473723,16.85426552321663,99.11969526710787,297.11672053046647,-1.1153911368518987,0.0016892047163679156,0.25965427313447814
2026-06-17T18:26:14+03:00,5.66,287.57,75.2994207926379,16.893359999999998,196.99434912187962,188.8984554766811,3.600008418365989,6.74568,8.3592,3.9018425848409057,16.59858732493995,18.002333923010465,24.81945,59.473628,16.524300049728538,98.55695170547352,295.55130082735315,-1.0037060149728867,0.0011602366053684338,0.2608145097398466
2026-06-17T18:26:15+03:00,5.58,287.568,65.30130726760504,16.19352,197.9970252633586,194.39885030993702,2.7999874490248207,6.1624799999999995,8.80632,1.0026761414789407,14.902632251352712,13.498885653282196,24.819432,59.473605,14.724489859661777,87.64936126765768,285.6463865310163,0.25275336136122106,0.0014877010301762494,0.26230221077002286
2026-06-17T18:26:16+03:00,5.55,287.55,61.302061857591895,14.91048,201.99627067337175,195.699464504884,0.09998113525032865,6.95952,7.93152,1.0026761414789407,5.001921551492087,9.20170218980102,24.81942,59.473591,13.080462780940593,89.12228408904261,291.11855476241436,0.10660894354944836,0.0009178032171510306,0.2632200139871739
2026-06-17T18:26:17+03:00,5.55,287.551,60.29938571611295,14.91048,201.99627067337175,186.49776231508295,-3.50002728311566,6.95952,7.698239999999999,0.29793805346802804,18.59821002994652,10.399183981624443,24.819386,59.473577,12.95870834243208,88.10664841266151,290.10291908603324,0.22993700985876012,0.0013362937710034001,0.2645563077581773
2026-06-17T18:26:18+03:00,5.73,287.56,61.302061857591895,14.91048,190.9954810068599,193.60243897470517,3.8000279846461584,6.4152,7.1150400000000005,4.297183463481174,16.30064927147192,11.499262948275621,24.81939,59.473526,13.10011160316634,86.7411931409073,277.7366741477672,0.36468005252250063,0.0030679251579246304,0.26762423291610193
2026-06-17T18:26:19+03:00,5.73,287.569,65.30130726760504,14.59944,190.9954810068599,197.69908720989056,2.6000251785241626,6.4152,7.44552,2.498095986770389,11.900333404867197,20.597832734953094,24.819347,59.473495,13.267586807839077,91.3599185642636,282.3553995711235,-0.1522508383950618,0.0022793757192577924,0.2699036086353597
2026-06-17T18:26:20+03:00,5.36,287.57,61.302061857591895,14.696639999999999,210.99743763487695,192.39922760493045,-0.8000209693411684,6.492959999999999,6.82344,4.400315866604722,21.30257082296401,23.898069634906637,24.819342,59.473473,12.903697877856436,87.49379299229803,298.49123062717496,0.2839216662681365,0.0013311518468610692,0.2712347604822208
2026-06-17T18:26:21+03:00,5.73,287.559,59.30243915258532,13.7052,193.99777985334543,198.59863094824595,2.3000244769936637,6.95952,6.97896,1.902219879834333,16.002711218003892,17.60126346641889,24.819328,59.473444,11.784803523858828,89.81976603578762,283.81754588913304,0.021892359622281938,0.0017947645642486358,0.27302952504646943
2026-06-17T18:26:22+03:00,5.7,287.55,59.30243915258532,13.8996,193.99777985334543,197.6016843847183,-1.5000035076524951,6.95952,7.4844,1.7990874767107847,18.099736748182707,17.29759583499955,24.819296,59.473416,11.952682038055006,89.34656005548415,283.34433990882957,0.07936936750749277,0.001946035851525356,0.2749755608979948
2026-06-17T18:26:23+03:00,5.73,287.555,65.30130726760504,15.49368,209.99476149339802,196.9026758746587,0.2000195662801704,6.7068,7.83432,4.297183463481174,17.60126346641889,19.89882422489349,24.819276,59.473387,14.078208010627252,90.94758873777104,300.94235023116903,-0.11091564656992746,0.0018469806614389787,0.27682254155943375
2026-06-17T18:26:24+03:00,5.73,287.55,68.29787653613924,15.99912,204.99856951985726,199.20023663313333,-1.200002806121996,7.056719999999999,8.125919999999999,2.8017636181897254,4.801386323196299,20.397297506657306,24.819248,59.473359,14.90877513033733,94.38751012912478,299.38607964898205,-0.5398509310872079,0.0018876822128605765,0.2787102237722943
2026-06-17T18:26:25+03:00,5.58,287.547,68.29787653613924,17.107200000000002,204.99856951985726,187.79837651002993,-5.499993762799311,7.056719999999999,7.17336,2.1027551081301215,7.797955591730505,21.697911701604276,24.819219,59.473321,15.911413677963566,92.63247789175855,297.6310474116158,-0.32410981068169886,0.002449697264469318,0.2811599210367636
2026-06-17T18:26:26+03:00,5.36,287.54,70.29749924114583,17.009999999999998,206.9981922248638,186.56651725049866,-2.9338303899673805,7.387199999999999,7.348319999999999,2.498095986770389,8.600096504913656,18.002333923010465,24.81921,59.473288,16.099199671204968,95.89153164028227,302.88972386514604,-0.7582629693386113,0.002002496693169578,0.2831624177299332
2026-06-17T18:26:27+03:00,5.32,287.548,72.3028515241037,17.398799999999998,205.99551608338487,185.91334536404955,-0.7072018065299751,6.72624,8.39808,2.4006931615981495,4.199780638308934,14.197894163341799,24.81919,59.473255,16.637625263637904,94.95571830019938,300.9512343835843,-0.5810515985444983,0.002075415368479388,0.2852378330984126
2026-06-17T18:26:28+03:00,5.32,287.54,72.3028515241037,18.701279999999997,205.99551608338487,185.64978477828933,1.1800065790719303,6.72624,7.698239999999999,0.6990085100596044,8.10162322314984,15.601640761412316,24.819146,59.473244,17.846677446829755,93.34499830020236,299.3405143835872,-0.3924631582577939,0.0014972674711167865,0.2867351005695294
2026-06-17T18:26:29+03:00,5.7,287.537,71.30017538262474,18.701279999999997,201.99627067337175,186.19982426161496,-0.09998113525032865,7.892639999999999,7.44552,0.20053522829578813,14.197894163341799,14.398429391637588,24.819132,59.47321,17.815329261889115,96.11193993188037,298.1082106052521,-0.8403394851863557,0.002087883541878294,0.28882298411140767
2026-06-17T18:26:30+03:00,5.73,287.54,73.29979808763133,17.496,192.9951037118665,188.51457375394347,5.012292087583955,7.36776,7.892639999999999,4.801386323196299,22.001579333023614,15.899578814880346,24.819148,59.47315,16.920633965467484,97.94920481130812,290.94430852317464,-1.0189253334509811,0.0036393965033348235,0.2924623806147425
2026-06-17T18:26:31+03:00,5.47,287.537,74.30247422911027,17.5932,192.9951037118665,195.93437720088764,8.35905316050212,7.36776,7.32888,0.8021409131831525,30.802211066233056,20.700965138076644,24.819117,59.473113,17.136614366061767,98.75298984838922,291.7480935602557,-1.1211885932619479,0.0024170053692722992,0.2948793859840148
2026-06-17T18:26:32+03:00,5.36,287.53,68.29787653613924,17.70984,193.99777985334543,205.4454766000593,11.082321560758924,7.542719999999999,6.7068,3.5981749534215695,49.40042109617958,25.198683829853607,24.81909,59.473101,16.48453957794607,93.45681163226212,287.4545914856076,-0.4547969689651051,0.0010953569547665755,0.2959747429387814
2026-06-17T18:26:33+03:00,5.47,287.526,64.29863112612611,16.893359999999998,193.99777985334543,219.92984966096648,15.49220582254233,7.542719999999999,6.4152,0.29793805346802804,59.501667024335994,20.90150036637243,24.819076,59.47307,15.22358155682162,90.8144646455167,284.8122444988621,-0.10721683047497493,0.0019117364843280057,0.2978864794231094
2026-06-17T18:26:34+03:00,5.43,287.52,55.29746416462087,18.00144,202.99894681485068,233.5146789835183,14.804541876826317,6.492959999999999,6.55128,3.300236899953542,76.39819240274396,19.497753768301912,24.819048,59.473045,15.268401687685362,75.76092243094192,278.75986924579263,1.597063773047747,0.0017288437507102905,0.2996153231738197
2026-06-17T18:26:35+03:00,5.47,287.529,51.29821875460771,19.809359999999998,232.9990169679006,252.38790875512765,19.927873185106623,5.3654399999999995,5.65704,-0.8021409131831525,88.20112298243895,15.802175989708104,24.819017,59.47303,16.97894387138423,65.57546527426722,298.5744822421678,2.2185791648488955,0.00130717992457574,0.30092250309839547
2026-06-17T18:26:36+03:00,5.4,287.52,42.30278137105379,21.597839999999998,232.9990169679006,268.60834393528125,15.776736663604295,5.3654399999999995,4.957199999999999,3.701307356545118,101.90054386401691,11.79720100174365,24.818978,59.473023,17.995623810363007,53.8789848856989,286.87800185359947,3.1628875760989694,0.00126287545132924,0.3021853785497247
2026-06-17T18:26:37+03:00,5.55,287.523,32.29893826806962,21.90888,258.99984171093735,285.9345876600373,14.899022617243388,5.57928,4.16016,-4.497718691776963,109.80163185887096,6.199403343315507,24.818936,59.473019,17.449426788364658,42.136113198620336,301.13595490955765,4.137332533747769,0.0013046622919737512,0.30349004084169845
2026-06-17T18:26:38+03:00,5.47,287.51,23.297771306564393,22.20048,258.99984171093735,296.95256606040306,15.218102813351743,5.57928,4.548959999999999,3.5007721282493303,124.60113170710014,2.200157933302361,24.818855,59.473052,17.218111974214736,30.66100486080481,289.6608465717421,4.799294115490283,0.003170238088510488,0.3066602789302089
2026-06-17T18:26:39+03:00,5.62,287.519,10.29735893504601,20.19816,297.9953492475411,314.9434408275109,13.984581976214592,5.773680000000001,2.4299999999999997,-1.701684651538545,137.8020793069143,3.5007721282493303,24.818849,59.473029,14.55411561127679,14.363822735936395,312.3591719834775,5.593194728048014,0.001394561519302479,0.3080548404495114
2026-06-17T18:26:40+03:00,5.32,287.51,-2.6973238585210595,20.003759999999996,297.9953492475411,330.8544787982938,20.73207674635225,5.773680000000001,3.0132,-2.200157933302361,155.59814842367769,-3.002298846485514,24.81881,59.473044,14.239069397111113,3.790701342516911,294.2046479050242,5.761048405759566,0.0014935630484774545,0.3095484034979889
2026-06-17T18:26:41+03:00,5.66,287.516,-20.698798344838828,19.303919999999998,325.9957966955845,328.40221943513393,18.899986900641927,4.859999999999999,3.7713599999999996,0.8995437383553924,176.4022459648779,-8.898034558381685,24.818832,59.473095,14.857265405638705,27.338167335182987,298.65762936040153,4.317193929379647,0.0031382186890696025,0.3126866221870585
2026-06-17T18:26:42+03:00,5.73,287.51,-36.70150956284272,17.496,325.9957966955845,3.4721242384927886,6.764339729314498,4.859999999999999,3.53808,-2.899166443361966,-173.4973499435646,-10.399183981624443,24.81885,59.47311,13.906165168797205,48.757565551390655,277.23823114419383,3.2039381532039846,0.0010559027047550872,0.3137425248918136
2026-06-17T18:26:43+03:00,5.7,287.509,-54.698113907901885,15.99912,0.0,1.3980170201192088,11.299988227129122,5.65704,4.1212800000000005,-1.501149423242757,-164.59931538518288,-11.000789666511807,24.818864,59.473124,13.541343890095863,74.6324014002702,285.36759859972983,1.4991770828839062,0.0009438425734954709,0.31468636746530904
2026-06-17T18:26:44+03:00,5.4,287.5,-75.70274667739787,15.610319999999998,0.0,12.100868633162985,8.400019642853973,5.65704,3.888,-0.09740282517223994,-161.6027461166487,-10.3017811564522,24.818888,59.473136,15.233788687861097,96.79352486923342,263.2064751307666,-0.6691811624593111,0.0010281954160214757,0.3157145628813305
2026-06-17T18:26:45+03:00,5.28,287.505,-84.69818406095179,15.70752,17.996604345059158,18.197139573354946,3.30000771683549,5.6181600000000005,5.151599999999999,-0.6990085100596044,-159.098920551927,-10.399183981624443,24.818804,59.473154,16.185839964111782,104.91773423611049,273.07887010894865,-1.4462935715059557,0.002783503238131154,0.31849806611946163
2026-06-17T18:26:46+03:00,5.4,287.49,-93.69935102245702,15.396479999999999,17.996604345059158,19.801421399721253,1.2999839413723246,5.6181600000000005,5.57928,-3.9992454100131463,-153.79906094696688,-10.702851613043778,24.818832,59.473175,16.726548885205034,113.28301341534375,264.7135909297154,-2.2207080346999857,0.0015245050244671605,0.3200225711439288
2026-06-17T18:26:47+03:00,5.7,287.503,-99.69821913747673,15.99912,36.99588483159726,24.001202038030186,1.2999839413723246,5.57928,6.454079999999999,-1.0026761414789407,-150.0003507652495,-11.098192491684046,24.818875,59.473189,17.809398181205673,117.68515609888483,279.3107287327124,-2.592204048146033,0.001559387682524808,0.3215819588264536
2026-06-17T18:26:48+03:00,5.88,287.48,-102.70051798396224,16.31016,59.994410728148495,24.92939366614212,-4.599991658207815,5.346,6.337439999999999,-1.701684651538545,-158.3999120418674,-12.100868633162985,24.818923,59.473199,18.24667541832233,119.30816623067926,300.68624449746926,-2.616903035939163,0.001583975010758939,0.32316593383721254
2026-06-17T18:26:49+03:00,5.47,287.489,-97.69859643247017,17.2044,59.994410728148495,24.402272494621762,-1.899985344433323,5.346,6.84288,-1.902219879834333,-160.10159669340592,-18.90187766136586,24.818966,59.473208,18.68725004424297,114.16773440901297,305.8266763191355,-2.1887022077188854,0.0014199295508555243,0.32458586338806805
2026-06-17T18:26:50+03:00,5.47,287.48,-98.70127257394911,16.893359999999998,43.99742908809592,22.78080193440153,-1.0956098958491602,5.65704,6.045839999999999,-2.498095986770389,-153.99959617526267,-20.99890319154467,24.819011,59.473235,18.609213258175963,116.18846341657492,287.80896567152104,-2.496594194261491,0.0021263679121425573,0.3267122313002106
2026-06-17T18:26:51+03:00,5.73,287.489,-99.69821913747673,14.21064,35.59786781147805,21.050469393106447,-4.436927869713582,8.33976,6.648479999999999,-0.8995437383553924,-159.20205295505053,-16.99965778153153,24.819053,59.473264,17.6471838552266,127.46212061772314,268.1357471937549,-5.072548887599027,0.0021639766517572534,0.32887620795196787
2026-06-17T18:26:52+03:00,5.62,287.48,-97.69859643247017,13.39416,28.997394011570965,23.19906112484703,-1.4000223724021665,7.6788,7.60104,-0.49847328176381617,-162.70282508329987,-14.197894163341799,24.819095,59.473294,16.307168501645602,125.51504747006237,263.4823465415086,-4.460743502490371,0.0022126805910876947,0.33108888854305557
2026-06-17T18:26:53+03:00,5.55,287.49,-94.70202716393597,15.610319999999998,25.99509516508545,17.400728238123104,6.499977002641137,7.814879999999999,6.6095999999999995,-0.6990085100596044,-153.50112289349886,-12.599341914926804,24.819129,59.473326,18.020956017013102,120.30901010703587,265.68608505804957,-3.9438838468093844,0.002185683149318398,0.33327457169237396
2026-06-17T18:26:54+03:00,5.66,287.48,-94.70202716393597,17.5932,48.7186013199739,31.856453409273776,6.799977704171636,7.98984,7.46496,-2.6012283898939375,-152.09737629542832,-7.500017538262475,24.819163,59.473354,19.909892498883778,118.27704410022018,290.4415572197537,-3.785070067835838,0.001977398264855726,0.33525196995722967
2026-06-17T18:26:55+03:00,5.73,287.489,-98.70127257394911,18.09864,31.999692858056477,27.599376991451756,1.8000042091829944,6.72624,8.67024,-3.300236899953542,-147.7027900067749,-7.597420363434716,24.819204,59.473374,20.23946967230663,117.87950520364834,274.12018765440814,-3.145281703661107,0.0017355432362943727,0.33698751319352405
2026-06-17T18:26:56+03:00,5.73,287.48,-100.70089527895568,19.49832,51.995919908122204,30.200605381345692,-0.600001403060998,6.9984,7.776,-1.902219879834333,-143.69781501881047,-7.9984908200262925,24.819294,59.473422,21.90518911557969,118.99712919045555,292.9987907176667,-3.39258495196465,0.0039842898118444105,0.34097180300536845
2026-06-17T18:26:57+03:00,5.73,287.479,-97.69859643247017,18.701279999999997,51.995919908122204,30.286549050615314,-2.400005612243992,6.9984,8.3592,0.29793805346802804,-148.49920134200676,-10.599719209920229,24.819312,59.473403,20.827411933409476,117.14895326829416,294.84696663982805,-3.193407255563697,0.001267392792209556,0.342239195797578
2026-06-17T18:26:58+03:00,5.51,287.48,-93.69935102245702,17.90424,41.99780638308934,33.90191273789081,-3.9000091198964877,7.23168,8.08704,-0.49847328176381617,-157.9014387601036,-16.59858732493995,24.819364,59.473423,19.737453551654024,115.14573060559843,286.8520757774909,-3.072900413192731,0.0019914032930239065,0.3442305990906019
2026-06-17T18:27:00+03:00,5.66,287.46,-91.69972831745044,15.610319999999998,36.99588483159726,24.098604863202425,-2.1000049107134933,7.503839999999999,8.57304,-2.6012283898939375,-153.90219335009044,-19.19981571483389,24.819468,59.473519,17.519664520727453,117.04810869393557,279.94777613766166,-3.4122847792142488,0.0020233072901807343,0.34625390638078263
2026-06-17T18:27:01+03:00,6.03,287.468,-92.7024044589294,14.59944,44.99437565162355,26.401895199628335,-6.499977002641137,7.503839999999999,7.85376,-0.8995437383553924,-157.79830635698005,-16.701719728063498,24.819514,59.473544,16.7266746979201,119.32529388727954,285.669081764344,-3.675136125452607,0.0020568142063155837,0.3483107205870982
2026-06-17T18:27:02+03:00,5.92,287.46,-89.70010561244388,15.610319999999998,27.272791048227184,24.499675319793997,-3.6999895536163168,7.29,7.73712,0.6016056848873644,-163.29870119023593,-18.999280486538098,24.819528,59.473524,17.19403712603566,114.7861214242589,272.4866696239683,-3.0562026072966906,0.0012758814828353554,0.3495866020699336
2026-06-17T18:27:04+03:00,5.73,287.46,-83.70123749742416,18.29304,23.995472460078876,12.398806686631014,-2.7999874490248207,8.59248,8.08704,0.09740282517223994,-166.70207049331304,-21.30257082296401,24.81958,59.473658,19.338462437434593,109.90970967903326,274.0857627810456,-2.926073619322389,0.0027433424462708646,0.3523299445162045
2026-06-17T18:27:05+03:00,5.81,287.464,-84.69818406095179,18.09864,15.401105533116528,13.498885653282196,-0.5000202678106694,7.56216,7.52328,-3.701307356545118,-173.10200906492432,-13.401482828109954,24.819618,59.473629,18.95926763167392,108.09875765675139,267.30234787636516,-2.349229012322707,0.0020939138525671542,0.3544238583687716
