time,dpt,mtw,awa,aws,cog,hdg,rot,sog,stw,pitch,yaw,roll,lng,lat,tws,twa,twd,vmg,dist,cum_dist
2024-10-02T17:25:05+03:00,28.8,283.65,52.99859604960115,19.49832,315.86017329972026,305.7016315920507,0.0,6.0264,4.510079999999999,-1.1000789666511805,124.49799930397657,-15.20057030482074,24.789084,59.468228,16.585090371752187,69.8678580957559,25.728031395476137,2.07420525547441,0.001654691611892307,0.001654691611892307
2024-10-02T17:25:06+03:00,27.6,283.65,52.99859604960115,19.49832,313.4709392940247,302.49879751726945,0.0,5.87088,4.80168,-3.798710181717358,121.10035957885079,-17.102790184655074,24.789045,59.468247,16.63925895234188,69.36505212976637,22.83599142379103,2.0689717180950558,0.0016499978432540014,0.003304689455146308
2024-10-02T17:25:07+03:00,27.6,283.65,63.999385716112954,19.20672,306.8991133838741,300.0981043556713,0.2000195662801704,6.006959999999999,4.89888,-2.4006931615981495,120.4013510687912,-17.801798694714677,24.789003,59.468262,17.43061025224145,82.04306713955094,28.942180523425066,0.8315357446400244,0.001567709039121995,0.004872398494268303
2024-10-02T17:25:08+03:00,26.5,283.65,63.999385716112954,19.20672,307.51790780261547,298.7974901607243,0.0,5.79312,4.996079999999999,-4.102377813136695,116.60264088707383,-17.89920151988692,24.788964,59.468282,17.461496186742878,81.34813995393908,28.866047756554565,0.8714603954576938,0.0016921567756152166,0.00656455526988352
2024-10-02T17:25:09+03:00,25.6,283.65,63.999385716112954,19.20672,307.01943452085163,296.59733222742193,0.0,6.14304,4.996079999999999,-0.6990085100596044,116.4995084839503,-17.29759583499955,24.788919,59.468299,17.412294435181433,82.48653668008632,29.50597120093795,0.8032587354722817,0.001712395684245172,0.008276950954128691
2024-10-02T17:25:10+03:00,25.2,283.65,63.999385716112954,19.20672,301.9716763457491,294.0018334154794,0.600001403060998,6.27912,5.09328,-4.497718691776963,113.30240398712029,-17.200193009827313,24.788872,59.468314,17.395023908065085,82.9309134786918,24.902589824440895,0.7727465211870049,0.001694885001517258,0.00997183595564595
2024-10-02T17:25:11+03:00,25.0,283.65,63.999385716112954,19.20672,300.8200311775361,293.1022896771239,0.0,5.6181600000000005,5.20992,-2.498095986770389,111.40018410728595,-18.099736748182707,24.788829,59.468326,17.488670843592686,80.78145543714217,21.601486614678265,0.9000330493613442,0.0014981032251715062,0.011469939180817457
2024-10-02T17:25:12+03:00,25.0,283.65,71.00092997261162,17.398799999999998,297.80054359719674,290.9021317438216,1.4000223724021665,5.9292,5.307119999999999,-4.199780638308934,110.99911365069438,-19.600886171425465,24.788781,59.468338,16.45311431068248,90.9227689355425,28.723312532739214,-0.09548774964581032,0.0016335740715277781,0.013103513252345236
2024-10-02T17:25:13+03:00,25.0,283.65,71.00092997261162,16.893359999999998,302.8311130384453,289.8020527771704,0.0,6.10416,5.404319999999999,-0.29793805346802804,109.69849945574742,-20.700965138076644,24.788728,59.468353,15.984508705533981,92.16724637370898,34.99835941215429,-0.23083836698518023,0.0018525883012819565,0.014956101553627192
2024-10-02T17:25:14+03:00,25.0,283.65,71.00092997261162,16.31016,294.97013208925046,288.1977709508041,1.5999846429028237,5.87088,5.404319999999999,-6.600473799907084,107.80200915386439,-20.500429909780856,24.788678,59.468362,15.431848176071533,92.08358382359737,27.053715912847792,-0.2134498344902491,0.001619784076128222,0.016575885629755413
2024-10-02T17:25:15+03:00,25.1,283.65,69.99825383113267,16.19352,296.90099985884126,288.9999118639872,0.0,5.65704,5.404319999999999,-0.8995437383553924,108.39788526080044,-22.29951738649164,24.788633,59.468373,15.21722047613544,90.44454660086024,27.345546459701495,-0.04389141212124157,0.00152489896764077,0.018100784597396183
2024-10-02T17:25:16+03:00,25.4,283.65,71.00092997261162,16.407359999999997,296.0014561204859,287.0976919841529,0.3999818367808277,5.890319999999999,5.404319999999999,-4.898789148368539,106.59879778408965,-21.199438419840458,24.788585,59.468385,15.523256412142251,92.02623698705219,28.027693107538084,-0.2082648446384606,0.00163357224244062,0.019734356839836802
2024-10-02T17:25:17+03:00,25.8,283.65,69.99825383113267,15.901919999999999,296.1103181015608,286.70235110551266,0.6999825383113268,5.851439999999999,5.50152,-2.6012283898939375,106.70193018721321,-20.20249185631283,24.788538,59.468395,14.94843557513032,91.58014877438659,27.69046687594738,-0.16135523034421964,0.001555958802056906,0.02129031564189371
2024-10-02T17:25:18+03:00,25.8,283.65,69.99825383113267,16.19352,296.48274066839576,288.9999118639872,3.399988852085818,5.6376,5.50152,-4.102377813136695,110.39750796580702,-17.801798694714677,24.788494,59.468406,15.21708206321157,90.37135275683096,26.854093425226722,-0.0365388805651432,0.0014974404547509403,0.02278775609664465
2024-10-02T17:25:19+03:00,25.8,283.65,67.99863112612611,16.09632,299.1126169480463,290.9021317438216,3.099988150555319,6.10416,5.50152,-2.6012283898939375,112.2023250204691,-17.29759583499955,24.788455,59.468418,14.924287496897236,90.28415511318774,29.39677206123406,-0.03027310527993563,0.0013922897629650094,0.02418004585960966
2024-10-02T17:25:20+03:00,25.3,283.65,67.00168456259847,16.19352,302.92278628566623,292.3001487639408,0.0,5.754239999999999,5.598719999999999,-0.8995437383553924,113.10186875882451,-12.100868633162985,24.78836,59.468445,14.917394683514795,87.80004619419411,30.722832479860358,0.2208880306802929,0.0033239876947783824,0.02750403355438804
2024-10-02T17:25:21+03:00,25.1,283.65,67.99863112612611,16.407359999999997,305.7417386377099,291.1026669721174,0.0,5.443199999999999,5.598719999999999,-4.102377813136695,108.3004824356282,-10.800254438216017,24.788322,59.468458,15.22874894510731,87.35236722704829,33.09410586475815,0.2514402701133679,0.001398926334430588,0.02890295988881863
2024-10-02T17:25:22+03:00,24.8,283.65,67.99863112612611,16.31016,296.9812139501596,286.5992187023891,0.0,5.26824,5.50152,-2.2975607584746007,105.9971920992023,-15.29797312999298,24.788283,59.46847,15.145794621934266,86.81305737581366,23.794271325973227,0.292882348521309,0.0013922881955098086,0.030295248084328437
2024-10-02T17:25:23+03:00,24.8,283.65,75.00017538262475,15.610319999999998,290.31771479278814,282.39943806408013,0.0,5.52096,5.50152,-3.0997016716577535,101.6026058105489,-19.400350943129673,24.788235,59.46848,15.150957164030888,95.60867767581979,25.9263924686079,-0.5395834609154478,0.001584164388603962,0.0318794124729324
2024-10-02T17:25:24+03:00,24.6,283.65,73.99749924114583,15.70752,284.4277086588433,278.49759547923924,0.0,5.3654399999999995,5.598719999999999,-2.899166443361966,94.19999109745865,-22.797990668255455,24.788189,59.468488,15.134294282528726,93.92215429931889,18.34986295816219,-0.3670017599104591,0.0014846602568136828,0.03336407272974608
2024-10-02T17:25:25+03:00,24.7,283.65,86.00096504913657,15.804720000000001,282.118688744466,271.9028512572835,0.0,5.404319999999999,5.598719999999999,-2.498095986770389,92.29777121762432,-22.098982158195852,24.788142,59.468493,16.342655634997037,105.26262972204235,27.381318466508333,-1.4226541458942283,0.0014662964311013046,0.034830369160847384
2024-10-02T17:25:26+03:00,24.8,283.65,82.99866620265107,16.09632,278.6924011295837,270.69963988750874,1.8000042091829944,5.28768,5.307119999999999,-4.60085109490051,90.60181614403709,-23.101658299674792,24.788097,59.468498,16.318762542766336,101.75888941285214,20.4512905424358,-1.077595592037816,0.001406577602190592,0.03623694676303798
2024-10-02T17:25:27+03:00,25.5,283.65,84.99828890765764,16.19352,278.3600856084078,272.99720064598336,0.8000209693411684,5.46264,5.307119999999999,-5.2998596049601145,92.29777121762432,-23.399596353142822,24.788047,59.468502,16.632672008119496,104.09584936916896,22.45593497757676,-1.3303973013860184,0.0015455872191311038,0.03778253398216908
2024-10-02T17:25:28+03:00,25.6,283.65,88.00058775414314,16.19352,281.74053659967973,274.4009472440539,0.5000202678106694,5.443199999999999,5.307119999999999,-2.200157933302361,95.39747288928207,-25.697157111617422,24.787998,59.468508,16.902896835195037,106.77431542483164,28.514852024511356,-1.5709217830717974,0.00153908708016088,0.03932162106232996
2024-10-02T17:25:29+03:00,26.3,283.65,84.99828890765764,15.901919999999999,281.70042955402056,275.1973585792857,4.400029387707157,5.38488,5.307119999999999,-3.3976397251257815,96.80121948735258,-28.097850273215574,24.787948,59.468513,16.338195027655352,104.16593886842892,25.866368422449455,-1.3178472168073372,0.0015560703201298218,0.04087769138245979
2024-10-02T17:25:30+03:00,26.7,283.65,82.99866620265107,15.70752,282.96093670330833,280.4972181842458,5.899975599580139,5.65704,5.307119999999999,-3.5007721282493303,102.89749042754454,-27.398841763155968,24.7879,59.468518,16.033278854848948,103.49822604947995,26.459162752788302,-1.3204394507160002,0.0014961956235253603,0.04237388700598515
2024-10-02T17:25:31+03:00,26.2,283.65,80.00209693411685,15.99912,291.9391853530084,287.6992976690403,9.700003584226298,5.57928,5.307119999999999,-4.898789148368539,110.30010514063478,-29.902667327877666,24.78785,59.468527,16.003303660576403,100.08251440355968,32.02169975656807,-0.9767437167874157,0.001619777049476923,0.043993664055462074
2024-10-02T17:25:32+03:00,26.2,283.65,78.9994207926379,15.99912,298.6714394457955,298.4995521072563,11.400026658158962,5.0544,5.404319999999999,-3.2028340747813018,123.99952602221278,-27.799912219747544,24.787808,59.468537,15.832160087724624,97.26263338000238,35.9340728257979,-0.6389656091409696,0.0014163570950796638,0.04541002115054174
2024-10-02T17:25:33+03:00,25.8,283.65,78.9994207926379,16.60176,312.23908003449344,312.19897298883427,13.699993839373114,5.0544,5.404319999999999,-2.2975607584746007,138.00261453521009,-26.997771306564392,24.787775,59.468555,16.405530310432297,96.60304185783612,48.842121892329544,-0.5812048945710182,0.0014785083427138169,0.04688852949325556
2024-10-02T17:25:34+03:00,26.0,283.65,73.99749924114583,18.895680000000002,319.1890580894303,324.5977796754653,12.299971466970948,4.87944,5.404319999999999,-1.7990874767107847,147.7027900067749,-27.19830653486018,24.787744,59.468571,18.166458286501868,88.96006604237553,48.14912413180582,0.08855829856440657,0.0013494286587550429,0.0482379581520106
2024-10-02T17:25:35+03:00,26.0,283.65,61.99976301110639,20.10096,331.97174649879895,334.4984903753259,7.999980510293633,4.58784,5.307119999999999,-0.6016056848873644,157.9988415852758,-22.29951738649164,24.787728,59.468592,18.39855622376383,74.71879149705028,46.69053799584924,1.2091559086449661,0.0013535147146787835,0.049591472866689384
2024-10-02T17:25:36+03:00,26.0,283.65,56.00089489608667,21.40344,342.7490826252098,344.8002715317781,7.3999791072326335,4.4712,5.20992,-1.701684651538545,168.00268468825996,-18.59821002994652,24.787715,59.468612,19.2632520658563,67.0955380804895,49.8446207056993,1.7401717532346144,0.001265998379514617,0.050857471246204
2024-10-02T17:25:37+03:00,25.7,283.65,50.998973344594575,22.394879999999997,357.34804724514316,353.199832808396,7.200016836731978,4.23792,4.996079999999999,0.6016056848873644,175.50270222652244,-14.598964619933378,24.787713,59.468632,20.00083145197506,60.47674089751662,57.82478814265977,2.088348819854585,0.0012037045546488333,0.05206117580085284
2024-10-02T17:25:38+03:00,25.7,283.65,48.999350639587995,22.80312,0.14896902673401402,1.902219879834333,4.899992359738313,3.96576,4.89888,-3.9018425848409057,-175.3995698233989,-10.50231638474799,24.787717,59.468648,20.421824575359512,57.42682033946217,57.57578936619618,2.1350714782669487,0.0009694485572014156,0.05303062435805425
2024-10-02T17:25:39+03:00,24.5,283.65,39.00123711455514,23.502959999999998,10.439291027283598,8.10162322314984,6.699996568921307,3.81024,4.89888,3.002298846485514,-169.4007017083792,-6.697876625079324,24.787726,59.468665,20.681384577033654,45.6594341388693,56.0987251661529,2.663059899847224,0.0010581416368397269,0.05408876599489398
2024-10-02T17:25:40+03:00,23.7,283.65,39.00123711455514,22.60872,1.4896902673401402,18.099736748182707,5.400012627548983,3.8491199999999997,4.89888,-3.2028340747813018,-158.8983853236312,-5.202456779787875,24.787728,59.468683,19.766439047099176,46.04058058957207,47.53027085691221,2.671861694704548,0.001083661103327031,0.05517242709822101
2024-10-02T17:25:41+03:00,23.7,283.65,35.00199170454199,22.900319999999997,12.181082724481302,24.299140091498213,6.799977704171636,3.2464799999999996,4.80168,0.20053522829578813,-153.5985257186711,-6.89841185337511,24.787735,59.468695,20.326505599323653,40.258470261575155,52.439552986056455,2.4775088206999887,0.0007522969778512154,0.05592472407607223
2024-10-02T17:25:42+03:00,23.6,283.65,26.997771306564392,22.00608,14.169246273585257,31.19755194487332,6.09999516586031,3.2270399999999997,4.60728,-1.3980170201192088,-145.30209684517678,-3.5981749534215695,24.787745,59.468707,19.186715970766777,31.376648891505113,45.54589516509037,2.7551275638573487,0.0007832644611042461,0.05670798853717647
2024-10-02T17:25:43+03:00,23.6,283.65,22.001579333023614,21.50064,23.46262171060721,38.898104711431586,6.499977002641137,2.89656,4.29624,0.09740282517223994,-138.1000173603823,-1.3980170201192088,24.787758,59.468718,18.846292770221172,25.302419803449766,48.765041514056975,2.618677068178403,0.0007711947124124041,0.057479183249588874
2024-10-02T17:25:44+03:00,23.6,283.65,16.99965778153153,20.9952,28.590593977028078,45.097508054747095,4.2000098214269865,2.7021599999999997,4.101839999999999,-0.6016056848873644,-133.2012282120138,0.0,24.78777,59.46873,18.428048879921214,19.456709584792463,48.04730356182054,2.547848919479206,0.0008090294947288169,0.05828821274431769
2024-10-02T17:25:45+03:00,23.6,283.65,9.998113525032863,20.7036,56.298832949554686,49.40042109617958,4.899992359738313,2.37168,3.7908,-0.49847328176381617,-128.49724471398974,3.002298846485514,24.787793,59.468732,18.37255231123246,11.282319604967483,67.58115255452216,2.3258474669405853,0.0007125247770812554,0.05900073752139894
2024-10-02T17:25:46+03:00,23.6,283.65,1.0026761414789407,19.809359999999998,66.37716056590588,53.69760455966075,4.2000098214269865,2.15784,3.5964,0.09740282517223994,-124.69853453227238,7.0015442564986605,24.787815,59.468733,17.651890798553673,1.1252412494895907,67.50240181539547,2.157423877394958,0.00067445881078246,0.0596751963321814
2024-10-02T17:25:47+03:00,23.6,283.65,-3.99838597332045,18.895680000000002,64.74996042773434,58.99746416462087,5.700013329079481,2.15784,3.3047999999999997,0.09740282517223994,-118.6022635920804,10.198648753328653,24.787833,59.468738,16.74376820705781,4.513263624110095,60.23669680362424,2.1511488493598305,0.0006264352208035877,0.060301631552984986
2024-10-02T17:25:48+03:00,23.6,283.65,-7.997631383333596,18.09864,77.01125724353396,64.1025181192365,6.09999516586031,1.98288,2.99376,1.0026761414789407,-113.49720963746478,12.599341914926804,24.787847,59.468742,16.137404237196222,8.977198236336704,68.03405900719726,1.9585907470427322,0.0004904664930315439,0.06079209804601653
2024-10-02T17:25:49+03:00,23.6,283.65,-12.002606371298052,17.398799999999998,86.0983678743088,69.99825383113267,5.899975599580139,2.64384,2.99376,0.6990085100596044,-107.89941197903663,18.500807204774283,24.787873,59.468742,14.82295921729033,14.12826912800432,71.97009874630449,2.5638683350179936,0.0007939157733716064,0.061586013819388136
2024-10-02T17:25:50+03:00,23.6,283.65,-16.99879834483883,16.893359999999998,90.65911192355017,72.39894699273083,2.000023775463165,2.8576799999999998,2.7021599999999997,1.3006141949469687,-107.49834152244506,25.80028951474097,24.787903,59.468742,14.185153092278115,20.3752391640906,70.28387275945957,2.6788822214828474,0.000916056661365971,0.06250207048075411
2024-10-02T17:25:51+03:00,23.6,283.65,-20.998043754851974,16.407359999999997,92.71030083011851,70.39932428772426,0.0,2.97432,2.7021599999999997,1.3006141949469687,-110.99911365069438,30.40114060964148,24.787928,59.468742,13.67216215567083,25.469041992015434,67.24125883810308,2.6852689377219994,0.0007633805512030571,0.06326545103195717
2024-10-02T17:25:52+03:00,23.6,283.65,-25.99996530634406,16.50456,92.34933741918607,66.30267605253886,0.0,3.3047999999999997,2.89656,2.6986312150661775,-114.99835906070751,27.599376991451756,24.787964,59.468742,13.61154086820502,32.10974190400549,60.23959551518058,2.7992698873934985,0.0010992679936974326,0.0643647190256546
2024-10-02T17:25:53+03:00,23.6,283.65,-29.999210716357208,17.70984,85.55978754688584,63.79885048781716,0.0,3.6352800000000003,2.89656,1.902219879834333,-116.99798176571409,24.60280772291755,24.787997,59.468742,14.674569233977563,37.11415535905729,48.44563218782855,2.8988990609483825,0.0010076623275802614,0.06537238135323487
2024-10-02T17:25:54+03:00,24.3,283.65,-33.00150956284272,19.20672,82.23090275717576,62.29770106457441,0.0,3.73248,2.99376,0.8021409131831525,-118.8027988203762,19.19981571483389,24.788037,59.46874,16.204479472287456,40.20855533737128,42.022347419804476,2.8504936365960813,0.0012273106760102136,0.06659969202924508
2024-10-02T17:25:55+03:00,24.3,283.65,-35.00113226784929,20.19816,79.92188284279852,59.39853462121244,0.0,3.92688,3.402,1.3006141949469687,-121.30089480714659,17.400728238123104,24.788078,59.468743,17.1302228128702,42.556754863364574,37.36512797943395,2.8925702927274686,0.0012648638362381833,0.06786455586548326
2024-10-02T17:25:56+03:00,24.4,283.65,-37.00075497285587,20.8008,75.12049651960223,59.10059656774442,0.0,4.0824,3.5964,1.1974817918234204,-120.69928912225922,20.500429909780856,24.788119,59.468747,17.711715247706078,44.97428993280292,30.14620658679931,2.8879877649745316,0.001274821855010762,0.06913937772049403
2024-10-02T17:25:57+03:00,24.4,283.65,-35.00113226784929,20.5092,75.83096418556445,59.3011317960402,0.0,4.35456,3.7908,1.598552248414997,-120.601886297087,21.49737647330849,24.788162,59.468754,17.12533073095995,43.38768354582362,32.443280639740834,3.16455608666552,0.001378782171831275,0.07051815989232531
2024-10-02T17:25:58+03:00,24.0,283.65,-33.00150956284272,20.7036,79.42913913898603,58.40158805768482,0.0,4.33512,4.00464,0.8995437383553924,-122.29784137067423,21.89844692990006,24.788203,59.468759,17.23047249077092,40.877798549054404,38.55134058993163,3.2778150846092284,0.0012875116051636554,0.07180567149748897
2024-10-02T17:25:59+03:00,24.0,283.65,-31.00188685783615,20.898,67.91268745685649,56.60250058097403,0.0,4.52952,4.101839999999999,0.49847328176381617,-124.10265842533632,23.800666809734395,24.788241,59.468772,17.174715075075664,38.809048404695005,29.103639052161483,3.5295786314240973,0.001398917391557068,0.07320458888904603
2024-10-02T17:26:00+03:00,24.0,283.65,-29.999210716357208,20.8008,64.48067026402285,54.797683526311936,0.0,4.45176,4.19904,1.7990874767107847,-125.59807827062775,21.10203559466822,24.788254,59.468777,17.09099101649582,37.48232103013086,26.998349233891986,3.532654703870333,0.0004978942656427287,0.07370248315468876
2024-10-02T17:26:01+03:00,24.0,283.65,-31.99883342136378,21.092399999999998,65.67815205584627,54.201807419375875,0.0,4.29624,4.393439999999999,0.0,-126.10228113034287,16.39805209664416,24.7883,59.468787,17.596823417857742,39.432301449092506,26.245850606753763,3.3183109942621294,0.0015278242806892868,0.07523030743537805
2024-10-02T17:26:02+03:00,24.0,283.65,-31.99883342136378,21.79224,63.90771246889202,53.89813978795654,0.300000701530499,4.393439999999999,4.510079999999999,1.3006141949469687,-125.9017459020471,15.49850835828877,24.788349,59.4688,18.21572965804919,39.341702702786705,24.566009766105317,3.3977942287414247,0.0016879785281029651,0.07691828596348102
2024-10-02T17:26:03+03:00,24.0,283.65,-31.99883342136378,21.69504,60.48715443196101,54.797683526311936,0.0,4.0824,4.60728,0.40107045659157625,-125.0022021636917,15.29797312999298,24.788382,59.468808,18.36080820023846,38.76514333523019,21.722011096730817,3.183124942020201,0.001116515850868025,0.07803480181434905
2024-10-02T17:26:04+03:00,24.0,283.65,-29.002264152829575,21.90888,61.99976301110639,54.499745472843905,0.0,3.8296799999999998,4.60728,0.40107045659157625,-125.70121067375132,14.197894163341799,24.788406,59.468814,18.652091135438337,34.71546787739763,27.28429513370876,3.1479599090148573,0.0008167777149812466,0.07885157952933029
2024-10-02T17:26:05+03:00,24.0,283.65,-27.99958801135063,22.00608,59.39853462121244,53.10172845272469,0.0,3.9074399999999994,4.60728,-0.6016056848873644,-127.50029815046209,13.298350424986406,24.788438,59.468822,18.646454417172826,33.64538349744325,25.753151123769193,3.25287597757389,0.0010890367716710416,0.07994061630100134
2024-10-02T17:26:06+03:00,24.0,283.65,-27.002641447823002,22.20048,58.87141344969209,50.998973344594575,0.0,3.9851999999999994,4.60728,0.8995437383553924,-130.10152654035605,10.399183981624443,24.78847,59.46883,18.737293444147543,32.54416590753439,26.3272475421577,3.359432031994658,0.0010890365640274754,0.08102965286502882
2024-10-02T17:26:07+03:00,23.9,283.65,-25.99996530634406,22.00608,63.90771246889202,50.20256200936274,0.0,4.374,4.704479999999999,0.29793805346802804,-129.49992085546867,10.399183981624443,24.788503,59.468837,18.17617313897391,32.05545396699887,31.852258501893154,3.707117278154711,0.0010919761026560398,0.08212162896768486
2024-10-02T17:26:08+03:00,23.9,283.65,-24.997289164865123,22.29768,56.88897947853944,52.09905231124576,2.000023775463165,4.04352,4.704479999999999,0.20053522829578813,-126.80128964040247,8.898034558381685,24.788537,59.468848,18.71110741421264,30.236819985687276,26.652159492852164,3.4934046347918373,0.0012308587195547546,0.08335248768723962
2024-10-02T17:26:09+03:00,23.9,283.65,-24.000342601337486,22.103279999999998,63.05973493209841,54.499745472843905,2.6000251785241626,3.8491199999999997,4.60728,-1.3980170201192088,-124.40059647880433,11.201324894807593,24.788577,59.46885,18.65276282157521,28.81506549733527,34.24466943476314,3.372521870072134,0.001227306791118784,0.0845797944783584
2024-10-02T17:26:10+03:00,23.9,283.65,-22.000719896330917,21.597839999999998,67.84966209939208,56.40196535267824,2.199986045963822,3.402,4.510079999999999,0.8995437383553924,-123.30051751215316,11.499262948275621,24.788612,59.468852,18.4875563984907,25.9535752575201,41.89608684187198,3.058904720568131,0.0010754692552706333,0.08565526373362903
2024-10-02T17:26:11+03:00,23.9,283.65,-22.99766645985855,20.7036,70.15868201376931,56.00089489608667,0.0,3.7908,4.393439999999999,0.09740282517223994,-124.60113170710014,15.899578814880346,24.788659,59.468857,17.277684280923054,27.915089903824793,42.243592109944515,3.349711463837462,0.0014662813001037112,0.08712154503373273
2024-10-02T17:26:12+03:00,23.8,283.65,-20.00109719132434,20.606399999999997,77.57848546071348,56.00089489608667,1.5000035076524951,4.1796,4.29624,0.8995437383553924,-123.50105274044896,17.89920151988692,24.788712,59.468862,16.74004225143085,24.90006558917608,52.6784198715374,3.791079147648536,0.0016460304440941756,0.0887675754778269
2024-10-02T17:26:13+03:00,23.8,283.65,-20.00109719132434,20.606399999999997,75.859612075321,56.79730623131851,0.0,4.1796,4.29624,1.0026761414789407,-123.09998228385736,21.801044104727822,24.788755,59.468863,16.74004225143085,24.90006558917608,50.959546486144916,3.791079147648536,0.0013143849684818679,0.09008196044630877
2024-10-02T17:26:15+03:00,23.8,283.65,-18.998421049845405,20.29536,72.08954978336018,58.99746416462087,1.5000035076524951,3.9851999999999994,,0.8021409131831525,-119.79974538390384,24.797613373262028,24.788842,59.468876,16.578084920025994,23.486803250886,48.602746532474185,3.655033722490327,0.002769091397996969,0.09285105184430574
2024-10-02T17:26:16+03:00,24.0,283.65,-18.998421049845405,19.59552,73.80269359080134,62.40083346769795,3.50002728311566,3.81024,4.19904,0.29793805346802804,-116.40210565877804,28.20098267633912,24.788882,59.468883,16.040863045630516,23.433365175129808,50.36932841567153,3.4959835903179983,0.001291844207904933,0.09414289605221067
2024-10-02T17:26:17+03:00,24.4,283.65,-20.00109719132434,19.20672,70.989470816709,64.40045617270454,3.2000265815851607,3.6352800000000003,4.29624,0.6990085100596044,-114.90095623553529,30.60167583793727,24.788916,59.468891,15.839576965730792,24.50343941412123,46.48603140258777,3.307873507398806,0.001144147239773264,0.09528704329198394
2024-10-02T17:26:18+03:00,24.5,283.65,-22.000719896330917,18.701279999999997,75.64761769112259,65.7010703676515,1.7000230739326654,4.02408,4.29624,1.902219879834333,-113.39980681229254,31.5986224014649,24.788951,59.468895,15.045947341118751,27.750985818908305,47.896631872214286,3.561228813669145,0.001095438967248688,0.09638248225923263
2024-10-02T17:26:19+03:00,24.8,283.65,-24.000342601337486,18.29304,76.43829944840313,69.00130726760504,2.000023775463165,4.4712,4.393439999999999,1.701684651538545,-109.80163185887096,27.897315044919782,24.788994,59.4689,14.324322361200249,31.29433767863773,45.1439617697654,3.820685863315319,0.0013469650239285112,0.09772944728316114
2024-10-02T17:26:20+03:00,25.2,283.65,-33.00150956284272,18.50688,76.24922337600995,70.19878905942846,0.0,4.68504,4.393439999999999,1.3006141949469687,-109.69849945574742,26.602430427924123,24.78904,59.468905,14.799393192092474,42.9302503580609,33.31897301794905,3.4303085052466025,0.0014364061555031643,0.09916585343866431
2024-10-02T17:26:21+03:00,25.2,283.65,-33.99845612637036,18.60408,77.29200656314805,69.59718337454109,0.0,4.548959999999999,4.393439999999999,1.3006141949469687,-110.90171082552214,26.201359971332543,24.789084,59.468908,15.049275073066804,43.729362835985626,33.562643727162424,3.2871375816977517,0.0013555902212744918,0.1005214436599388
2024-10-02T17:26:22+03:00,25.2,283.65,-35.00113226784929,18.895680000000002,79.02806868239445,67.50015784436228,0.0,4.704479999999999,4.704479999999999,1.1000789666511805,-113.19927158399673,27.100903709687937,24.789128,59.468912,15.282175733192323,45.17147715319314,33.85659152920131,3.3165989326917824,0.0013648864559805448,0.10188633011591934
2024-10-02T17:26:23+03:00,25.2,283.65,-35.00113226784929,19.49832,75.55021486595035,65.50053513935572,0.0,4.62672,4.704479999999999,1.598552248414997,-115.30202669212686,29.10052641469451,24.78917,59.468916,15.930985580815463,44.59041572628914,30.959799139661214,3.2948885288764447,0.0013048154961363212,0.10319114561205567
2024-10-02T17:26:24+03:00,25.0,283.65,-33.99845612637036,19.49832,74.82255846613421,64.8015266292961,0.0,4.87944,4.80168,1.1974817918234204,-114.99835906070751,28.802588361226483,24.789214,59.468925,15.692030392363835,44.011606248043876,30.810952218090335,3.5092887128081505,0.00144836281973753,0.1046395084317932
2024-10-02T17:26:25+03:00,25.0,283.65,-33.99845612637036,19.49832,75.9283670107367,65.0020618575919,0.2000195662801704,4.91832,4.80168,0.40107045659157625,-114.90095623553529,28.097850273215574,24.789256,59.46893,15.66409122640822,44.11041746646174,31.817949544274953,3.5313525582718652,0.0013172162324935485,0.10595672466428675
2024-10-02T17:26:26+03:00,25.0,283.65,-31.99883342136378,19.20672,77.21752204978104,68.80077203930925,5.899975599580139,5.03496,4.80168,2.498095986770389,-108.90208812051559,25.3992190581494,24.789306,59.468935,15.173191252899727,42.12630672780881,35.09121532197223,3.73426843011916,0.00155605161279105,0.10751277627707781
2024-10-02T17:26:27+03:00,24.7,283.65,-35.00113226784929,19.303919999999998,80.71829417803038,73.40162313420976,3.2000265815851607,5.5598399999999994,5.20992,0.29793805346802804,-105.80238644885782,27.897315044919782,24.789361,59.468935,15.090453906703019,47.201505632807255,33.51678854522312,3.777477739746135,0.0016794276205779545,0.10919220389765577
2024-10-02T17:26:28+03:00,24.7,283.65,-31.99883342136378,18.99288,81.61210833843445,73.20108790591398,0.0,5.598719999999999,5.20992,1.0026761414789407,-107.80200915386439,31.799157629760693,24.789422,59.468936,14.550501271018922,43.76364825165638,37.848460086778076,4.043391207849329,0.0018636074709034748,0.11105581136855924
2024-10-02T17:26:29+03:00,24.7,283.65,-29.999210716357208,18.60408,87.19271726300869,70.10138623425622,0.0,5.832,5.20992,1.9996227050065731,-112.29972784564136,34.29725361653108,24.789472,59.468935,13.863504278414133,42.140985225270754,45.051732037737935,4.324405120121218,0.0015279351117556004,0.11258374648031484
2024-10-02T17:26:30+03:00,24.7,283.65,-27.99958801135063,19.20672,87.55941025189242,66.10214082424308,0.0,5.832,5.307119999999999,2.6012283898939375,-114.59728860411596,31.5986224014649,24.789534,59.468933,14.32149781791015,39.020987599497005,48.53842265239541,4.530970540235468,0.001896985977011569,0.11448073245732641
2024-10-02T17:26:31+03:00,24.7,283.65,-25.99996530634406,19.69272,80.94747729608271,63.1972448029298,0.0,5.65704,5.404319999999999,1.1000789666511805,-118.49913118895687,28.802588361226483,24.789585,59.468939,14.817201064849948,35.63461185965605,45.31286543642666,4.597753362604769,0.0015985023457732663,0.11607923480309969
2024-10-02T17:26:32+03:00,24.7,283.65,-26.996911869871695,20.19816,74.03187670885367,58.40158805768482,0.0,5.81256,5.404319999999999,0.49847328176381617,-123.70158796874472,24.499675319793997,24.789637,59.46895,15.249002193974144,36.96107448295547,37.070802225898206,4.644492272948385,0.0017199837931283746,0.11779921859622806
2024-10-02T17:26:33+03:00,24.7,283.65,-27.99958801135063,20.7036,72.18122303058111,56.79730623131851,0.600001403060998,5.832,5.50152,2.4006931615981495,-122.80204423038934,20.90150036637243,24.789687,59.468957,15.793361943313577,37.982763062282686,34.19845996829842,4.596758689145543,0.0015836679658530833,0.11938288656208115
2024-10-02T17:26:34+03:00,24.7,283.65,-26.996911869871695,20.39256,67.717881806512,57.19837668791008,0.0,5.9292,5.50152,0.20053522829578813,-122.60150900209356,16.30064927147192,24.789737,59.468967,15.347312775754395,37.09732038833005,30.62056141818195,4.72920189344452,0.0016408116496305302,0.12102369821171169
2024-10-02T17:26:35+03:00,24.7,283.65,-27.99958801135063,20.7036,64.92757734422489,60.2006755343956,4.6999727934581434,5.50152,5.598719999999999,1.1974817918234204,-118.00065790719304,13.802553284701533,24.789782,59.46898,16.055133224627266,37.25692420392758,27.670653140297304,4.378818469515815,0.0015807182372262855,0.12260441644893798
2024-10-02T17:26:36+03:00,24.4,283.65,-27.99958801135063,20.39256,66.89855215947492,63.999385716112954,6.30001473214048,5.1127199999999995,5.598719999999999,0.6016056848873644,-114.90095623553529,14.799499848229162,24.789826,59.468992,16.058670983194606,36.595637861582134,30.302914297892784,4.104813030501392,0.001524914071896655,0.12412933052083464
2024-10-02T17:26:37+03:00,24.0,283.65,-25.99996530634406,19.809359999999998,71.17854688910217,69.49978054936886,8.29998121182413,4.97664,5.598719999999999,-0.09740282517223994,-107.09727106585349,19.400350943129673,24.789874,59.469001,15.490775207839258,34.0960177643652,37.082529124736965,4.121152094298643,0.0015623266913100105,0.12569165721214465
2024-10-02T17:26:38+03:00,23.9,283.65,-27.99958801135063,19.10952,78.70721231712119,84.09874516930223,17.39998339298943,4.93776,5.598719999999999,1.902219879834333,-88.6021934390305,20.798367963248886,24.789924,59.469004,14.930768862406953,36.931290393713056,41.775921923408134,3.9470312304860875,0.0015373613637166602,0.1272290185758613
2024-10-02T17:26:39+03:00,23.9,283.65,-37.9977015363835,17.90424,94.38906716985181,100.19885921247837,15.899979885336936,4.4712,5.50152,1.9996227050065731,-74.39856969773739,18.197139573354946,24.789964,59.468998,14.641842281810073,48.833543537490016,45.5555236323618,2.9431622562712154,0.0012735315233591213,0.12850255009922043
2024-10-02T17:26:40+03:00,23.8,283.65,-50.00116734437425,17.5932,120.41853980264513,109.2000261739836,8.899982614885129,4.52952,5.50152,0.8021409131831525,-68.10176352924965,16.701719728063498,24.790008,59.468989,15.08621361611263,63.29841007199197,57.12012973065316,2.0353116793013384,0.0014483601272518914,0.12995091022647232
2024-10-02T17:26:41+03:00,23.7,283.65,-59.999280869407116,17.2044,128.61183627301588,114.7004210072395,6.9000161352014775,5.1127199999999995,5.50152,0.29793805346802804,-63.397780031225594,18.59821002994652,24.79005,59.468974,15.302551845354989,76.81801319235586,51.79382308066002,1.1659290862868126,0.001567686467586101,0.1315185966940584
2024-10-02T17:26:42+03:00,23.7,283.65,-67.9977716894334,16.79616,136.11185381127837,123.59845556562118,10.500024553567467,5.38488,5.50152,2.498095986770389,-51.40004380118616,19.19981571483389,24.790086,59.468955,15.59931359418532,86.66424385892574,49.44760995235262,0.31333024566891493,0.0015851323832084096,0.1331037290772668
2024-10-02T17:26:43+03:00,23.7,283.65,-78.99856135594521,16.69896,142.1794768617138,136.50146511196732,13.00001130106179,5.598719999999999,5.598719999999999,3.9018425848409057,-37.299552463016596,18.59821002994652,24.790115,59.468933,16.568578302400205,98.3706679001264,43.80880896158739,-0.815042396113561,0.001591477499480534,0.13469520657674733
2024-10-02T17:26:44+03:00,23.7,283.65,-89.99935102245702,16.79616,153.9594891296035,149.70241271178148,8.400019642853973,5.1710400000000005,5.79312,2.899166443361966,-26.699833253096365,12.599341914926804,24.790133,59.468912,17.5740910968684,107.11145559533327,46.84803353427023,-1.521482434632381,0.0013767351857343756,0.1360719417624817
2024-10-02T17:26:45+03:00,23.7,283.65,-97.00089527895568,17.107200000000002,160.88081929478386,155.99921888026924,6.399995867390808,5.598719999999999,5.90976,1.501149423242757,-21.39997364813625,6.497341396783535,24.790151,59.468885,18.63732371728787,114.34825196119785,46.532567333586016,-2.30825011269111,0.001713454470775248,0.13778539623325695
2024-10-02T17:26:46+03:00,23.7,283.65,-101.99708725249644,17.009999999999998,171.44043145904493,163.29870119023593,5.700013329079481,5.7348,6.006959999999999,1.3006141949469687,-14.702097023056925,2.6986312150661775,24.790154,59.468857,19.04682290981761,119.12543848182762,52.314992977217315,-2.7912606344217648,0.0016855072203333721,0.1394709034535903
2024-10-02T17:26:47+03:00,23.7,283.65,-108.99863150899512,15.901919999999999,177.85755876451015,163.60236882165526,0.0,6.47352,6.006959999999999,0.20053522829578813,-17.60126346641889,1.9996227050065731,24.790148,59.468822,19.021087053683786,127.77012302347487,50.08743574103528,-3.9649982617214454,0.0021117326355684003,0.14158263608915872
2024-10-02T17:26:48+03:00,23.7,283.65,-120.99636773903454,14.21064,180.92861254641136,157.7009035318078,0.0,6.59016,6.10416,-0.49847328176381617,-25.59975428644518,8.10162322314984,24.79014,59.46879,18.48862770489019,138.78724851517845,42.14136403123291,-4.9575684294174565,0.001938896963200653,0.14352153305235937
2024-10-02T17:26:49+03:00,23.5,283.65,-133.99678011055295,12.59712,178.3216545785661,150.69935927530912,0.0,6.648479999999999,6.10416,-0.09740282517223994,-31.398087173169117,12.79987714322259,24.790137,59.468757,17.867304958324752,149.52322508470309,28.79842949386301,-5.7298915803856705,0.0019856688040230993,0.14550720185638247
2024-10-02T17:26:50+03:00,23.5,283.65,-133.99678011055295,11.10024,178.4477052934949,147.8975956571194,0.0,6.8623199999999995,6.10416,3.2028340747813018,-31.799157629760693,13.699420881577984,24.790136,59.468724,16.61714727030494,151.27903364998778,27.16867164350711,-6.018051350041763,0.001983789659638014,0.1474909915160205
2024-10-02T17:26:51+03:00,23.5,283.65,-129.99753470053977,10.5948,171.88160896129565,151.30096496019647,2.9000258800546614,6.62904,6.39576,1.1000789666511805,-26.997771306564392,10.198648753328653,24.79014,59.468693,15.699668357266246,148.8702513595781,23.01135760171755,-5.674450146180417,0.001867338061196486,0.14935832957721698
2024-10-02T17:26:52+03:00,23.5,283.65,-125.001342726999,11.10024,173.15930484443743,156.29715693373726,2.6000251785241626,6.39576,6.39576,1.3980170201192088,-22.098982158195852,5.202456779787875,24.790142,59.468664,15.670523637849664,144.53270795845162,28.626596885985805,-5.209006819979095,0.0017441932551662267,0.1511025228323832
2024-10-02T17:26:53+03:00,23.5,283.65,-125.99828929052664,12.30552,178.40186866988444,159.90106146511013,2.000023775463165,5.9292,6.39576,1.1974817918234204,-18.500807204774283,4.801386323196299,24.790134,59.468637,16.503016546452077,142.89634623955322,35.50552243033121,-4.728806544632166,0.0016411902382175718,0.15274371307060078
2024-10-02T17:26:54+03:00,23.5,283.65,-129.00058813701216,12.908159999999999,183.00271976478493,163.9003068751233,3.9000091198964877,5.754239999999999,6.39576,-1.701684651538545,-13.802553284701533,7.2020794847944485,24.790122,59.468612,17.12368766418005,144.13888488019592,38.86383488458901,-4.66346285171044,0.0015467231449743878,0.15429043621557517
2024-10-02T17:26:55+03:00,23.5,283.65,-133.99678011055295,12.69432,184.899210066668,168.39802556690026,5.700013329079481,5.6181600000000005,6.29856,-2.1027551081301215,-9.797578296737077,5.998868115019719,24.790115,59.46859,17.08180343408329,147.68284223197543,37.21636783469256,-4.747917007410658,0.0013395334095656747,0.15562996962514083
2024-10-02T17:26:56+03:00,23.5,283.65,-134.00250968850426,12.69432,188.03901878398486,174.2020880315755,5.899975599580139,5.79312,6.201359999999999,-0.8995437383553924,-2.899166443361966,1.1000789666511805,24.790104,59.468562,17.23022334815122,147.99797640842615,40.0410423755587,-4.912735960481344,0.0017162064381462906,0.15734617606328713
2024-10-02T17:26:57+03:00,23.5,283.65,-134.00250968850426,12.69432,194.74262498701552,179.10087717994404,2.7000063137744914,6.2208000000000006,6.201359999999999,0.29793805346802804,0.20053522829578813,-3.002298846485514,24.790082,59.468535,17.594368445292638,148.736074627116,46.00655035989951,-5.3174512614111915,0.0017564504420357573,0.1591026265053229
2024-10-02T17:26:58+03:00,23.5,283.65,-134.99945625203188,12.59712,197.53865902725394,181.1004998849506,0.9000021045914972,6.72624,6.10416,1.902219879834333,1.7990874767107847,-1.1974817918234204,24.790057,59.468507,17.99324000775523,150.32680579838825,47.21185322886569,-5.844182541033117,0.001848053176810552,0.16095067968213345
2024-10-02T17:26:59+03:00,23.5,283.65,-140.00137780352395,12.69432,199.80757189597196,180.49889420006323,0.0,6.68736,6.39576,1.3006141949469687,0.29793805346802804,5.500394833255903,24.790039,59.468484,18.328406187092984,153.56487237131813,46.24269952465383,-5.988122879469084,0.001487731801710046,0.1624384114838435
2024-10-02T17:27:00+03:00,23.5,283.65,-146.0002459185437,11.702879999999999,203.29115529036739,180.2009561465952,0.2000195662801704,6.55128,6.39576,0.40107045659157625,-0.09740282517223994,10.89765726338826,24.790009,59.468453,17.521408107768515,158.0687894755061,45.22236581486129,-6.077183126867381,0.0020763444799526123,0.1645147559637961
2024-10-02T17:27:01+03:00,23.5,283.65,-150.99643789208443,10.206,205.58871604884197,182.29798167677404,3.9000091198964877,6.25968,6.39576,-1.902219879834333,3.701307356545118,9.900710699860626,24.789981,59.468426,15.971681249869118,161.9509540928206,43.637761956021365,-5.951651447194349,0.0018343516587773462,0.16634910762257346
2024-10-02T17:27:02+03:00,23.5,283.65,-150.99643789208443,10.206,206.1616738439728,183.50119304654876,0.09998113525032865,6.10416,6.29856,0.40107045659157625,3.300236899953542,2.6986312150661775,24.789957,59.468402,15.823887496669908,161.77648390456653,44.385189939406274,-5.797998401198251,0.001618062033726679,0.16796716965630015
2024-10-02T17:27:03+03:00,23.5,283.65,-148.99681518707789,11.89728,205.05013572141905,183.50119304654876,0.0,6.59016,6.29856,-0.09740282517223994,3.2028340747813018,2.1027551081301215,24.789929,59.468374,17.87129986263702,159.94617172058767,45.10396400083138,-6.190604430237579,0.0018877393367710904,0.16985490899307124
2024-10-02T17:27:04+03:00,23.5,283.65,-157.99798214858313,11.702879999999999,206.4424231635869,181.19790271012286,0.0,6.76512,6.7068,1.1000789666511805,0.49847328176381617,8.502693679741416,24.789899,59.468345,18.153099579990403,166.0236605781201,40.41876258546682,-6.564842318822716,0.001969177316205953,0.1718240863092772
2024-10-02T17:27:05+03:00,23.5,283.65,-161.99722755859628,10.4004,207.00965138076646,181.7995083950102,1.8000042091829944,6.804,6.6095999999999995,1.701684651538545,2.8017636181897254,11.997736230039438,24.789865,59.468315,17.00183396321491,169.10202602633953,37.907625354426926,-6.681292572444594,0.0020807508863408433,0.17390483719561806
2024-10-02T17:27:06+03:00,23.5,283.65,-165.9964729686094,9.50616,205.8007104330404,183.30065781825297,0.0,6.53184,6.6095999999999995,0.40107045659157625,2.8017636181897254,10.50231638474799,24.789841,59.468285,15.922523552877534,171.69345048858108,34.107259944459315,-6.463316303110226,0.0019464634954625736,0.17585130069108063
2024-10-02T17:27:07+03:00,23.5,283.65,-168.99877181509493,8.59248,208.75717265591547,182.80218453648914,0.0,6.454079999999999,6.492959999999999,0.09740282517223994,2.899166443361966,9.29910501497326,24.789824,59.468268,14.978675775751679,173.71528325290564,35.04188940300983,-6.4152922116857045,0.0011461282304941547,0.17699742892157477
2024-10-02T17:27:09+03:00,23.5,283.65,-170.99839452010147,8.10648,208.90041210469815,182.2005788516018,0.0,6.76512,6.39576,-1.1000789666511805,2.6012283898939375,1.9996227050065731,24.789804,59.468252,14.826113134304341,175.09241226305235,33.807999841645795,-6.740318905052307,0.0011392464932119342,0.1781366754147867
2024-10-02T17:27:10+03:00,23.5,283.65,-170.00144795657386,7.60104,206.8606823540324,182.29798167677404,0.0,7.62048,6.39576,1.501149423242757,1.598552248414997,1.1974817918234204,24.789752,59.4682,15.163614377516902,175.007125002087,31.853557351945398,-7.591564306732868,0.0035058050728814395,0.18164248048766815
2024-10-02T17:27:11+03:00,23.5,283.65,-168.99877181509493,8.203679999999999,203.4401243171014,179.59935046170784,0.0,7.75656,6.39576,2.1027551081301215,-1.701684651538545,6.399938571611295,24.789722,59.468164,15.886803637579147,174.34481351175486,29.095310805346543,-7.718808418141003,0.0023497988667652583,0.1839922793544334
2024-10-02T17:27:12+03:00,23.5,283.65,-178.9968853401278,9.70056,203.18802288724382,177.5997277567013,0.0,7.44552,6.39576,0.49847328176381617,-2.8017636181897254,12.301403861458775,24.789693,59.468129,17.14543442014182,179.43247655812687,23.755546329116953,-7.445154755375168,0.0022825477839227364,0.18627482713835614
2024-10-02T17:27:13+03:00,23.5,283.65,-179.99956148160675,10.4004,206.57993303441833,175.8006402799905,0.0,7.056719999999999,6.39576,-0.8995437383553924,-4.801386323196299,10.3017811564522,24.78967,59.468098,17.457119999876863,179.99973874247416,26.580194291944167,-7.056719999926639,0.0019913038040523493,0.1882661309424085
2024-10-02T17:27:14+03:00,23.5,283.65,-170.00144795657386,10.206,204.8324117592693,176.4996487900501,1.7000230739326654,6.940079999999999,6.6095999999999995,-1.1000789666511805,-1.9996227050065731,4.199780638308934,24.789649,59.468067,17.083223741554164,174.04614532789353,30.786266431375765,-6.902643534332828,0.001970593150320187,0.19023672409272868
2024-10-02T17:27:15+03:00,23.5,283.65,-161.00028099506864,10.808639999999999,202.7525749629444,180.49889420006323,1.8000042091829944,6.92064,6.492959999999999,-0.09740282517223994,1.501149423242757,-0.29793805346802804,24.789629,59.468032,17.497911081297616,168.39847815512792,34.35409680781649,-6.779250690746002,0.002190621766246372,0.19242734585897506
2024-10-02T17:27:16+03:00,23.6,283.65,-155.99835944357653,11.00304,203.26823697856216,181.39843793841862,0.0,6.84288,6.492959999999999,0.29793805346802804,-0.6016056848873644,-3.300236899953542,24.789608,59.468002,17.47730965129245,165.16228179149294,38.10595518706921,-6.614704285532352,0.001913857300149027,0.1943412031591241
2024-10-02T17:27:17+03:00,23.6,283.65,-161.00028099506864,10.5948,203.54898629817626,171.29719201026222,0.0,6.59016,6.492959999999999,0.8995437383553924,-12.79987714322259,7.0015442564986605,24.789589,59.467974,16.96216765491406,168.26699207104755,35.281994227128706,-6.452464030315052,0.0017802118980874148,0.1961214150572115
2024-10-02T17:27:18+03:00,23.6,283.65,-170.00144795657386,9.992159999999998,203.62920038949454,165.0977886669467,0.0,6.6095999999999995,6.6095999999999995,-0.49847328176381617,-16.59858732493995,17.69866629159113,24.789572,59.467946,16.541230174833775,173.9796514211152,29.64954896837935,-6.573146135227414,0.0017612549689278608,0.19788267002613938
2024-10-02T17:27:19+03:00,23.6,283.65,-168.0018252515673,9.60336,202.00772982927433,161.00114043176134,0.0,6.62904,6.6095999999999995,-1.1974817918234204,-20.700965138076644,16.799122553235737,24.78955,59.467913,16.14649681208337,172.89778035753068,29.109949471743647,-6.57817636255455,0.002094228309339443,0.19997689833547883
2024-10-02T17:27:20+03:00,23.6,283.65,-168.0018252515673,9.60336,197.88816328228376,158.8983853236312,0.0,6.53184,6.6095999999999995,0.49847328176381617,-21.600508876432034,11.401860123103383,24.789535,59.467882,16.05004711250609,172.85487896979862,25.033284312485137,-6.481115642568994,0.0019188104247789804,0.2018957087602578
2024-10-02T17:27:21+03:00,23.6,283.65,-150.99643789208443,10.692,190.50846688099872,158.10197398839935,0.0,7.251119999999999,6.6095999999999995,1.1974817918234204,-21.600508876432034,5.597797658428142,24.789528,59.467851,17.39280513030129,162.65865164404258,27.849815236956147,-6.921527199070736,0.001875559373278882,0.2037712681335367
2024-10-02T17:27:22+03:00,23.6,283.65,-144.99756977706474,12.69432,185.34038756891871,159.49999100851855,0.0,7.387199999999999,6.6095999999999995,2.200157933302361,-20.397297506657306,6.89841185337511,24.789524,59.467811,19.21834213927239,157.73516515673714,27.605222412181575,-6.8364283520264495,0.002407409254360127,0.2061786773878968
2024-10-02T17:27:23+03:00,23.6,283.65,-142.99794707205817,13.296959999999999,184.38927762900153,159.49999100851855,0.0,7.1150400000000005,6.7068,1.598552248414997,-20.597832734953094,9.29910501497326,24.78952,59.467774,19.4562102793633,155.71233942674462,28.676938202256906,-6.48530119101541,0.002227337147698049,0.20840601453559485
2024-10-02T17:27:24+03:00,23.6,283.65,-142.99794707205817,13.5108,186.26284961907933,158.1993768135716,0.0,6.37632,6.7068,0.6016056848873644,-22.001579333023614,12.702474318050351,24.789522,59.467737,18.994711195467,154.6537821986936,31.609067420385742,-5.76251966267964,0.0022248238930044745,0.2106308384285993
2024-10-02T17:27:25+03:00,23.7,283.65,-142.99794707205817,13.7052,184.2403086022675,157.39723590038847,0.0,6.84288,6.7068,-0.29793805346802804,-22.901123071379004,16.902254956359283,24.78952,59.467703,19.607406749437725,155.12265562598472,29.117652976282784,-6.207932089216164,0.002044574688486497,0.2126754131170858
2024-10-02T17:27:26+03:00,23.8,283.65,-144.99756977706474,13.5108,185.4721678617988,156.8013597934524,0.0,7.095599999999999,6.492959999999999,-0.20053522829578813,-23.697534406610853,16.59858732493995,24.789512,59.46767,19.74700661329012,156.8922326740236,28.57993518777519,-6.52630796031265,0.001998541050628969,0.21467395416771476
2024-10-02T17:27:27+03:00,23.8,283.65,-142.99794707205817,13.7052,186.42900737966724,155.0022723167416,0.0,7.17336,6.492959999999999,0.6990085100596044,-26.201359971332543,13.699420881577984,24.789505,59.467635,19.907707098905732,155.52278367413655,30.906223705530692,-6.528662173247212,0.0021146013953152343,0.21678855556303
2024-10-02T17:27:28+03:00,23.8,283.65,-140.00137780352395,14.30784,181.11768861880452,152.89951720861148,0.0,7.36776,6.492959999999999,0.29793805346802804,-27.301438937983725,11.201324894807593,24.7895,59.467598,20.506321808051275,153.35391003077098,27.763778588033546,-6.58525791644701,0.0022292202856529376,0.21901777584868296
2024-10-02T17:27:29+03:00,23.8,283.65,-140.00137780352395,14.30784,179.74258991049055,151.39836778536872,0.0,7.5816,6.492959999999999,1.3006141949469687,-29.799534924754116,12.79987714322259,24.789503,59.467561,20.69767284908928,153.6193907409422,26.123199169548343,-6.79206876329333,0.0022258714503350483,0.221243647299018
2024-10-02T17:27:30+03:00,23.8,283.65,-135.9964028155595,14.59944,177.3304375929898,149.89721836212598,0.0,7.542719999999999,6.804,1.598552248414997,-29.902667327877666,15.401105533116528,24.789507,59.467526,20.699114206952974,150.66031844424217,26.67011914874763,-6.575216285000442,0.0021073129763507286,0.22335096027536872
2024-10-02T17:27:31+03:00,23.8,283.65,-136.0021323935108,14.59944,177.90912496607191,150.8024916784327,0.0,7.270560000000001,6.804,0.09740282517223994,-29.197929239866756,17.29759583499955,24.789508,59.467497,20.462659030332322,150.29087538725807,27.618249578813845,-6.314863786972944,0.0017433912257170258,0.22509435150108575
2024-10-02T17:27:32+03:00,23.8,283.65,-138.00175509851738,14.21064,176.29911356175433,150.49882404701333,0.0,7.3094399999999995,6.804,1.1000789666511805,-29.301061642990298,16.799122553235737,24.789511,59.467464,20.242481866487473,151.9833897380937,24.31572382366062,-6.452857355687626,0.0019856689657300826,0.22708002046681583
2024-10-02T17:27:33+03:00,23.8,283.65,-138.998701662045,14.094,174.56878102045923,151.90257064508384,1.8000042091829944,7.40664,6.804,0.8021409131831525,-26.997771306564392,15.601640761412316,24.789513,59.467429,20.2746906996112,152.86601221774637,21.702768802712853,-6.591483120865227,0.002104656364017643,0.22918467683083346
2024-10-02T17:27:34+03:00,23.8,283.65,-138.998701662045,14.59944,173.42859500814887,156.8013597934524,2.9000258800546614,7.503839999999999,6.804,0.6990085100596044,-21.30257082296401,12.599341914926804,24.78952,59.467393,20.852042707004458,152.6549568881573,20.773638119991574,-6.665333833058083,0.0021744098700096207,0.23135908670084307
2024-10-02T17:27:35+03:00,23.8,283.65,-136.99907895703842,15.396479999999999,175.8693952154062,160.30213192170172,2.400005612243992,7.29,6.804,0.6990085100596044,-18.300271976478495,9.900710699860626,24.789522,59.467357,21.315909795596923,150.48734040251878,25.382054812887418,-6.34409970339366,0.002164739475095142,0.2335238261759382
2024-10-02T17:27:36+03:00,23.8,283.65,-134.99945625203188,16.09632,177.84037003065623,163.29870119023593,1.2999839413723246,7.29,6.804,0.6990085100596044,-16.100114043176134,7.700552766558264,24.789527,59.467323,21.867348601947338,148.63429528904393,29.206074741612298,-6.224657645793536,0.0020493578899064466,0.23557318406584465
2024-10-02T17:27:37+03:00,23.8,283.65,-134.99945625203188,16.09632,179.67956455302618,163.20129836506368,0.0,7.07616,6.804,-0.29793805346802804,-17.29759583499955,7.500017538262475,24.78953,59.467288,21.685044291311588,148.3402103631073,31.33935418991888,-6.023083587244674,0.002105763718232437,0.23767894778407708
2024-10-02T17:27:38+03:00,23.9,283.65,-134.99945625203188,16.09632,183.62151418352624,160.89800802863775,0.0,7.44552,6.804,-0.6990085100596044,-20.09935945318928,10.101245928156414,24.789524,59.467253,22.000290218979785,148.8451100628022,34.77640412072404,-6.37166640659749,0.0021117333735944568,0.23979068115767155
2024-10-02T17:27:39+03:00,23.9,283.65,-140.9983243670516,15.20208,182.2177675854557,159.40258818334632,0.09998113525032865,7.56216,6.804,-0.49847328176381617,-21.39997364813625,9.797578296737077,24.789523,59.467217,21.60943174551289,153.7212695673191,28.496498018136606,-6.78061717111166,0.0021640932459311003,0.24195477440360263
2024-10-02T17:27:40+03:00,23.9,283.65,-140.9983243670516,14.91048,186.68110880952483,155.79868365197345,0.0,7.83432,7.095599999999999,-1.1000789666511805,-25.59975428644518,6.600473799907084,24.789524,59.467179,21.569815003794,154.21193761493979,32.469171194585044,-7.054095625678065,0.002284297340215968,0.2442390717438186
2024-10-02T17:27:41+03:00,23.9,283.65,-140.9983243670516,14.91048,186.2399313072741,152.80211438343926,0.0,8.378639999999999,7.095599999999999,0.29793805346802804,-28.401517904634908,8.800631733209444,24.789522,59.467142,22.06119681304513,154.82695711709627,31.412974190177835,-7.582897747534549,0.0022248239225194388,0.24646389566633803
2024-10-02T17:27:42+03:00,23.9,283.65,-140.9983243670516,14.59944,183.2605507725938,151.5989030136645,0.0,9.078479999999999,7.3094399999999995,0.29793805346802804,-28.401517904634908,10.101245928156414,24.789521,59.467104,22.395636750245764,155.77876636958328,27.481784403010522,-8.279284495933993,0.0022842973411219326,0.24874819300745996
2024-10-02T17:27:43+03:00,23.9,283.65,-138.998701662045,14.40504,178.95763773116133,153.3979904903753,0.8000209693411684,8.70912,7.3094399999999995,0.49847328176381617,-25.50235146127294,7.0015442564986605,24.789521,59.467061,21.74200391373519,154.23509969427957,24.722538036881758,-7.843304814746578,0.002584631805953855,0.2513328248134138
2024-10-02T17:27:44+03:00,23.9,283.65,-136.0021323935108,14.40504,177.43929957406465,154.49806945702647,0.0,8.67024,7.60104,0.8021409131831525,-25.198683829853607,4.60085109490051,24.789524,59.467022,21.50276277913367,152.26746950324738,25.171830070817265,-7.674285736713904,0.0023459903005620037,0.2536788151139758
2024-10-02T17:27:45+03:00,23.9,283.65,-136.0021323935108,14.696639999999999,178.95763773116133,153.79906094696688,0.0,8.63136,7.698239999999999,0.6016056848873644,-26.797236078268604,7.299482309966689,24.789527,59.466984,21.748506452704284,152.00463893851062,26.952998792650703,-7.6213665937069255,0.002285929639184166,0.25596474475315995
2024-10-02T17:27:46+03:00,23.9,283.65,-129.00058813701216,14.59944,179.06077013428487,151.9999734702561,0.0,8.203679999999999,7.698239999999999,1.501149423242757,-28.997394011570965,13.401482828109954,24.789534,59.466944,20.765168940813602,146.88055806667614,32.18021206760872,-6.870855690667684,0.002413792143992564,0.2583785368971525
2024-10-02T17:27:47+03:00,24.0,288.15,-131.00021084201873,14.21064,178.1612263959295,149.39874508036215,0.0,8.14536,7.892639999999999,1.3006141949469687,-32.2976309115245,16.799122553235737,24.78954,59.466908,20.49801230708297,148.45183031064914,29.70939608528036,-6.941480583534246,0.0021716208441868454,0.2605501577413394
2024-10-02T17:27:48+03:00,24.0,283.65,-131.99715740554637,14.40504,175.70896703276955,145.89797295211284,0.0,7.9120800000000004,7.795439999999999,-0.29793805346802804,-34.29725361653108,17.200193009827313,24.789546,59.466872,20.557833964520864,148.61737071893884,27.091596313830706,-6.7546116559970075,0.0021716208614326396,0.262721778602772
2024-10-02T17:27:50+03:00,24.0,283.65,-127.00096543200556,15.610319999999998,173.50880909946721,146.2990434087044,0.0,7.270560000000001,7.60104,-0.49847328176381617,-34.80145647624621,16.501184499767707,24.789552,59.466834,20.812330588535957,143.2009612332309,30.3078478662363,-5.821838541984174,0.002291430120828104,0.2650132087236001
2024-10-02T17:27:51+03:00,24.0,283.65,-127.00096543200556,16.69896,171.4919976606067,146.09850818040863,0.9000021045914972,7.15392,7.40664,-0.6016056848873644,-33.1971746498799,16.99965778153153,24.789563,59.466773,21.767552381180966,142.21756432031054,29.274433340296156,-5.654049629508752,0.0036819253148507643,0.2686951340384509
2024-10-02T17:27:52+03:00,24.0,283.65,-125.99828929052664,16.69896,170.7299637930827,147.59965760365137,1.5999846429028237,7.44552,7.3094399999999995,0.09740282517223994,-31.5986224014649,15.899578814880346,24.789566,59.466738,21.919091599109297,141.94924558028197,28.780718212800736,-5.8630869431055315,0.0021057637830957784,0.2708008978215467
2024-10-02T17:27:53+03:00,24.0,283.65,-125.99828929052664,17.009999999999998,170.7815299946445,148.6023337451303,0.0,8.00928,7.3094399999999995,0.6990085100596044,-31.100149119701083,13.602018056405743,24.789572,59.466704,22.663611488284342,142.6116224875803,28.16990750706421,-6.363675797200357,0.0020518592160628144,0.27285275703760953
2024-10-02T17:27:54+03:00,24.0,283.65,-125.99828929052664,18.29304,172.6608315626736,151.70203541678808,1.5999846429028237,7.776,7.3094399999999995,1.7990874767107847,-26.401895199628335,13.298350424986406,24.789578,59.466665,23.713194989660124,141.38292350097447,31.277908061699122,-6.075657040345788,0.0023513503625692427,0.27520410740017875
2024-10-02T17:27:55+03:00,24.0,283.65,-125.001342726999,17.90424,174.6719134235828,157.7009035318078,5.299974196519141,7.29,7.503839999999999,2.1027551081301215,-19.497753768301912,14.598964619933378,24.789579,59.466631,22.87880033348649,140.13114787685885,34.54076554672395,-5.595175249359902,0.002043890493006031,0.27724799789318477
2024-10-02T17:27:56+03:00,24.0,283.65,-125.99828929052664,17.496,175.77199239023398,163.79717447199974,4.599991658207815,6.92064,7.60104,1.3980170201192088,-14.197894163341799,10.3017811564522,24.789582,59.466596,22.27872608652261,140.55378622417896,35.21820616605501,-5.344266030362406,0.002105763799842425,0.27935376169302717
2024-10-02T17:27:57+03:00,24.1,283.65,-131.00021084201873,17.5932,179.2211983169215,166.10046480842567,0.0,6.78456,7.60104,-0.20053522829578813,-13.602018056405743,5.798332886723932,24.789583,59.466564,22.631146635137036,144.07675805615406,35.144440260767425,-5.494161877520101,0.0019236893181649435,0.2812774510111921
2024-10-02T17:27:58+03:00,24.2,283.65,-131.00021084201873,17.70984,181.19217313217152,167.80214945996423,3.30000771683549,6.59016,7.40664,-1.0026761414789407,-11.000789666511807,7.597420363434716,24.789589,59.46653,22.5877727902227,143.72050585209234,37.471667280079174,-5.3125923005257665,0.0020518593003101115,0.2833293103115022
2024-10-02T17:27:59+03:00,24.2,283.65,-134.00250968850426,16.31016,183.6788099630393,170.9992539567942,3.30000771683549,7.1150400000000005,7.3094399999999995,-1.1000789666511805,-7.797955591730505,6.399938571611295,24.789589,59.466498,21.860445524895265,147.54212348644495,36.13668647659435,-6.003572828010125,0.0019234469251120355,0.28525275723661425
2024-10-02T17:28:00+03:00,24.2,283.65,-142.99794707205817,15.20208,188.1192328753032,170.9992539567942,0.0,6.95952,7.1928,0.09740282517223994,-9.998113525032863,3.5007721282493303,24.78958,59.466464,21.178374723951976,154.4047960132405,33.71443686206268,-6.276573195946317,0.0020620597279198878,0.28731481696453415
2024-10-02T17:28:01+03:00,24.2,283.65,-142.99794707205817,15.10488,188.02755962808226,165.89992958012988,0.0,7.36776,7.095599999999999,0.49847328176381617,-16.701719728063498,5.597797658428142,24.78957,59.466432,21.452165179238204,154.92719066957338,33.10036895850888,-6.673496033808924,0.0019475370887127468,0.2892623540532469
2024-10-02T17:28:02+03:00,24.2,283.65,-144.00062321353712,13.296959999999999,188.21090612252414,159.70052623681437,0.0,7.5816,6.9984,1.3980170201192088,-22.2021145613194,12.301403861458775,24.789558,59.466395,19.935112505704936,156.9176361458365,31.29326997668764,-6.974633924286449,0.0022539732942629368,0.2915163273475098
2024-10-02T17:28:03+03:00,24.2,283.65,-146.9971924820713,13.296959999999999,187.50043845656188,157.79830635698005,0.0,7.52328,7.095599999999999,1.501149423242757,-22.402649789615186,16.197516868348373,24.789546,59.466358,20.029960280013466,158.80225776623763,28.69818069032425,-7.014240208356727,0.002253973358703394,0.29377030070621324
2024-10-02T17:28:04+03:00,24.2,283.65,-146.9971924820713,13.296959999999999,187.82129482183515,156.4002893368608,0.0,7.36776,7.095599999999999,0.6016056848873644,-24.299140091498213,16.30064927147192,24.789537,59.466321,19.885042580560334,158.64022727827063,29.181067543564524,-6.861681575514331,0.0022409030902767087,0.29601120379648993
2024-10-02T17:28:09+03:00,24.2,283.65,-144.00062321353712,16.69896,172.71239776423536,151.9999734702561,1.1000216708716675,7.44552,6.901199999999999,0.0,-27.702509394575305,14.598964619933378,24.789553,59.466157,23.14015423131027,154.90214525290025,17.810252511335108,-6.74254885508508,0.0020069238077197555,0.2980181276042097
2024-10-02T17:28:10+03:00,24.2,283.65,-142.00100050853052,17.5932,173.7208034836656,152.4984467520199,0.0,7.503839999999999,6.9984,-1.1000789666511805,-27.19830653486018,9.499640243269049,24.78956,59.466122,23.956044624618013,153.11966382072572,20.601139662939886,-6.6930707382459405,0.002114602362726816,0.3001327299669365
2024-10-02T17:28:11+03:00,24.2,283.65,-136.99907895703842,17.5932,174.39116410396866,153.10005243690728,0.2000195662801704,7.6593599999999995,6.9984,-0.8021409131831525,-26.797236078268604,8.10162322314984,24.789567,59.466087,23.775769795376647,149.69104639521262,24.70011770875604,-6.612453380867775,0.0021146023851159493,0.3022473323520525
