time,dpt,mtw,awa,aws,cog,hdg,rot,sog,stw,pitch,yaw,roll,lng,lat,tws,twa,twd,vmg,dist,cum_dist
2025-08-06T17:29:40+03:00,,288.15,35.99893826806962,16.19352,152.99692003378374,164.3987801568871,3.9000091198964877,4.33512,4.91832,-1.501149423242757,-12.501939089754565,-16.100114043176134,24.823866,59.483149,12.939646861435557,47.35575153745927,200.352671571243,2.936802081664731,0.0007248002202656321,0.0007248002202656321
2025-08-06T17:29:42+03:00,,288.15,35.00199170454199,16.79616,152.99692003378374,168.10008751343221,-0.5000202678106694,4.19904,5.09328,0.09740282517223994,-9.001166961505232,-12.198271458335228,24.823907,59.483108,13.572024270030763,45.224261218289655,198.2211812520734,2.957525327115923,0.002763942421570447,0.003488742641836079
2025-08-06T17:29:44+03:00,,288.15,31.999692858056477,17.2044,163.9977097002955,166.10046480842567,1.8000042091829944,4.510079999999999,4.996079999999999,-1.501149423242757,-13.602018056405743,-11.699798176571411,24.82394,59.483069,13.591401492892661,42.12743331690092,206.12514301719642,3.3449222753128933,0.002551430846211474,0.006040173488047553
2025-08-06T17:29:46+03:00,,288.15,31.002746294528848,15.804720000000001,170.16273557590318,168.5011579700238,2.1000049107134933,4.704479999999999,4.996079999999999,-0.09740282517223994,-11.401860123103383,-9.499640243269049,24.823961,59.483029,12.019112926980984,42.633899968285505,212.7966355441887,3.461069346878028,0.0024882805879811952,0.008528454076028749
2025-08-06T17:29:48+03:00,,,31.002746294528848,16.19352,160.99541085381,169.4007017083792,3.399988852085818,4.704479999999999,,0.8995437383553924,-9.20170218980102,-6.89841185337511,24.823993,59.482984,12.40017697574861,42.271709441286276,203.26712029509628,3.4811426102610907,0.002875790326009835,0.011404244402038584
2025-08-06T17:29:52+03:00,,288.15,28.997394011570965,15.99912,182.21203800750442,178.60240389818023,1.200002806121996,4.35456,4.996079999999999,-0.6016056848873644,0.20053522829578813,-7.500017538262475,24.824048,59.482907,12.371862291649341,38.821602503266234,221.03364051077065,3.3926449162761356,0.0012223755614889386,0.012626619963527522
2025-08-06T17:29:56+03:00,,288.15,18.999280486538098,16.09632,194.99472641687308,179.39881523341205,2.000023775463165,2.3522399999999997,4.64616,-2.6986312150661775,0.8995437383553924,-6.697876625079324,24.824044,59.482846,13.893344495366367,22.1589647512545,217.15369116812758,2.1785058046340757,0.001423932370968165,0.014050552334495687
2025-08-06T17:30:00+03:00,,288.15,13.00041237151838,16.69896,195.99740255835198,181.30103511324637,2.7999874490248207,2.60496,4.101839999999999,-2.6012283898939375,4.199780638308934,-5.500394833255903,24.823977,59.482757,14.172889173293568,15.370097772364403,211.36750033071638,2.5117906480105656,0.0013828143772119568,0.015433366711707645
2025-08-06T17:30:02+03:00,,288.15,11.997736230039438,15.901919999999999,189.9985344433323,182.29798167677404,-1.8000042091829944,2.31336,3.73248,-2.6986312150661775,3.3976397251257815,-2.899166443361966,24.824026,59.482762,13.647568321863446,14.017026076658937,204.01556051999123,2.2444769153023882,0.0015255026304483426,0.016958869342155986
2025-08-06T17:30:04+03:00,,288.15,7.9984908200262925,16.09632,185.99928903331917,179.7024828648314,0.3999818367808277,3.0132,3.53808,-3.002298846485514,0.8995437383553924,-8.19902604832208,24.82401,59.482737,13.119134825273065,9.829933181595834,195.829222214915,2.968962731773969,0.001580057741936916,0.018538927084092903
2025-08-06T17:30:06+03:00,,288.15,13.00041237151838,15.49368,171.99620052032182,175.3995698233989,-2.7999874490248207,2.1967199999999996,3.3047999999999997,-1.598552248414997,-3.5981749534215695,-6.89841185337511,24.823973,59.482693,13.362406195239199,15.1198141000595,187.11601462038132,2.120675012769231,0.0028757689328933462,0.02141469601698625
2025-08-06T17:30:08+03:00,,288.15,16.002711218003892,15.007679999999999,197.9970252633586,170.20284262156233,-2.1000049107134933,1.90512,3.12984,-2.2975607584746007,-9.29910501497326,-12.702474318050351,24.823997,59.482696,13.18684919059548,18.285304595099547,216.28232985845816,1.8089228330037854,0.0007544105473680945,0.022169106564354345
2025-08-06T17:30:10+03:00,,288.15,22.998525896551243,14.502239999999999,164.99465626382317,169.60123693667498,-2.499986747494321,3.51864,3.2076,-0.49847328176381617,-9.001166961505232,-16.197516868348373,24.823999,59.482663,11.346868530186454,29.9574389536466,194.95209521746978,3.04853766229049,0.0019844937742054423,0.02415360033855979
2025-08-06T17:30:12+03:00,,288.15,28.000447448043335,14.59944,155.99921888026924,173.3025442932201,-0.9000021045914972,3.4992,3.36312,-0.49847328176381617,-8.19902604832208,-13.602018056405743,24.824023,59.482628,11.626489822054005,36.12340664265827,192.1226255229275,2.8264757075090894,0.0022276599647295665,0.026381260303289356
2025-08-06T17:30:14+03:00,,288.15,31.002746294528848,14.91048,163.9977097002955,170.39764827190683,-2.499986747494321,3.26592,3.47976,-0.6990085100596044,-10.702851613043778,-11.900333404867197,24.824044,59.482594,12.227390092393723,38.91040663497927,202.90811633527477,2.541307320811316,0.0021418232092854637,0.02852308351257482
2025-08-06T17:30:16+03:00,,288.15,31.002746294528848,14.91048,161.99808699528896,171.19978918509,1.4000223724021665,3.42144,3.73248,-1.1974817918234204,-5.998868115019719,-15.601640761412316,24.824058,59.482547,12.106769538585585,39.37269945918678,201.37078645447573,2.644896034911149,0.002857197911481982,0.0313802814240568
2025-08-06T17:30:18+03:00,,288.15,28.000447448043335,14.696639999999999,203.31980318012396,193.60243897470517,12.000028061219961,3.14928,3.8296799999999998,-1.701684651538545,18.099736748182707,-11.79720100174365,24.824058,59.482512,12.007378182388683,35.07346938886906,238.393272568993,2.577420774798271,0.0021037700742934946,0.03348405149835029
2025-08-06T17:30:20+03:00,,288.15,20.99890319154467,16.09632,176.99812207181392,212.0001137763559,12.60002946428096,3.86856,3.7713599999999996,0.49847328176381617,36.10207067119317,-7.098947081670899,24.824022,59.482487,12.561413062467706,27.335069033115104,204.33319110492903,3.436582433581111,0.001861583279230479,0.03534563477758077
2025-08-06T17:30:22+03:00,,288.15,1.9996227050065731,15.29928,260.12283898939376,224.89739374475073,10.500024553567467,2.5272,3.61584,-1.598552248414997,48.09980690123261,-2.2975607584746007,24.823982,59.482473,12.773923293171492,2.39515199682549,262.5179909862193,2.524992161689848,0.0014828225033061612,0.036828457280886934
2025-08-06T17:30:24+03:00,,288.15,-16.0018517813112,14.21064,243.9998066344124,229.80191247107058,7.099978405702136,2.5855200000000003,2.8576799999999998,-2.8017636181897254,51.89851708294997,5.901465289847479,24.823935,59.482467,11.746944581481385,19.48041154971412,224.5193950846983,2.4375133525820787,0.0014792104695979297,0.038307667750484865
2025-08-06T17:30:26+03:00,,288.15,-29.002264152829575,13.608,258.99984171093735,232.9016141427283,6.30001473214048,2.97432,2.7799199999999997,1.1000789666511805,52.90119322442891,11.997736230039438,24.82388,59.482463,11.10072620315752,36.46658498616924,222.5332567247681,2.3919589281026847,0.0016958849666307571,0.04000355271711562
2025-08-06T17:30:28+03:00,,288.15,-39.00037767786244,12.402719999999999,259.99678827446496,244.09720945958463,6.09999516586031,3.44088,2.97432,2.4006931615981495,67.20221979089426,15.699043586584558,24.823827,59.482468,9.96674917043361,51.548867594765085,208.44792067969988,2.139700642020136,0.0016453897357790865,0.04164894245289471
2025-08-06T17:30:30+03:00,,288.15,-50.00116734437425,12.402719999999999,267.99527909449125,250.39974520602368,6.0000140306099805,3.2076,3.26592,0.20053522829578813,75.00017538262475,9.700175471564837,24.823857,59.482444,10.628895024889404,63.36782147139448,204.62745762309677,1.4378426034271272,0.0017086634589432285,0.04335760591183794
2025-08-06T17:30:34+03:00,,288.15,-54.00041275438739,13.5108,291.99648113252147,258.5987712543457,-2.1000049107134933,4.996079999999999,3.6547199999999997,3.2028340747813018,76.0028515241037,15.097437901697193,24.823617,59.482495,11.32038382330136,74.91950454043008,217.0769765920914,1.2998592550439816,0.002488720829488737,0.04584632674132667
2025-08-06T17:30:36+03:00,,288.15,-50.99811390790188,13.9968,271.99452450450445,250.69768325949167,-0.5000202678106694,4.02408,3.7908,-0.49847328176381617,71.00092997261162,14.398429391637588,24.823538,59.4825,11.883129179872734,66.25601151624727,205.73851298825718,1.6202984376068856,0.002429957534982758,0.04827628427630943
2025-08-06T17:30:38+03:00,,288.15,-52.00079004938082,14.30784,272.96282317827547,249.59760429284051,-1.4000223724021665,4.996079999999999,4.16016,1.3980170201192088,67.50015784436228,16.39805209664416,24.823453,59.482505,11.902010600742399,71.3172218340349,201.64560134424056,1.6003856422644815,0.0026117860110945927,0.050888070287404025
2025-08-06T17:30:40+03:00,,288.15,-50.99811390790188,14.502239999999999,277.5522151172734,242.29812198287388,-2.1000049107134933,5.1710400000000005,4.4712,-2.4006931615981495,60.80228121928296,20.700965138076644,24.82337,59.482508,11.9441708490212,70.65849033553462,206.8937247817388,1.7126384737181148,0.0025398004710847463,0.053427870758488774
2025-08-06T17:30:42+03:00,,288.15,-52.00079004938082,13.7052,273.99987678746226,236.4997890961499,-0.09998113525032865,5.307119999999999,4.7628,3.002298846485514,56.00089489608667,15.601640761412316,24.823275,59.482508,11.24451697226808,73.8351525954105,200.16472419205175,1.4775122171954393,0.0028996642769070916,0.056327535035395865
2025-08-06T17:30:45+03:00,,288.15,-48.99849120289531,15.10488,267.99527909449125,243.5013333526486,4.899992359738313,4.58784,4.97664,-1.1000789666511805,67.59756066953453,19.400350943129673,24.823285,59.482477,12.580729319247665,64.97332840459597,203.02195068989528,1.9408403322814094,0.0018881729569577325,0.0582157079923536
2025-08-06T17:30:48+03:00,,,-50.00116734437425,15.29928,270.1324116703292,228.70183350441943,-3.099988150555319,5.832,,-0.49847328176381617,39.49971039631895,25.10128100468137,24.823091,59.482486,12.384547358743516,71.14704420106676,198.98536746926243,1.8845554013923533,0.0018655877823893243,0.06008129577474292
2025-08-06T17:30:50+03:00,,288.15,-44.999245792882164,15.70752,277.99912219747546,225.40159660446585,0.3999818367808277,5.773680000000001,5.52096,1.3006141949469687,46.10018419622604,23.399596353142822,24.822985,59.482494,12.320899910122547,64.3501013139386,213.64902088353688,2.4992585631729916,0.0032709553027035106,0.06335225107744644
2025-08-06T17:30:54+03:00,,288.15,-48.99849120289531,14.59944,274.9968233509899,236.7003243244457,-0.9000021045914972,6.27912,5.832,0.8995437383553924,58.20105282938902,23.101658299674792,24.822752,59.482511,11.501449645369368,73.33015274123764,201.6666706097523,1.8012058336887249,0.001246876253013129,0.06459912733045957
2025-08-06T17:30:58+03:00,,288.15,-50.99811390790188,15.396479999999999,278.9960687610031,235.39971012949874,-1.2999839413723246,6.7068,6.0264,0.09740282517223994,52.79806082130536,19.600886171425465,24.822445,59.48254,12.331213747998552,76.00133083487599,202.99473792612707,1.6223706144930647,0.0035229595126059095,0.06812208684306548
2025-08-06T17:31:00+03:00,,,-46.99886849788874,15.29928,270.01209053335174,232.70107891443254,-2.000023775463165,6.37632,,-1.1000789666511805,49.10248304271155,20.798367963248886,24.822329,59.482545,11.902121324536894,70.06545861974384,199.94663191360792,2.173983038020228,0.0035533714311943524,0.07167545827425983
2025-08-06T17:31:02+03:00,,288.15,-42.999623087875584,15.29928,271.99452450450445,229.49824483965122,0.2000195662801704,6.95952,6.318,1.902219879834333,50.397367659707214,18.59821002994652,24.82221,59.482543,11.258739598297103,67.93337598454562,204.06114851995883,2.6145836321963394,0.0036341960149807043,0.07530965428924054
2025-08-06T17:31:04+03:00,,288.15,-44.999245792882164,15.49368,263.9960336844781,236.2992538678541,1.200002806121996,6.18192,6.454079999999999,1.7990874767107847,56.90043863444206,13.899956109873772,24.822166,59.482531,11.950486208268117,66.45469037483245,197.54134330964564,2.4695172821151417,0.0015244393609584056,0.07683409365019894
2025-08-06T17:31:08+03:00,,288.15,-41.00000038286902,15.49368,265.9956563894847,232.0994732295452,0.3999818367808277,6.39576,6.47352,-3.5981749534215695,53.302263681020484,12.301403861458775,24.821943,59.48252,11.462360037901433,62.47328634985003,203.52237003963467,2.9558780260895747,0.0021479417090984145,0.07898203535929736
2025-08-06T17:31:10+03:00,,288.15,-46.0019219343611,15.007679999999999,262.9990871209505,251.00135089091103,7.999980510293633,6.940079999999999,6.5124,1.0026761414789407,75.49864866438858,10.599719209920229,24.821819,59.482509,11.344452637639499,72.1107430227307,190.8883440982198,2.131841194694195,0.0038421426107112305,0.08282417797000859
2025-08-06T17:31:12+03:00,,288.15,-57.00271160087291,13.9968,267.99527909449125,275.0025529289412,7.899999375043304,6.82344,6.2208000000000006,0.09740282517223994,99.49985070241875,9.20170218980102,24.821699,59.482508,11.76623898931949,86.10525211662014,181.89002697787112,0.4634742190141702,0.003663226938446576,0.08648740490845516
2025-08-06T17:31:14+03:00,,,-65.0012024208992,13.802399999999999,283.9979903124951,296.70046463054547,7.299997971982305,5.01552,,4.497718691776963,118.09806073236527,5.500394833255903,24.821614,59.482526,12.536019949862572,86.26159338934512,197.73639692314998,0.3270180144511267,0.002810994258467341,0.0892983991669225
2025-08-06T17:31:16+03:00,,,-82.99780676595836,13.39416,303.9999469405122,313.70012241207706,0.2000195662801704,5.2488,,2.6012283898939375,133.80283389690115,7.901087994854052,24.821552,59.482558,13.777244114794675,105.21598579676873,198.78396114374345,-1.377591716339063,0.002698307958790529,0.09199670712571303
2025-08-06T17:31:32+03:00,,,-97.99784184248331,12.908159999999999,333.9942875156107,342.50271077330353,-1.8000042091829944,6.18192,,1.9996227050065731,158.6978500953354,11.79720100174365,24.821022,59.483078,15.067913841579115,121.96919838897995,212.02508912663077,-3.2730996764086315,0.00358669089800207,0.0955833980237151
2025-08-06T17:31:34+03:00,,,-97.99784184248331,13.608,336.99658636209637,341.4026318066523,1.4000223724021665,6.6095999999999995,,2.8017636181897254,160.39953474687397,12.89727996839483,24.821089,59.483025,15.934025866491528,122.25141360158567,214.74517276051068,-3.5271164179040806,0.0037855963797380305,0.09936899440345313
2025-08-06T17:31:38+03:00,,288.15,-99.99746454748988,13.802399999999999,332.5618930277837,336.601245483456,-0.5000202678106694,6.72624,6.74568,1.701684651538545,155.09967514191385,10.3017811564522,24.820961,59.483153,16.3701816155727,123.86632007558131,208.69557295220238,-3.7482450649079477,0.002613193806278974,0.10198218820973211
2025-08-06T17:31:42+03:00,,,-102.9997633939754,14.40504,335.9996397985687,333.7020790400941,0.3999818367808277,5.50152,,-0.6990085100596044,153.99959617526267,1.3980170201192088,24.820749,59.483359,16.535592857669585,121.91571401768446,214.08392578088421,-2.9084949324571525,0.003793505141577737,0.10577569335130985
2025-08-06T17:31:44+03:00,,,-104.99938609898197,11.89728,335.3693862239248,333.5989466369705,-2.9000258800546614,6.62904,,-0.20053522829578813,155.59814842367769,7.0015442564986605,24.820711,59.483416,15.043691555486308,130.19049227651755,205.17889394740723,-4.277924572737932,0.0036171331980069748,0.10939282654931683
2025-08-06T17:31:46+03:00,,,-95.00127257394911,9.79776,339.9988852085818,336.49811308033253,-0.6999825383113268,5.443199999999999,,-1.0026761414789407,157.0018950217482,7.797955591730505,24.820671,59.48347,11.61564127626378,122.82969580458081,217.16918940400097,-2.9509971016982877,0.003467833295505004,0.11286065984482183
2025-08-06T17:31:50+03:00,,288.15,-108.99863150899512,10.4976,339.9988852085818,333.7020790400941,2.9000258800546614,5.9292,6.1624799999999995,1.1974817918234204,153.99959617526267,2.8017636181897254,24.820679,59.483457,13.633798960935643,133.27885558382812,206.72002962475366,-4.064761454411363,0.003658108517853465,0.11651876836267529
2025-08-06T17:31:54+03:00,,288.15,-116.00017576549378,9.60336,343.998130618595,337.2028511683434,-1.200002806121996,7.950959999999999,5.90976,-0.6990085100596044,160.10159669340592,8.399561276617868,24.82054,59.483672,14.912651794428626,144.6338759367799,199.36425468181508,-6.4837705540111354,0.0031227498338285745,0.11964151819650386
2025-08-06T17:31:56+03:00,,288.15,-116.00017576549378,10.90584,343.998130618595,338.89880624193063,0.5000202678106694,6.940079999999999,5.890319999999999,0.49847328176381617,159.2994557802228,5.2998596049601145,24.820502,59.483721,15.279424739448038,140.094583809562,203.90354680903297,-5.323766681124861,0.0031654157542518164,0.12280693395075568
2025-08-06T17:31:58+03:00,,,-114.99749962401484,11.508479999999999,346.9946998871292,339.0993414702265,-2.400005612243992,5.754239999999999,,-1.501149423242757,160.69747280034198,5.901465289847479,24.820469,59.48377,14.883711716453492,135.50914295387622,211.48555693325295,-4.104857808775499,0.003112739139495037,0.1259196730902507
2025-08-06T17:32:00+03:00,,,-117.99979847050034,11.99448,347.9973760286081,332.0003943885555,0.6999825383113268,6.55128,,1.9996227050065731,149.30134225518992,7.597420363434716,24.820422,59.48382,16.142110419820252,138.99840205197563,208.99897397663244,-4.944193907188219,0.0033301922341746055,0.1292498653244253
2025-08-06T17:32:02+03:00,,,-112.99787691900828,11.89728,344.9950771821226,335.7017017451006,-2.3000244769936637,6.2208000000000006,,-0.6990085100596044,154.49806945702647,5.597797658428142,24.820491,59.483806,15.429681305779395,134.78299730106414,210.21207988105846,-4.382078403293612,0.002267891541329691,0.131517756865755
2025-08-06T17:32:06+03:00,,,-112.00093035548062,11.80008,336.99658636209637,330.6023773684363,1.7000230739326654,7.056719999999999,,1.1000789666511805,151.30096496019647,5.202456779787875,24.820302,59.483964,15.856499300231494,136.37095264825751,200.62563371383885,-5.107810246864419,0.0030335803708420386,0.13455133723659704
2025-08-06T17:32:08+03:00,,288.15,-108.99863150899512,11.89728,334.99696365708974,332.9973409520831,-4.299990956677315,7.1928,5.851439999999999,-2.8017636181897254,153.50112289349886,6.302535746439056,24.820259,59.484012,15.779689748894706,134.529412011008,200.46755164608174,-5.044133045268625,0.0031696466596606793,0.13772098389625773
2025-08-06T17:32:10+03:00,,,-110.00130765047405,11.197439999999999,334.99696365708974,331.59932393196397,-0.600001403060998,6.82344,,1.1000789666511805,149.59928030865794,6.801009028202872,24.820209,59.484059,14.973623888145267,135.35543972838957,199.64152392870017,-4.854739384055781,0.0032108984651565246,0.14093188236141424
2025-08-06T17:32:12+03:00,,,-106.00206224046092,11.00304,335.9996397985687,331.1982534753724,-1.7000230739326654,7.7176800000000005,,1.701684651538545,150.8998945036049,6.399938571611295,24.820165,59.484105,15.081394621312976,135.46801904465866,200.53162075391003,-5.5016184919018105,0.0030738352649148613,0.1440057176263291
2025-08-06T17:32:14+03:00,,288.15,-97.99784184248331,10.5948,328.99809554207,327.60007852195076,-6.09999516586031,8.53416,5.851439999999999,-0.09740282517223994,144.99842921375745,8.19902604832208,24.820139,59.484161,14.499736452461935,133.64898920635267,195.34910633571735,-5.890605585022507,0.0034583088943199707,0.14746402652064908
2025-08-06T17:32:16+03:00,,,-93.99859643247017,10.808639999999999,324.9988501320569,322.0996836886949,-10.600005688817795,7.93152,,-2.6012283898939375,140.50071052198047,11.699798176571411,24.820017,59.484182,13.845281359162055,128.85164477754267,196.1472053545142,-4.975490320533968,0.003931726392895755,0.15139575291354485
2025-08-06T17:32:22+03:00,,288.15,-59.00233430587948,15.804720000000001,288.9999118639872,243.19766572122924,-2.7999874490248207,5.851439999999999,5.443199999999999,0.8021409131831525,61.39815732621903,21.199438419840458,24.819742,59.484219,13.739474493947982,80.4138480801533,208.58606378383394,0.9744428306463825,0.0028486396289945934,0.15424439254253944
2025-08-06T17:32:24+03:00,,288.15,-50.99811390790188,16.50456,276.9964460559965,215.79882395807326,-3.30000771683549,5.96808,5.346,-1.598552248414997,29.902667327877666,26.997771306564392,24.819747,59.484277,13.5660108454159,70.98955950044574,206.00688655555075,1.9440450199507846,0.0034895860210474167,0.15773397856358684
2025-08-06T17:32:26+03:00,,288.15,-44.00229922935453,16.60176,278.9960687610031,194.100912256469,-2.7999874490248207,5.7153599999999996,5.326560000000001,0.40107045659157625,7.700552766558264,31.70175480458845,24.819654,59.484284,13.106483161437563,61.636156927324336,217.35991183367872,2.7151903920481995,0.002869485036855064,0.1606034636004419
2025-08-06T17:32:28+03:00,,,-39.00037767786244,17.80704,273.99987678746226,175.19903459510311,-3.50002728311566,5.890319999999999,,0.0,-7.500017538262475,31.002746294528848,24.819561,59.484292,13.738960416074628,54.6534242764355,219.34645251102677,3.407673059279666,0.0028789120969130804,0.16348237569735496
2025-08-06T17:32:30+03:00,,,-42.999623087875584,17.80704,255.0808103922425,184.49813961007638,3.2000265815851607,5.57928,,-0.09740282517223994,12.398806686631014,15.601640761412316,24.81946,59.484285,14.244209032132497,58.49308503992836,196.58772535231415,2.915739901904521,0.003111220615525213,0.16659359631288018
2025-08-06T17:32:34+03:00,,288.15,-52.00079004938082,15.20208,262.9990871209505,248.19958727272132,8.700020344384471,6.08472,5.598719999999999,-1.7990874767107847,73.99749924114583,16.799122553235737,24.819254,59.484232,12.418985396336254,74.71236744719052,188.28671967376,1.604326734506933,0.0031665400784202757,0.16976013639130044
2025-08-06T17:32:38+03:00,,,-87.99972831745043,15.007679999999999,294.99877997900694,317.4014297686221,6.999997270451807,5.7153599999999996,,-0.09740282517223994,141.6981923138039,11.098192491684046,24.819021,59.484265,15.871610711816546,109.09256322764857,185.9062167513584,-1.8694670822057284,0.0032107627024789073,0.17297089909377936
2025-08-06T17:32:40+03:00,,,-101.00014068896883,15.007679999999999,309.9988150555319,329.702833630081,4.899992359738313,6.8623199999999995,,1.9996227050065731,149.89721836212598,6.697876625079324,24.818964,59.484285,17.652882910804646,123.43260293452431,186.5662121210076,-3.7808343412530507,0.0021146530103703202,0.17508555210414967
2025-08-06T17:32:46+03:00,,288.15,-121.9990438805135,11.508479999999999,349.9969987336147,355.89846402346217,3.8000279846461584,6.0264,5.94864,0.6016056848873644,-178.29873626676087,-4.297183463481174,24.818935,59.484483,15.564878193349397,141.16771171689473,208.82928701671997,-4.694473557969949,0.0032919815564570747,0.17837753366060674
2025-08-06T17:32:48+03:00,,288.15,-151.00216747003577,10.206,3.9992454100131463,352.19715666691707,4.899992359738313,6.318,5.832,2.1027551081301215,175.19903459510311,-0.49847328176381617,24.818894,59.484521,16.027336659583604,162.01913188897413,201.98011352103902,-6.009426659308632,0.002604416274752574,0.18098194993535932
2025-08-06T17:32:50+03:00,,288.15,-151.00216747003577,8.90352,9.998113525032863,359.5997713800073,-1.4000223724021665,7.503839999999999,5.57928,1.1974817918234204,175.69750787686695,1.3006141949469687,24.818963,59.484578,15.888689378049655,164.23731849111581,205.76079503391705,-7.221659101234107,0.004021621190835311,0.18500357112619464
2025-08-06T17:32:52+03:00,,288.15,-159.00065829006203,8.30088,13.99735893504601,8.697499330085895,2.000023775463165,7.36776,5.57928,1.701684651538545,-170.90185113162195,3.300236899953542,24.818987,59.484627,15.407221945516874,168.86796943644285,205.12938949860316,-7.229134736597825,0.0030349993931703886,0.18803857051936504
2025-08-06T17:32:56+03:00,,288.15,-170.99839452010147,7.503839999999999,24.1501710647642,12.100868633162985,1.8000042091829944,4.74336,5.1127199999999995,0.6016056848873644,-167.00000854678103,-0.8021409131831525,24.819053,59.484717,12.211354051728286,174.48274543664851,209.6674256281157,-4.721385385773047,0.0018212114604605146,0.18985978197982556
2025-08-06T17:32:58+03:00,,288.15,-179.99956148160675,6.006959999999999,27.99471787009202,16.002711218003892,-2.199986045963822,4.7628,4.957199999999999,-0.8995437383553924,-164.7998506134787,1.902219879834333,24.819084,59.484757,10.769759999922194,179.9997554106135,207.99496245947853,-4.762799999956603,0.0025837740198370674,0.19244355599966262
2025-08-06T17:33:00+03:00,,288.15,-172.9980172251081,6.901199999999999,24.99814860155782,18.79874525824231,0.09998113525032865,5.3654399999999995,4.91832,0.6990085100596044,-160.19899951857818,1.902219879834333,24.819117,59.484798,12.244106447894762,176.06015340322824,208.9379951983296,-5.3527600490404,0.0026622862168010743,0.19510584221646368
2025-08-06T17:33:02+03:00,,288.15,-166.99914911008833,5.69592,27.99471787009202,10.50231638474799,-7.500017538262475,5.01552,4.74336,0.49847328176381617,-173.10200906492432,3.701307356545118,24.819137,59.484841,10.642855067107,173.08488830044288,214.90982956964913,-4.979035208841467,0.002655734672050694,0.19776157688851437
2025-08-06T17:33:04+03:00,,288.15,-161.00028099506864,5.404319999999999,357.45117964826665,359.8977094334753,-8.400019642853973,4.62672,4.60728,3.701307356545118,178.0982010384651,13.298350424986406,24.819136,59.484884,9.894306759222294,169.75693560962355,187.6942440386431,-4.552980402473075,0.0025848120006519374,0.2003463888891663
2025-08-06T17:33:06+03:00,,288.15,-136.99907895703842,8.00928,9.998113525032863,355.8010611982899,-7.899999375043304,4.41288,4.52952,-0.8995437383553924,176.20171073658207,11.997736230039438,24.81925,59.48491,11.632678930473633,151.99331672678315,218.0047967982497,-3.8961000908410055,0.0038142140933485145,0.20416060298251482
2025-08-06T17:33:08+03:00,,288.15,-129.00058813701216,10.303199999999999,347.9973760286081,339.9988852085818,0.9000021045914972,5.22936,4.52952,2.6986312150661775,159.49999100851855,14.799499848229162,24.819212,59.484963,14.188639160841111,145.64447134964092,202.35290467896715,-4.317107356717485,0.0033902561320840498,0.20755085911459886
2025-08-06T17:33:10+03:00,,288.15,-121.9990438805135,12.402719999999999,328.99809554207,340.60049089346916,6.499977002641137,5.3654399999999995,4.60728,4.801386323196299,158.8983853236312,9.700175471564837,24.819166,59.485007,15.910424067273203,138.6169900810392,190.3811054610308,-4.025727926987338,0.002994279324696807,0.21054513843929568
2025-08-06T17:33:12+03:00,,288.15,-125.001342726999,13.39416,331.99466481060426,349.49852545185087,-1.5000035076524951,5.2488,4.548959999999999,-1.0026761414789407,168.300622741728,6.199403343315507,24.819098,59.485044,16.958912625292662,139.68749717280102,192.30716763780325,-4.002352620304515,0.0030419358412132687,0.21358707428050894
2025-08-06T17:33:14+03:00,,288.15,-129.00058813701216,12.49992,346.90875621785955,350.39806919020623,0.0,5.151599999999999,4.49064,-1.7990874767107847,172.70093860833276,6.199403343315507,24.819066,59.485085,16.243080508334934,143.26960140432476,203.6391548135348,-4.1287933925163935,0.0026508872499207015,0.21623796153042965
2025-08-06T17:33:16+03:00,,288.15,-129.99753470053977,11.99448,344.9950771821226,348.70211411661904,-2.000023775463165,5.851439999999999,4.52952,0.49847328176381617,170.50078067503037,4.497718691776963,24.819048,59.48513,16.380791948055183,145.8791909666509,199.1158862154717,-4.844153596234142,0.00276007310540061,0.21899803463583026
2025-08-06T17:33:20+03:00,,288.15,-129.99753470053977,11.99448,350.11731987059215,341.7005698601203,5.1000119260184835,5.07384,4.723920000000001,-1.598552248414997,163.09816596194014,3.300236899953542,24.818998,59.485207,15.743094379194467,144.2915198591981,205.82580001139405,-4.11994362045049,0.0015111312672041128,0.22050916590303438
2025-08-06T17:33:22+03:00,,288.15,-134.99945625203188,13.5108,0.9224620501606254,348.59898171349545,7.200016836731978,5.07384,4.74336,-0.8021409131831525,170.7987187284984,-2.899166443361966,24.818966,59.485244,17.47087016649752,146.84990558265162,214.072556467509,-4.248026534043275,0.0024289828309921714,0.22293814873402654
2025-08-06T17:33:24+03:00,,288.15,-157.99798214858313,10.4004,26.230007861089085,358.09862195676453,9.49998401794613,4.5684000000000005,4.64616,-0.6016056848873644,-178.29873626676087,-4.102377813136695,24.818939,59.485283,14.735815735323113,164.66769500325458,221.5623128578345,-4.405803727381812,0.002484820504992334,0.22542296923901886
2025-08-06T17:33:26+03:00,,288.15,-179.99956148160675,8.80632,10.995060088560496,14.10049133816956,8.29998121182413,4.82112,4.510079999999999,-0.40107045659157625,-162.70282508329987,-10.3017811564522,24.818952,59.485321,13.62743999990875,179.99971662044973,190.99534346811078,-4.821119999941033,0.002318297435518486,0.22774126667453734
2025-08-06T17:33:28+03:00,,288.15,150.99729732877717,9.50616,63.890523735038094,21.39997364813625,9.900023150506469,4.49064,4.35456,1.0026761414789407,-158.1993768135716,-15.699043586584558,24.819009,59.485358,13.608960417674995,160.20358394364482,224.09410767868292,-4.225251958425941,0.0028235621224830983,0.23056482879702045
2025-08-06T17:33:32+03:00,,288.15,123.00257945868512,12.402719999999999,63.999385716112954,38.19909620137198,4.599991658207815,4.89888,4.23792,0.0,-140.59811334715272,-9.900710699860626,24.819153,59.485408,15.620979450513527,138.25113918420325,202.2505249003162,-3.6549104110629935,0.00039160281190185825,0.23095643160892232
2025-08-06T17:33:34+03:00,,288.15,112.99873635570096,12.091679999999998,61.99976301110639,62.698771521165995,6.30001473214048,5.22936,4.23792,0.8021409131831525,-111.60071933558174,-15.699043586584558,24.819237,59.485422,14.932032283318748,131.80528086002653,193.8050438711329,-3.4858975296206536,0.0026982693523943256,0.23365470096131666
2025-08-06T17:33:36+03:00,,,99.99832398418258,11.89728,72.99482309966687,72.30154416755859,-1.5000035076524951,5.307119999999999,,-0.8021409131831525,-108.99949094568781,-14.598964619933378,24.819318,59.485428,13.843249248292619,122.18033535953515,195.175158459202,-2.8264968593267925,0.002498299691198774,0.23615300065251543
2025-08-06T17:33:38+03:00,,288.15,95.99907857416943,13.00536,90.99715702267736,73.29849073108622,-0.9999832398418258,5.1127199999999995,4.87944,0.29793805346802804,-106.10032450232583,-10.198648753328653,24.819413,59.485421,14.462985186200406,116.58232030179262,207.57947732446996,-2.2878560930904968,0.0029297840783557433,0.2390827847308712
2025-08-06T17:33:42+03:00,,288.15,99.00137742065495,12.59712,94.99640243269049,78.5009475108741,0.8000209693411684,5.19048,5.20992,-1.598552248414997,-102.30161432060851,-11.997736230039438,24.819607,59.485407,14.35578580559038,119.92403364992938,214.92043608261986,-2.5892778507129908,0.0018120096956546297,0.2408947944265258
2025-08-06T17:33:44+03:00,,,95.00213201064179,14.094,93.99945586916286,74.10063164426936,-0.300000701530499,6.1624799999999995,,-1.1000789666511805,-107.09727106585349,-4.400315866604722,24.819709,59.485399,15.867043942857189,117.76407554647041,211.76353141563328,-2.870679868381233,0.003149976368424029,0.24404477079494985
2025-08-06T17:33:48+03:00,,288.15,86.9979116126642,11.29464,95.99907857416943,91.59876270756472,4.800011224487984,6.47352,5.890319999999999,0.20053522829578813,-84.29928039759803,-12.501939089754565,24.820007,59.485433,12.720724486789921,117.54172877567669,213.54080734984612,-2.9933200742104225,0.003649758255984263,0.24769452905093411
2025-08-06T17:33:50+03:00,,288.15,82.00171963912342,11.10024,84.99828890765764,109.80163185887096,0.9000021045914972,4.64616,5.890319999999999,-0.8995437383553924,-70.39932428772426,-9.29910501497326,24.820034,59.485388,11.421467117153684,105.75722901539932,190.75551792305697,-1.2617199480851562,0.002827586880367994,0.25052211593130214
2025-08-06T17:33:54+03:00,,288.15,56.00089489608667,13.7052,136.08893549947314,135.99726225225223,10.300004987287297,5.28768,5.46264,0.29793805346802804,-40.30185130950211,-14.598964619933378,24.820243,59.485385,11.60801295219815,78.18890490334533,214.27784040281847,1.0823119625500524,0.0028662700988932597,0.2533883860301954
2025-08-06T17:33:56+03:00,,288.15,45.00010522957485,14.696639999999999,102.99489325271679,151.30096496019647,0.09998113525032865,3.05208,5.38488,0.49847328176381617,-29.301061642990298,-15.00003507652495,24.820237,59.485381,12.722874392304515,54.76627187156217,157.76116512427896,1.760785368907759,0.0003022256424667788,0.2536906116726622
2025-08-06T17:33:58+03:00,,288.15,41.99780638308934,16.407359999999997,146.99805191876402,154.89913991361806,1.8000042091829944,4.02408,5.20992,-2.2975607584746007,-27.19830653486018,-10.50231638474799,24.820272,59.485352,13.684287512450396,53.34536343894672,200.34341535771074,2.4023361662042695,0.002044393938732421,0.2557350056113946
2025-08-06T17:34:00+03:00,,288.15,35.99893826806962,15.901919999999999,147.99499848229166,153.79906094696688,0.6999825383113268,4.93776,5.20992,0.29793805346802804,-27.398841763155968,-9.998113525032863,24.820318,59.485304,12.255733902314919,49.69722131100286,197.69221979329453,3.1938753324948403,0.00320861802930822,0.25894362364070284
2025-08-06T17:34:02+03:00,,,35.99893826806962,15.901919999999999,148.99767462377056,153.3979904903753,1.4000223724021665,5.03496,,-1.3980170201192088,-26.499298024800574,-6.497341396783535,24.820369,59.485258,12.193087675597798,50.04555519765583,199.0432298214264,3.233342222978777,0.0031729756042080098,0.2621165992449108
2025-08-06T17:34:04+03:00,,288.15,33.99931556306306,16.50456,148.99767462377056,146.79751669046823,-2.9000258800546614,4.43232,5.22936,-0.49847328176381617,-35.59786781147805,-9.797578296737077,24.820425,59.485204,13.067172541492862,44.932964238135185,193.93063886190575,3.1377882905296968,0.003668307315711702,0.26578490656062254
2025-08-06T17:34:06+03:00,,288.15,37.001614409548566,16.19352,140.99918380374427,149.59928030865794,-1.200002806121996,4.276800000000001,5.20992,-0.09740282517223994,-30.200605381345692,-12.702474318050351,24.820478,59.48517,13.034651601701217,48.390602358366465,189.38978616211074,2.840004153352473,0.0026063610707363375,0.2683912676313589
2025-08-06T17:34:08+03:00,,288.15,37.001614409548566,16.09632,141.99613036727192,153.1974552620795,-0.2000195662801704,4.723920000000001,5.13216,-0.29793805346802804,-27.702509394575305,-10.3017811564522,24.82053,59.485136,12.647397250161665,49.99225523309502,191.98838560036694,3.036966367590818,0.002587530946457817,0.2709787985778167
2025-08-06T17:34:12+03:00,,288.15,33.00236899953541,17.70984,149.41020423626478,163.0007631367679,2.6000251785241626,5.326560000000001,5.20992,0.8995437383553924,-14.197894163341799,-15.601640761412316,24.820726,59.485037,13.55681001340896,45.35958063935624,194.769784875621,3.7427349631647195,0.0029709420107096973,0.2739497405885264
2025-08-06T17:34:14+03:00,,288.15,31.999692858056477,20.10096,171.99620052032182,170.30024544673458,0.600001403060998,4.510079999999999,5.1710400000000005,-1.598552248414997,-13.298350424986406,-5.500394833255903,24.820679,59.485023,16.45071465531308,40.35317933128303,212.34937985160485,3.4369862043697132,0.001663075958089828,0.27561281654661623
2025-08-06T17:34:18+03:00,,,26.997771306564392,18.09864,157.9186274939575,157.7009035318078,-2.400005612243992,4.374,,-1.501149423242757,-22.098982158195852,-7.700552766558264,24.820745,59.484911,14.339440251616281,34.95717565156272,192.87580314552022,3.5848452002280404,0.0029129121901764403,0.27852572873679265
2025-08-06T17:34:20+03:00,,288.15,24.001202038030186,17.70984,148.99767462377056,157.9014387601036,-0.09998113525032865,4.21848,5.09328,-2.1027551081301215,-20.09935945318928,-16.197516868348373,24.820784,59.484874,13.961943501329072,31.060570868658317,180.05824549242888,3.613644224075585,0.002522486116968391,0.281048214853761
2025-08-06T17:34:22+03:00,,288.15,24.99814860155782,18.50688,146.99805191876402,174.9010965416351,4.299990956677315,4.02408,4.859999999999999,-3.002298846485514,-4.297183463481174,-18.79874525824231,24.820824,59.484843,14.956756776990073,31.526599143565534,178.52465106232955,3.43011575744198,0.0022276556886186238,0.2832758705423796
2025-08-06T17:34:24+03:00,,288.15,22.998525896551243,18.29304,154.9965427387903,173.69788517186038,-0.300000701530499,4.45176,4.84056,-1.1974817918234204,-7.901087994854052,-18.300271976478495,24.82086,59.484802,14.301292384273108,29.9841833569879,184.9807260957782,3.855951564378067,0.0026982565276333116,0.28597412707001296
2025-08-06T17:34:26+03:00,,288.15,22.998525896551243,17.80704,160.99541085381,172.29986815174118,-3.2000265815851607,4.52952,4.84056,-1.3006141949469687,-7.299482309966689,-17.69866629159113,24.820887,59.484764,13.75189625045998,30.392364641945022,191.38777549575502,3.907078329077359,0.0024282001721092714,0.2884023272421222
2025-08-06T17:34:28+03:00,,288.15,20.99890319154467,17.90424,154.9965427387903,177.3991925284055,2.6000251785241626,4.548959999999999,4.87944,-4.60085109490051,2.6012283898939375,-22.29951738649164,24.820919,59.484724,13.754328772391736,27.805418591136714,182.80196132992702,4.023722812963905,0.0025951056573277143,0.29099743289944996
2025-08-06T17:34:30+03:00,,,20.00195662801704,18.40968,159.63750087934997,182.29798167677404,0.5000202678106694,4.58784,,-1.9996227050065731,4.698253920072751,-20.20249185631283,24.820965,59.484685,14.185641928218443,26.353278703721884,185.99077958307186,4.111044304916386,0.0027324663444687827,0.29372989924391874
2025-08-06T17:34:32+03:00,,288.15,24.99814860155782,19.40112,166.99427896882975,176.4022459648779,-1.200002806121996,5.09328,4.80168,-3.002298846485514,-5.202456779787875,-13.899956109873772,24.820998,59.484643,14.940817976268589,33.28095851588398,200.27523748471373,4.257930004170546,0.0027180229098836715,0.2964479221538024
2025-08-06T17:34:34+03:00,,288.15,26.00082474303676,19.10952,152.99692003378374,173.3025442932201,-0.3999818367808277,5.0544,4.93776,0.0,-7.402614713090236,-13.602018056405743,24.821033,59.484602,14.734246096938609,34.649901673085736,187.64682170686947,4.157959165983647,0.0026859755054661335,0.2991338976592685
2025-08-06T17:34:36+03:00,,288.15,28.000447448043335,19.69272,170.05960317277965,175.19903459510311,0.2000195662801704,4.41288,4.87944,-1.598552248414997,-4.400315866604722,-12.89727996839483,24.821061,59.484563,15.93167389107155,35.472341152764415,205.53194432554406,3.593830720974139,0.0024951140749783496,0.30162901173424683
2025-08-06T17:34:38+03:00,,288.15,24.99814860155782,19.90656,163.9977097002955,176.4996487900501,1.5000035076524951,4.23792,4.93776,-2.2975607584746007,-1.7990874767107847,-18.79874525824231,24.821105,59.484518,16.16515316806595,31.358866947221316,195.35657664751682,3.6188641995455186,0.003019873664459864,0.3046488853987067
2025-08-06T17:34:40+03:00,,288.15,22.998525896551243,21.306240000000003,163.9977097002955,182.2005788516018,2.1000049107134933,4.52952,4.89888,-1.7990874767107847,3.701307356545118,-13.498885653282196,24.821106,59.484487,17.22788658860086,28.894577351779304,192.8922870520748,3.965641243770333,0.001863589155051575,0.3065124745537583
2025-08-06T17:34:42+03:00,,288.15,31.002746294528848,21.90888,173.9958232253284,175.19903459510311,-1.5000035076524951,4.35456,4.82112,-0.29793805346802804,-7.9984908200262925,0.40107045659157625,24.821124,59.484445,18.314266280483785,38.037405096444786,212.03322832177318,3.429689149005212,0.002583609550141172,0.3090960841038995
2025-08-06T17:34:44+03:00,,288.15,28.997394011570965,20.29536,172.99887666180075,164.19824492859135,-2.199986045963822,4.04352,4.64616,-1.3006141949469687,-15.601640761412316,-10.89765726338826,24.821132,59.484408,16.8729746970814,35.668654712301816,208.66753137410257,3.2849663559925157,0.002237348818187829,0.3113334329220873
2025-08-06T17:34:46+03:00,,288.15,30.0000701530499,20.10096,156.99616544379688,174.2020880315755,0.2000195662801704,3.86856,4.510079999999999,-1.701684651538545,-2.899166443361966,-21.10203559466822,24.82116,59.484376,16.86200190951196,36.58711876797196,193.58328421176884,3.106266047583642,0.002104749988119448,0.31343818291020675
2025-08-06T17:34:48+03:00,,288.15,31.002746294528848,20.003759999999996,174.99849936680735,184.40073678490415,0.300000701530499,4.101839999999999,4.43232,-2.1027551081301215,4.60085109490051,-18.999280486538098,24.821182,59.484337,16.622713136491896,38.30487912796744,213.3033784947748,3.2188106073664544,0.0024384713556295486,0.3158766542658363
2025-08-06T17:34:50+03:00,,288.15,33.99931556306306,19.69272,172.99887666180075,181.7995083950102,-0.6999825383113268,4.0629599999999995,4.548959999999999,-0.6016056848873644,-0.49847328176381617,-12.198271458335228,24.821182,59.484298,16.481686419382054,41.9225509138646,214.92142757566535,3.0230398538820555,0.002344200940123675,0.31822085520595994
2025-08-06T17:34:52+03:00,,288.15,31.002746294528848,18.701279999999997,163.9977097002955,174.00155280327974,-1.8000042091829944,4.64616,4.62672,0.20053522829578813,-7.797955591730505,-9.001166961505232,24.821202,59.484262,14.91213965048939,40.23766030084684,204.23537000114234,3.546746624439994,0.002248329174129459,0.3204691843800894
2025-08-06T17:34:54+03:00,,288.15,28.000447448043335,18.195839999999997,170.9992539567942,173.60048234668815,-3.0000070153049903,4.21848,4.60728,0.09740282517223994,-7.797955591730505,-12.79987714322259,24.82121,59.48422,14.60605206826489,35.7933870250111,206.7926409818053,3.4217412859808114,0.002536304542480393,0.3230054889225698
2025-08-06T17:34:56+03:00,,288.15,28.000447448043335,18.29304,175.82928816974703,179.30141240823983,2.3000244769936637,4.00464,4.62672,-2.8017636181897254,-1.0026761414789407,-18.002333923010465,24.821208,59.484182,14.876449085895059,35.26092900495283,211.09021717469986,3.269914512026127,0.002284908759838398,0.3252903976824082
2025-08-06T17:34:58+03:00,,288.15,33.99931556306306,17.496,165.99733240530213,182.6990521333656,0.09998113525032865,4.43232,4.62672,0.8021409131831525,2.6986312150661775,-13.899956109873772,24.821245,59.484159,14.041874645663679,44.16563737708276,210.1629697823849,3.179429887612675,0.0017850865144668322,0.32707548419687504
2025-08-06T17:35:00+03:00,,288.15,33.00236899953541,19.10952,168.99963125178763,178.60240389818023,-1.1000216708716675,4.41288,4.58784,0.29793805346802804,-3.9992454100131463,-7.797955591730505,24.821235,59.484098,15.595005870248578,41.86841959757615,210.86805084936378,3.2861814062683217,0.0036792520689389566,0.330754736265814
2025-08-06T17:35:02+03:00,,288.15,33.99931556306306,18.60408,169.07984534310594,171.19978918509,-2.499986747494321,4.00464,4.548959999999999,0.0,-10.599719209920229,-10.599719209920229,24.821252,59.484083,15.447231413733922,42.33463811385326,211.4144834569592,2.9603263626269647,0.0010402546531331032,0.3317949909189471
2025-08-06T17:35:04+03:00,,288.15,35.00199170454199,18.09864,168.99963125178763,174.2020880315755,-2.000023775463165,3.6935999999999996,4.49064,0.49847328176381617,-8.399561276617868,-14.799499848229162,24.821263,59.484025,15.221264817533228,43.00304263816875,212.00267388995638,2.701194257832102,0.003502376355884783,0.3352973672748319
2025-08-06T17:35:06+03:00,,288.15,35.00199170454199,18.798479999999998,167.34951280181082,175.8006402799905,2.1000049107134933,4.374,4.510079999999999,-1.501149423242757,-5.700930061551691,-15.00003507652495,24.821282,59.48399,15.42106307398515,44.36541799905723,211.71493080086805,3.1269500525312632,0.002182232979789158,0.33747960025462104
2025-08-06T17:35:08+03:00,,288.15,35.00199170454199,18.50688,161.24178270571628,177.89766581016931,-2.9000258800546614,4.548959999999999,4.43232,1.1000789666511805,-3.9992454100131463,-10.599719209920229,24.821308,59.48395,15.009230566585288,45.01354417160667,206.25532687732294,3.2158400000461924,0.0025318835629067585,0.34001148381752777
2025-08-06T17:35:10+03:00,,288.15,28.000447448043335,18.99288,168.07143962367567,175.6001050516947,-0.2000195662801704,3.57696,4.31568,-3.0997016716577535,-2.1027551081301215,-15.802175989708104,24.821332,59.483918,15.92342340726923,34.054194767845644,202.12563439152132,2.963540955726426,0.0020582097855921296,0.3420696936031199
2025-08-06T17:35:12+03:00,,288.15,28.000447448043335,18.895680000000002,178.29873626676087,182.000043623306,0.600001403060998,3.8296799999999998,4.29624,-2.8017636181897254,4.497718691776963,-19.801421399721253,24.821348,59.483883,15.618122258109164,34.61097190025913,212.90970816702,3.1519323918608775,0.002159705709842553,0.3442293993129624
2025-08-06T17:35:14+03:00,,288.15,31.999692858056477,19.90656,166.99427896882975,176.60278119317363,-0.9999832398418258,4.60728,4.35456,-3.002298846485514,-1.3980170201192088,-19.297218540006124,24.821382,59.483858,16.184560984851412,40.67596894923065,207.6702479180604,3.4941969655120615,0.0018261914393410922,0.3460555907523035
2025-08-06T17:35:16+03:00,,288.15,28.997394011570965,20.39256,154.9965427387903,180.89996465665484,1.8000042091829944,4.91832,4.43232,-1.7990874767107847,3.2028340747813018,-21.39997364813625,24.8214,59.483812,16.266476232494654,37.42586882635558,192.4224115651459,3.905836177814865,0.0028190075581433064,0.3488745983104468
2025-08-06T17:35:18+03:00,,288.15,28.997394011570965,20.7036,147.99499848229166,186.29722708678716,-0.6999825383113268,4.64616,4.510079999999999,0.09740282517223994,4.400315866604722,-18.002333923010465,24.821441,59.483767,16.791615744615775,36.705911559251064,184.70091004154273,3.724891422068273,0.002980296450829499,0.3518548947612763
2025-08-06T17:35:20+03:00,,288.15,26.00082474303676,19.59552,155.99921888026924,185.50081575155534,2.000023775463165,4.91832,4.5684000000000005,-0.29793805346802804,3.5981749534215695,-14.598964619933378,24.82148,59.48372,15.327402788363539,34.08747101249435,190.0866898927636,4.073268574440496,0.0030655994820670473,0.3549204942433433
2025-08-06T17:35:22+03:00,,288.15,26.997771306564392,18.701279999999997,161.99808699528896,173.19941189009654,-5.79999446432981,4.29624,4.60728,0.20053522829578813,-10.3017811564522,-9.001166961505232,24.821493,59.483683,15.000551398415736,34.468255657139366,196.46634265242832,3.5419915715735115,0.002259103274785744,0.35717959751812906
2025-08-06T17:35:24+03:00,,288.15,24.001202038030186,18.50688,162.99503355881663,166.1978676335979,1.8000042091829944,4.35456,4.64616,-2.6986312150661775,-10.399183981624443,-16.39805209664416,24.821504,59.483646,14.636398540120705,30.951960918268213,193.94699447708484,3.7344655522973658,0.0022491848034451507,0.3594287823215742
2025-08-06T17:35:26+03:00,,288.15,24.001202038030186,19.90656,147.99499848229166,191.70021909487085,6.499977002641137,4.45176,4.5684000000000005,-1.1974817918234204,12.100868633162985,-8.19902604832208,24.821534,59.483614,15.942880072284357,30.52288312755732,178.51788160984898,3.834863537276734,0.002130274290965675,0.3615590566125399
2025-08-06T17:35:28+03:00,,288.15,20.99890319154467,20.7036,186.9962355968468,169.29756930525565,-6.799977704171636,3.26592,4.374,-1.701684651538545,-14.799499848229162,-3.2028340747813018,24.82152,59.48359,17.69332777833592,24.791558363486956,211.78779396033374,2.964930423389079,0.0015045403598835977,0.3630635969724235
2025-08-06T17:35:30+03:00,,288.15,20.00195662801704,18.60408,174.99849936680735,166.70207049331304,1.5000035076524951,3.8296799999999998,4.19904,-2.498095986770389,-11.000789666511807,-16.99965778153153,24.821521,59.483557,15.062472593880727,24.991149138587133,199.98964850539448,3.471118783813536,0.001983789454120956,0.3650473864265445
2025-08-06T17:35:32+03:00,,288.15,20.99890319154467,17.90424,159.99846429028239,176.4022459648779,0.2000195662801704,2.83824,4.04352,-2.6012283898939375,-2.200157933302361,-21.89844692990006,24.821527,59.483537,15.288364311156956,24.813416195938146,184.81188048622053,2.576211515049291,0.0012160230315785142,0.366263409458123
2025-08-06T17:35:34+03:00,,288.15,28.997394011570965,18.50688,153.99959617526267,173.60048234668815,-1.1000216708716675,2.97432,4.101839999999999,-0.49847328176381617,-7.0015442564986605,-18.300271976478495,24.821542,59.483517,15.970635718247825,34.1772234578242,188.17681963308686,2.4606666889666475,0.001286383079143145,0.36754979253726616
2025-08-06T17:35:36+03:00,,288.15,33.00236899953541,17.2044,146.99805191876402,177.80026298499706,0.300000701530499,3.46032,4.00464,-1.902219879834333,0.0,-18.59821002994652,24.821576,59.483487,14.426059033128706,40.5094467073514,187.50749862611542,2.6308774092761777,0.002080518326776316,0.36963031086404247
2025-08-06T17:35:38+03:00,,288.15,31.002746294528848,18.00144,149.99462118729824,182.8995873616614,0.8000209693411684,3.6741599999999996,4.0629599999999995,-0.6990085100596044,3.002298846485514,-19.19981571483389,24.821604,59.483458,14.972246863835258,38.26432371216785,188.2589448994661,2.8848113112879603,0.00194135125815313,0.3715716621221956
2025-08-06T17:35:40+03:00,,288.15,31.002746294528848,18.00144,170.9992539567942,182.29798167677404,-0.600001403060998,3.71304,4.00464,-2.899166443361966,2.4006931615981495,-19.297218540006124,24.821621,59.483425,14.941739160387867,38.35665357127306,209.35590752806726,2.911629160466252,0.0020502970893165554,0.37362195921151214
2025-08-06T17:35:42+03:00,,288.15,24.001202038030186,18.40968,162.99503355881663,184.69867483837214,2.7000063137744914,3.61584,4.04352,-3.3976397251257815,5.998868115019719,-23.19906112484703,24.821641,59.483387,15.177904441128284,29.561983204845177,192.5570167636618,3.1451389071231097,0.002364258471828112,0.37598621768334023
2025-08-06T17:35:44+03:00,,288.15,30.0000701530499,19.69272,163.9977097002955,185.79875380502335,-0.09998113525032865,4.41288,4.0824,-1.3006141949469687,6.801009028202872,-14.398429391637588,24.821673,59.48335,16.023695987856534,37.914781176279405,201.9124908765749,3.4814339362561477,0.002429004425595344,0.3784152221089356
2025-08-06T17:35:46+03:00,,288.15,26.00082474303676,20.39256,204.23080607438195,200.5008508280803,12.60002946428096,3.47976,4.00464,-1.9996227050065731,26.401895199628335,-12.301403861458775,24.821701,59.483318,17.332255888872158,31.050156549710096,235.28096262409204,2.981166449458096,0.0021047608596480023,0.3805199829685836
2025-08-06T17:35:48+03:00,,288.15,16.002711218003892,20.29536,189.9985344433323,217.2025705561438,12.299971466970948,2.6244,3.81024,-1.7990874767107847,38.30222860449553,-3.701307356545118,24.821635,59.483282,17.787379360297045,18.333861422855904,208.3323958661882,2.4911847852161246,0.0029564170078155306,0.3834763999763991
2025-08-06T17:35:50+03:00,,288.15,1.9996227050065731,18.701279999999997,216.9963057498967,221.0986835630334,6.199976301110638,2.56608,3.44088,-2.1027551081301215,39.402307571146714,1.9996227050065731,24.821592,59.483271,16.13701100469504,2.3175363865680083,219.3138421364647,2.56398111404507,0.0014695883117737689,0.3849459882881729
2025-08-06T17:35:52+03:00,,288.15,-10.999930229819109,17.5932,223.99785000639537,221.29921879132917,3.9000091198964877,4.02408,3.05208,-0.8021409131831525,41.797271154793556,14.10049133816956,24.82156,59.483263,13.664642140974104,14.221116987646155,209.7767330187492,3.900761558660003,0.0010886618864101086,0.386034650174583
2025-08-06T17:35:54+03:00,,288.15,-22.99766645985855,17.107200000000002,248.99599860795314,217.99898189137562,0.2000195662801704,2.83824,3.07152,3.002298846485514,35.59786781147805,19.698288996597704,24.8216,59.483234,14.53689591487732,27.37246926220533,221.6235293457478,2.5204604590801183,0.0021281540059347602,0.38816280418051774
2025-08-06T17:35:56+03:00,,288.15,-29.999210716357208,17.70984,249.8611648786007,208.0008683663428,-0.9999832398418258,3.5964,3.18816,2.6012283898939375,26.401895199628335,21.697911701604276,24.821528,59.483229,14.70559221564218,37.022749197496495,212.8384156811042,2.871353163288985,0.0022180485523358084,0.39038085273285356
2025-08-06T17:36:00+03:00,,288.15,-31.99883342136378,18.60408,262.9990871209505,194.39885030993702,-1.899985344433323,3.8491199999999997,3.6547199999999997,1.501149423242757,10.89765726338826,27.398841763155968,24.821392,59.483221,15.474806925145574,39.572740195271734,223.42634692567876,2.966964917418599,0.0019352768467094915,0.392316129579563
2025-08-06T17:36:02+03:00,,288.15,-31.00188685783615,19.10952,261.99641097947153,182.09744644847825,-1.200002806121996,5.20992,3.8491199999999997,-0.8021409131831525,0.20053522829578813,28.498920729807146,24.821302,59.48322,14.88767406515847,41.38601700081517,220.61039397865636,3.908859390802662,0.0027476499524516948,0.3950637795320147
2025-08-06T17:36:04+03:00,,288.15,-33.00150956284272,19.20672,254.9948667229729,184.60127201319995,1.4000223724021665,5.890319999999999,4.101839999999999,0.8021409131831525,5.202456779787875,26.90036848139215,24.82121,59.4832,14.623041943629122,45.675034856576076,209.3198318663968,4.115725997192568,0.0030545457902457188,0.39811832532226044
2025-08-06T17:36:06+03:00,,288.15,-31.99883342136378,19.20672,247.99905204442555,184.40073678490415,-2.3000244769936637,6.4152,4.33512,1.0026761414789407,0.20053522829578813,28.89999118639872,24.821105,59.483174,14.179767896987276,45.86990293375263,202.12914911067293,4.466839141030079,0.003565566735281365,0.4016838920575418
2025-08-06T17:36:08+03:00,,288.15,-31.99883342136378,18.99288,253.57966096899975,186.8014299465023,-0.300000701530499,5.1710400000000005,4.510079999999999,0.49847328176381617,7.9984908200262925,24.001202038030186,24.821002,59.483151,14.862315727416986,42.62315637492972,210.95650459407003,3.8049725663791403,0.0034343313633128677,0.4051182234208547
2025-08-06T17:36:10+03:00,,288.15,-37.9977015363835,20.10096,250.78935650671264,197.6016843847183,2.000023775463165,4.80168,4.510079999999999,1.501149423242757,22.797990668255455,17.29759583499955,24.820911,59.483131,16.582669186179338,48.26623646690217,202.52312003981046,3.196335390001304,0.003026515890730961,0.4081447393115856
2025-08-06T17:36:14+03:00,,288.15,-39.00037767786244,18.798479999999998,256.410072476946,205.39963997644884,-0.09998113525032865,4.957199999999999,5.07384,0.8995437383553924,26.997771306564392,20.20249185631283,24.820718,59.48318,15.26814892179687,50.79047271659431,205.61959976035172,3.1337343990541595,0.002909101474153574,0.4110538407857392
2025-08-06T17:36:20+03:00,,288.15,-42.999623087875584,18.195839999999997,261.99641097947153,215.09981544801366,0.300000701530499,5.9292,5.42376,1.701684651538545,35.99893826806962,16.99965778153153,24.820419,59.483167,14.437321568860353,59.264896538332394,202.73151444113915,3.030234041875202,0.0031748763665359996,0.4142287171522752
2025-08-06T17:36:26+03:00,,288.15,-41.00000038286902,18.798479999999998,257.9971655694584,218.89852562973104,1.7000230739326654,6.55128,5.773680000000001,-2.1027551081301215,40.50238653779789,15.699043586584558,24.820111,59.483146,14.505549064498082,58.23564115921475,199.76152441024362,3.4487707622979515,0.0031340840126567876,0.417362801164932
2025-08-06T17:36:30+03:00,,,-39.997324241390075,18.701279999999997,254.9948667229729,206.9007893996916,-1.8000042091829944,6.74568,,-3.002298846485514,23.800666809734395,21.600508876432034,24.819926,59.483044,14.211161755851007,57.76138908096533,197.23347764200756,3.598458672209835,0.003717087908234002,0.421079889073166
2025-08-06T17:36:36+03:00,,288.15,-37.00075497285587,20.5092,255.99754286445182,198.0027548413099,-1.5000035076524951,6.82344,6.37632,0.09740282517223994,18.002333923010465,23.30219352797058,24.819609,59.48302,15.60965941304122,52.25339087851307,203.74415198593874,4.177108569912308,0.002999460436863104,0.4240793495100291
2025-08-06T17:36:38+03:00,,,-35.99807883137692,21.597839999999998,252.99524401796634,196.70214064636292,1.5999846429028237,6.24024,,-1.7990874767107847,19.801421399721253,16.39805209664416,24.819519,59.483013,16.950820151680453,48.494349365994196,204.50089465197215,4.135369036390995,0.002779045236762284,0.42685839474679144
2025-08-06T17:36:40+03:00,,288.15,-37.00075497285587,21.69504,260.9192503246256,216.8015000995522,2.199986045963822,6.201359999999999,6.43464,1.7990874767107847,38.80070188625935,16.501184499767707,24.819438,59.482999,17.153393500832777,49.56735233104743,211.35189799357815,4.021915143230669,0.0026115985405043176,0.42946999328729574
2025-08-06T17:36:42+03:00,,288.15,-33.99845612637036,22.00608,260.9994644159439,215.09981544801366,-1.4000223724021665,5.7348,6.4152,0.8995437383553924,33.1971746498799,22.597455439959663,24.819335,59.482994,17.547131570293402,44.52841374740052,216.4710506685434,4.088354811908827,0.0031581337112351502,0.43262812699853087
2025-08-06T17:36:46+03:00,,,-39.00037767786244,21.306240000000003,261.99641097947153,209.39888538646196,3.399988852085818,5.443199999999999,,0.29793805346802804,34.80145647624621,13.899956109873772,24.819119,59.482973,17.41630284349416,50.34361524363095,211.65279573584058,3.4737519509341954,0.002885331831715825,0.43551345883024667
2025-08-06T17:36:48+03:00,,288.15,-42.002676524347955,20.8008,259.99678827446496,220.60021028126957,-2.1000049107134933,5.42376,6.5124,1.7990874767107847,39.29917516802316,10.198648753328653,24.819008,59.482956,17.158568338968994,54.214159598730106,205.78262867573486,3.1715828065953504,0.0035387240233196154,0.4390521828535663
2025-08-06T17:36:50+03:00,,288.15,-35.99807883137692,19.59552,255.13810617175562,216.49783246813288,-2.499986747494321,6.08472,6.5124,1.3006141949469687,36.801079181252774,11.900333404867197,24.81889,59.482951,15.102319910977801,49.69627541894704,205.44183075280858,3.935836368161882,0.003614158205333374,0.4426663410588997
2025-08-06T17:36:52+03:00,,,-37.9977015363835,20.5092,265.8294986288967,222.6972358114484,2.6000251785241626,6.1624799999999995,,-1.598552248414997,45.20064045787065,9.098569786677473,24.818787,59.482939,16.10613946504242,51.621767517803306,214.2077311110934,3.825975699816111,0.003225488838924247,0.44589182989782394
2025-08-06T17:36:54+03:00,,,-35.99807883137692,18.701279999999997,257.9971655694584,225.09792897304655,-0.09998113525032865,5.28768,,1.0026761414789407,44.79957000127907,15.20057030482074,24.818697,59.482931,14.754389344370455,48.157988243234314,209.83917732622407,3.527299791991787,0.002788785203522016,0.44868061510134594
2025-08-06T17:36:56+03:00,,,-33.99845612637036,19.809359999999998,258.99984171093735,209.7025530178813,-3.0000070153049903,5.65704,,1.501149423242757,29.50159687128609,14.799499848229162,24.818605,59.482922,15.44673701361065,45.81533247130548,213.18450923963186,3.942805447293573,0.0028596949628126728,0.4515403100641586
2025-08-06T17:36:58+03:00,,288.15,-35.00113226784929,20.10096,256.9944894279795,214.49820976312628,0.9000021045914972,5.65704,6.1624799999999995,0.29793805346802804,34.698324073122656,16.99965778153153,24.818504,59.482908,15.80375096970639,46.84940249087589,210.1450869371036,3.8689532276835243,0.003195554493081237,0.45473586455723985
2025-08-06T17:37:00+03:00,,288.15,-33.00150956284272,19.303919999999998,263.9960336844781,207.59979790975117,-1.4000223724021665,5.38488,6.1624799999999995,-1.1000789666511805,26.401895199628335,21.89844692990006,24.818401,59.482904,15.075901914771235,44.21962934568708,219.77640433879102,3.8591912068022585,0.0031529898617499723,0.45788885441898985
2025-08-06T17:37:04+03:00,,,-33.99845612637036,19.49832,258.99984171093735,208.49934164810657,-2.9000258800546614,5.5598399999999994,,0.20053522829578813,22.700587843083216,27.100903709687937,24.818067,59.48291,15.210035833104481,45.792709117021786,213.20713259391556,3.8766336005537156,0.0029825590154809816,0.46087141343447086
2025-08-06T17:37:06+03:00,,,-35.99807883137692,19.303919999999998,261.99641097947153,186.19982426161496,-3.399988852085818,6.492959999999999,,-0.29793805346802804,4.297183463481174,31.999692858056477,24.818076,59.482885,14.559918104615667,51.19333647871329,210.80307450075824,4.069101959925228,0.0015275952012122444,0.4623990086356831
2025-08-06T17:37:10+03:00,,288.15,-42.002676524347955,21.40344,245.99942933941892,188.30257936974508,0.3999818367808277,6.35688,6.10416,0.0,8.10162322314984,25.3992190581494,24.81783,59.482836,17.213437816773737,56.30989524884983,189.6895340905691,3.526166019810692,0.0037062910827357965,0.4661052997184189
