time,dpt,mtw,awa,aws,cog,hdg,rot,sog,stw,pitch,yaw,roll,lng,lat,tws,twa,twd,vmg,dist,cum_dist
2026-06-03T18:22:15+03:00,27.48,287.04,-28.697289164865122,10.5948,104.99451595772337,91.30082465409667,-0.2000195662801704,3.9463199999999996,0.0,-0.29793805346802804,-88.8027286673263,7.9984908200262925,24.783957,59.475083,7.3806192158461705,43.574416761423805,61.42009919629956,2.859028778891135,0.0010952479031498315,0.0010952479031498315
2026-06-03T18:22:16+03:00,27.48,287.02,-29.69996530634406,10.90584,105.9971920992023,91.30082465409667,0.09998113525032865,3.9463199999999996,0.0,-0.29793805346802804,-88.6021934390305,7.700552766558264,24.78399,59.47508,7.729330460208207,44.352895552478884,61.64429654672341,2.821806845021512,0.0010234836821183262,0.0021187315852681577
2026-06-03T18:22:17+03:00,27.48,287.03,-29.69996530634406,10.692,105.24088780962961,91.19769225097312,-0.09998113525032865,3.86856,0.0,-0.29793805346802804,-88.90013149249853,7.700552766558264,24.783974,59.475042,7.578047525013285,44.35088082825209,60.890006981377525,2.766299834927898,0.002335741195745253,0.004454472781013411
2026-06-03T18:22:18+03:00,27.48,287.02,-29.69996530634406,10.90584,107.99681480420887,91.19769225097312,0.09998113525032865,3.92688,0.0,-0.20053522829578813,-88.8027286673263,7.700552766558264,24.784052,59.475073,7.743242912362726,44.25233666760866,63.74447813660021,2.8127200234025085,0.0030236787257604267,0.007478151506773838
2026-06-03T18:22:19+03:00,27.48,287.01,-29.69996530634406,10.692,105.9971920992023,91.19769225097312,0.5000202678106694,3.81024,0.0,-0.3609634109324186,-88.69959626420275,6.789549872300254,24.784083,59.475069,7.619859600832471,44.044329045587915,61.95286305361438,2.738808652159501,0.0009764771233804554,0.008454628630154294
2026-06-03T18:22:20+03:00,27.48,287.01,-30.702641447823,10.5948,107.83065704362093,91.39822747926891,0.5000202678106694,3.9463199999999996,0.0,-0.20053522829578813,-88.69959626420275,7.500017538262475,24.784115,59.475066,7.478204308641368,46.333546331012485,61.497110712608446,2.7247721601244668,0.0009934467228565277,0.009448075353010822
2026-06-03T18:22:21+03:00,27.48,287.01,-29.69996530634406,10.4976,105.9971920992023,91.39822747926891,0.09998113525032865,3.6935999999999996,0.0,-0.3380450991271857,-88.8027286673263,6.766631560495022,24.784104,59.475024,7.515433392024132,43.7932980710608,62.20389402814149,2.6661925959305997,0.0025467626836178097,0.011994838036628631
2026-06-03T18:22:22+03:00,27.6,287.0,-29.69996530634406,10.4976,109.1312712385679,91.30082465409667,0.2000195662801704,3.86856,0.0,-0.31512678732195276,-88.69959626420275,6.846845651813337,24.784178,59.47506,7.390132055662333,44.73209486263525,64.39917637593265,2.7482457133596867,0.0031283037937861755,0.015123141830414806
2026-06-03T18:22:23+03:00,27.63,287.0,-29.69996530634406,10.4004,105.9971920992023,91.19769225097312,0.300000701530499,3.7519199999999997,0.0,-0.34377467707849396,-88.69959626420275,6.801009028202872,24.784208,59.475057,7.3793390903045335,44.29045008076611,61.70674201843619,2.685658605658933,0.0009334680213168862,0.01605660985173169
2026-06-03T18:22:24+03:00,27.56,286.99,-29.69996530634406,10.4004,107.5384485681042,91.79929793586051,0.9999832398418258,3.7519199999999997,0.0,-0.29220847551671986,-87.80005252584735,6.508800552686152,24.784237,59.475055,7.3793390903045335,44.29045008076611,63.247998487338094,2.685658605658933,0.000893480247425012,0.016950090099156705
2026-06-03T18:22:25+03:00,27.48,286.99,-30.702641447823,10.4004,105.9971920992023,92.60143884904365,0.300000701530499,3.6935999999999996,0.0,-0.27501974166279514,-87.30157924408354,6.508800552686152,24.784266,59.475053,7.466625843602201,45.332618734515734,60.66457336468656,2.5965635967199496,0.0008934802991696545,0.017843570398326358
2026-06-03T18:22:26+03:00,27.48,287.0,-30.702641447823,10.4004,106.99986824068124,96.86424484481698,-0.2000195662801704,3.6935999999999996,0.0,-0.29220847551671986,-87.89745535101959,6.566096332199234,24.784295,59.47505,7.466625843602201,45.332618734515734,61.667249506165504,2.5965635967199496,0.0009035329817443351,0.01874710338007069
2026-06-03T18:22:27+03:00,27.48,286.98,-30.702641447823,10.4004,105.9971920992023,96.41160818666363,-0.2000195662801704,3.61584,0.0,-0.26929016371148695,-88.69959626420275,6.371290681854754,24.784281,59.475003,7.521493654495405,44.911339228504346,61.08585287069795,2.560738347280413,0.002857212187957067,0.02160431556802776
2026-06-03T18:22:28+03:00,27.41,286.99,-29.69996530634406,10.4004,107.49834152244506,96.29128704968616,0.0,3.6547199999999997,0.0,-0.31512678732195276,-88.90013149249853,6.543178020394001,24.784351,59.475045,7.4492249666447625,43.76838654290469,63.729954979540366,2.639226862793137,0.003307609747571525,0.024911925315599284
2026-06-03T18:22:29+03:00,27.33,286.99,-31.69958801135063,10.4004,103.99756939419571,96.2683687378809,0.09998113525032865,3.6547199999999997,0.0,-0.26929016371148695,-88.8027286673263,6.503070974734843,24.78434,59.474991,7.539589840254126,46.45615081359128,57.54141858060443,2.517771372630605,0.0032631433356252316,0.028175068651224516
2026-06-03T18:22:30+03:00,27.33,286.99,-30.702641447823,10.4004,102.99489325271679,96.15950675680607,0.09998113525032865,3.6547199999999997,0.0,-0.23491269600363757,-88.69959626420275,5.580608924574218,24.784411,59.475037,7.494009106418369,45.12120787782328,57.87368537489351,2.5788045387758536,0.0035133258514127947,0.03168839450263731
2026-06-03T18:22:31+03:00,27.48,286.99,-30.702641447823,9.992159999999998,103.99756939419571,96.1136701331956,0.2000195662801704,3.5964,0.0,-0.22345354010102106,-88.6021934390305,4.520637003582196,24.784441,59.475034,7.1400336377457245,45.60531794094797,58.39225145324774,2.5160307346117188,0.0009334686332091199,0.032621863135846425
2026-06-03T18:22:32+03:00,27.48,286.99,-28.697289164865122,9.79776,106.99986824068124,95.6266560073344,-0.2000195662801704,3.47976,0.0,-0.18334649444186346,-88.90013149249853,3.85600596123044,24.784473,59.475028,6.9492946505335125,42.61005238785745,64.38981585282379,2.561027917943704,0.0010413874244882175,0.033663250560334645
2026-06-03T18:22:33+03:00,27.48,286.98,-26.69766645985855,9.992159999999998,105.9971920992023,94.96775454293396,-0.3999818367808277,3.61584,0.0,-0.22918311805232927,-89.30120194909011,3.953408786402681,24.784503,59.475023,6.954216632836954,40.207024443752175,65.79016765545012,2.7614780795163,0.0009639352606665054,0.034627185821001154
2026-06-03T18:22:34+03:00,27.48,286.97,-26.69766645985855,9.79776,103.99756939419571,95.15110103737581,0.300000701530499,3.46032,0.0,-0.21772396214971285,-89.19806954596656,4.199780638308934,24.784533,59.475018,6.884188163653597,39.74940252095669,64.24816687323901,2.6604618418195023,0.0009639353896083698,0.035591121210609526
2026-06-03T18:22:35+03:00,27.48,286.98,-26.69766645985855,10.1088,103.52201442423714,95.03650947834966,-0.2000195662801704,3.46032,0.0,-0.22345354010102106,-89.30120194909011,4.692524342121443,24.784563,59.475013,7.187536166688235,39.18945298561593,64.33256143862121,2.68195845530699,0.0009639355182579079,0.036555056728867434
2026-06-03T18:22:36+03:00,27.37,286.97,-26.69766645985855,9.89496,104.99451595772337,94.40625590370574,-0.300000701530499,3.36312,0.0,-0.22345354010102106,-89.90280763397747,4.89305957041723,24.784593,59.47501,7.054110610314647,39.06627082425504,65.92824513346832,2.6111853640896547,0.0009334692716058114,0.03748852600047325
2026-06-03T18:22:37+03:00,27.33,286.97,-27.700342601337486,9.70056,106.99986824068124,94.77867847054077,0.5000202678106694,3.36312,0.0,-0.20626480624709637,-89.50173717738589,4.761279277537141,24.784621,59.475005,6.902260325071044,40.79123238333705,66.20863585734419,2.546201456389459,0.0009061201968887399,0.038394646197361985
2026-06-03T18:22:38+03:00,27.33,286.96,-27.700342601337486,9.992159999999998,104.99451595772337,90.29814851261774,-0.09998113525032865,3.36312,0.0,-0.6016056848873644,-89.90280763397747,5.901465289847479,24.784648,59.475002,7.186585719280634,40.26466369074433,64.72985226697904,2.5662861664387,0.000843791442672772,0.039238437640034755
2026-06-03T18:22:39+03:00,27.33,286.95,-27.700342601337486,10.1088,105.9971920992023,89.90280763397747,0.09998113525032865,3.38256,0.0,0.09740282517223994,-90.2007456874455,5.998868115019719,24.784678,59.474998,7.2856097084455,40.16393144831059,65.8332606508917,2.584959802262132,0.0009469192232861288,0.040185356863320885
2026-06-03T18:22:40+03:00,27.33,286.95,-28.697289164865122,9.89496,102.1010790923127,90.09761328432195,0.3999818367808277,3.2464799999999996,0.0,-0.40107045659157625,-89.70227240568168,6.102000518143266,24.784708,59.474995,7.217609592388566,41.17065814305275,60.930420949259954,2.4437947447491553,0.0009334696705084009,0.041118826533829284
2026-06-03T18:22:41+03:00,27.41,286.94,-28.697289164865122,9.70056,102.99489325271679,90.4012809157413,0.6999825383113268,3.28536,0.0,-0.09740282517223994,-89.30120194909011,6.302535746439056,24.784739,59.474992,6.998857412701485,41.723927360267226,61.27096589244957,2.452062306511903,0.0009634423277490801,0.04208226886157836
2026-06-03T18:22:42+03:00,27.33,286.95,-28.697289164865122,9.992159999999998,103.99756939419571,90.8997541975051,0.600001403060998,3.3242399999999996,0.0,-0.29793805346802804,-88.99753431767077,6.399938571611295,24.784739,59.474934,7.254044174035152,41.40915996736271,62.588409426832996,2.493197735038452,0.003486247551861152,0.045568516413439515
2026-06-03T18:22:43+03:00,27.33,286.94,-29.69996530634406,10.1088,106.99986824068124,91.59876270756472,1.4000223724021665,3.26592,0.0,-0.29793805346802804,-87.80005252584735,6.399938571611295,24.784765,59.47493,7.449773489914772,42.24487635973594,64.7549918809453,2.417689543939086,0.0008293843212121276,0.046397900734651644
2026-06-03T18:22:44+03:00,27.33,286.94,-29.69996530634406,9.89496,108.99949094568781,92.60143884904365,0.789936912146866,3.2464799999999996,0.0,-0.29793805346802804,-87.10104401578775,7.098947081670899,24.784791,59.474927,7.255506478051138,42.50845543385543,66.49103551183238,2.3932324272065246,0.0008139950367935655,0.04721189577144521
2026-06-03T18:22:45+03:00,27.33,286.94,-29.69996530634406,10.1088,109.99643750921543,93.3978501842755,1.200002806121996,3.26592,0.0,-0.29793805346802804,-86.29890310260458,7.597420363434716,24.784855,59.474971,7.449773489914772,42.24487635973594,67.75156114947949,2.417689543939086,0.003288214368464613,0.05050011013990982
2026-06-03T18:22:46+03:00,27.33,286.94,-30.702641447823,9.89496,108.99949094568781,93.90205304399062,-0.08204755626273388,3.28536,0.0,-0.09740282517223994,-86.0983678743088,7.500017538262475,24.784846,59.474918,7.266383488780529,44.049784783542776,64.94970616214503,2.361306289364091,0.0031975362854653275,0.053697646425375146
2026-06-03T18:22:47+03:00,27.33,286.93,-30.702641447823,10.1088,109.99643750921543,93.3978501842755,-0.31736132272296297,3.26592,0.0,-0.29793805346802804,-86.7973763843684,7.797955591730505,24.784914,59.474961,7.488683745351348,43.56867506968416,66.42776243953126,2.3663183652074307,0.003315140544102343,0.05701278696947749
2026-06-03T18:22:48+03:00,27.33,286.93,-30.702641447823,10.206,109.99643750921543,93.1973149559797,0.13051978573080153,3.3242399999999996,0.0,-0.09740282517223994,-86.69997355919618,7.597420363434716,24.784905,59.47491,7.541210515146626,43.709625857747255,66.28681165146817,2.4029304258148856,0.0030777828584977597,0.06009056982797525
2026-06-03T18:22:49+03:00,27.33,286.92,-31.69958801135063,9.992159999999998,108.99949094568781,93.09991213080748,-0.6454942519943855,3.36312,0.0,-0.20053522829578813,-87.10104401578775,7.098947081670899,24.784976,59.474947,7.346485753324777,45.61864427933648,63.38084666635133,2.3522697496387655,0.003105578521884582,0.06319614834985983
2026-06-03T18:22:50+03:00,27.33,286.93,-31.69958801135063,10.1088,109.99643750921543,92.40090362074787,-0.7051964542470173,3.26592,0.0,-0.09740282517223994,-87.89745535101959,6.89841185337511,24.785006,59.474941,7.528317211829221,44.876376661449,65.12006084776642,2.314331541245527,0.0009843360946948801,0.06418048444455471
2026-06-03T18:22:51+03:00,27.33,286.92,-31.69958801135063,9.89496,106.6217160958949,91.79929793586051,-0.2000195662801704,3.2076,0.0,-0.29793805346802804,-88.20112298243895,6.697876625079324,24.785035,59.474935,7.36143860316696,44.93550441086222,61.686211685032674,2.2706674018187853,0.0009559949950756493,0.06513647943963036
2026-06-03T18:22:52+03:00,27.33,286.92,-31.69958801135063,9.992159999999998,103.99756939419571,91.50135988239246,-0.5000202678106694,3.26592,0.0,-0.20053522829578813,-88.8027286673263,6.302535746439056,24.785022,59.474891,7.414795860587875,45.08183498597225,58.91573440822346,2.3060533970181036,0.002674353221509355,0.06781083266113971
2026-06-03T18:22:53+03:00,27.33,286.91,-30.702641447823,10.206,105.9971920992023,91.30082465409667,0.09998113525032865,3.28536,0.0,-0.09740282517223994,-88.6021934390305,6.302535746439056,24.78505,59.474887,7.569362643393861,43.50626331539908,62.49092878380321,2.3828687131720807,0.0008879991551023551,0.06869883181624208
2026-06-03T18:22:54+03:00,27.33,286.9,-29.69996530634406,10.303199999999999,105.9971920992023,91.19769225097312,0.0,3.3047999999999997,0.0,-0.09740282517223994,-88.90013149249853,6.89841185337511,24.785077,59.474883,7.610767374697532,42.123780051058844,63.87341204814345,2.45116197430239,0.0008586497123339926,0.06955748152857606
2026-06-03T18:22:55+03:00,27.26,286.89,-28.697289164865122,10.303199999999999,106.99986824068124,90.49868374091353,-0.8000209693411684,3.3047999999999997,0.0,-0.40107045659157625,-89.90280763397747,7.500017538262475,24.785109,59.474877,7.572476831557132,40.79399076854065,66.20587747214059,2.5019437284787784,0.0010413915208758427,0.07059887304945191
2026-06-03T18:22:57+03:00,27.18,286.89,-28.697289164865122,10.4004,105.91124842993268,90.09761328432195,0.09998113525032865,3.402,0.0,-0.20053522829578813,-89.90280763397747,7.500017538262475,24.785135,59.474872,7.59405446305469,41.11944071640346,64.79180771352922,2.5628636956405004,0.0008487620018194511,0.07144763505127136
2026-06-03T18:22:58+03:00,27.18,286.9,-29.69996530634406,10.4004,103.99756939419571,90.0002104591497,0.09998113525032865,3.2464799999999996,0.0,-0.246371851906254,-90.09761328432195,6.428586461367836,24.785214,59.474908,7.749179546508755,41.67993424316734,62.31763515102837,2.4247021184649684,0.003240271108883756,0.07468790616015511
2026-06-03T18:22:59+03:00,27.18,286.89,-29.69996530634406,10.4004,105.9971920992023,89.50173717738589,-0.600001403060998,3.3047999999999997,0.0,-0.29793805346802804,-90.69921896920931,7.098947081670899,24.785243,59.474905,7.705719611589651,41.96829095728788,64.02890114191442,2.4571684603347865,0.0009035367052860235,0.07559144286544113
2026-06-03T18:23:00+03:00,27.18,286.89,-30.702641447823,10.4004,106.61025693999227,89.10066672079432,-0.600001403060998,3.28536,0.0,-0.246371851906254,-91.1002894258009,6.262428700779898,24.785224,59.474858,7.759048556456302,43.18813503169659,63.42212190829568,2.3953900441841314,0.002883999499953792,0.07847544236539492
2026-06-03T18:23:01+03:00,27.18,286.88,-30.702641447823,9.992159999999998,103.99756939419571,89.10066672079432,0.300000701530499,3.2076,0.0,-0.24064227395494575,-90.80235137233286,5.970220225263178,24.785256,59.474854,7.417241504420145,43.45880672979277,60.53876266440294,2.328297666330826,0.0010061008422240234,0.07948154320761894
2026-06-03T18:23:02+03:00,27.18,286.88,-31.69958801135063,10.1088,105.41850472612018,93.42649807403203,-0.2000195662801704,3.12984,0.0,-0.21772396214971285,-91.1002894258009,5.838439932383089,24.785282,59.47485,7.625352208672764,44.15491305175374,61.26359167436644,2.2455318633767165,0.0008293861200656967,0.08031092932768463
2026-06-03T18:23:03+03:00,27.18,286.88,-32.70226415282958,10.303199999999999,107.29780629414927,92.95667268202477,-0.2000195662801704,3.18816,0.0,-0.2119943841984046,-91.39822747926891,5.47747652145067,24.785312,59.474847,7.812642557084162,45.43909417089944,61.85871212324983,2.2370268493816154,0.0009334736075273416,0.08124440293521197
2026-06-03T18:23:04+03:00,27.18,286.88,-31.69958801135063,9.89496,100.9952705477102,88.69959626420275,0.0,3.09096,0.0,-0.20053522829578813,-91.39822747926891,5.225375091593108,24.785342,59.474843,7.444464191654734,44.301428657558006,56.6938418901522,2.21212378293739,0.0009469232874057678,0.08219132622261774
2026-06-03T18:23:05+03:00,27.18,286.88,-32.70226415282958,10.1088,104.99451595772337,88.40165821073471,-0.2000195662801704,3.12984,0.0,-0.18334649444186346,-91.79929793586051,4.961814505832929,24.785373,59.47484,7.663947487440274,45.4488631326781,59.545652825045266,2.195725373856836,0.0009634465105582356,0.08315477273317598
2026-06-03T18:23:06+03:00,27.18,286.88,-31.69958801135063,9.89496,103.99756939419571,88.00058775414314,0.09998113525032865,3.1104000000000003,0.0,-0.16615776058793874,-92.09723598932852,4.789927167293682,24.785401,59.474837,7.430563868289141,44.40612275460347,59.591446639592235,2.222063252951971,0.0008736441616204458,0.08402841689479643
2026-06-03T18:23:07+03:00,27.18,286.88,-30.702641447823,9.70056,102.99489325271679,87.80005252584735,-0.2000195662801704,3.0326400000000002,0.0,-0.17188733853924698,-92.40090362074787,4.749820121634524,24.785431,59.474835,7.260052314966131,43.01719187953191,59.977701373184885,2.2173117996399103,0.0009237472103894577,0.08495216410518588
2026-06-03T18:23:08+03:00,27.18,286.88,-29.69996530634406,9.992159999999998,104.99451595772337,87.70264970067511,0.300000701530499,3.12984,0.0,-0.1546986046853223,-92.09723598932852,4.789927167293682,24.785458,59.474832,7.436949428967195,41.73522188781138,63.25929406991199,2.335577682945793,0.0008437954946571138,0.085795959599843
2026-06-03T18:23:09+03:00,27.18,286.88,-29.69996530634406,9.79776,105.06900047109036,88.29852580761116,0.3999818367808277,2.97432,0.0,-0.1604281826366305,-91.50135988239246,4.927437038125079,24.785485,59.474829,7.363145454424764,41.24504083662251,63.823959634467855,2.236381908793682,0.0008437955662591969,0.0866397551661022
2026-06-03T18:23:10+03:00,27.18,286.87,-29.69996530634406,9.992159999999998,102.99489325271679,88.40165821073471,0.2000195662801704,2.99376,0.0,-0.1432394487827058,-91.50135988239246,4.663876452364901,24.785513,59.474826,7.539040538266936,41.046755365733674,61.94813788698312,2.25781583993138,0.0008736444340560962,0.08751339960015829
2026-06-03T18:23:11+03:00,27.18,286.87,-28.697289164865122,9.89496,102.99489325271679,88.00058775414314,-0.09998113525032865,3.07152,0.0,-0.12032113697747288,-92.20036839245208,4.824304635001531,24.785539,59.474824,7.350213564217367,40.272804088451835,62.72208916426496,2.3434937332506753,0.0008028244470609301,0.08831622404721921
2026-06-03T18:23:12+03:00,27.18,286.87,-27.700342601337486,9.70056,96.99602513769707,87.39898206925578,-0.300000701530499,2.6827199999999998,0.0,-0.14896902673401402,-92.80197407733944,5.271211715203573,24.785565,59.474822,7.430695084948974,37.36171760076749,59.63430753692958,2.1322802178965166,0.0008028244934080611,0.08911904854062727
2026-06-03T18:23:12+03:00,27.18,286.87,-27.700342601337486,9.60336,99.99832398418258,86.69997355919618,-0.8000209693411684,2.5855200000000003,0.0,-0.17188733853924698,-93.70151781569484,5.700930061551691,24.785589,59.47482,7.412253054472406,37.03186080901011,62.966463175172464,2.064022507785416,0.0007425098035424354,0.0898615583441697
2026-06-03T18:23:14+03:00,27.18,286.86,-27.700342601337486,9.89496,102.43912419143989,86.40203550572814,0.2000195662801704,2.99376,0.0,-0.1546986046853223,-93.50098258739904,5.397262430132355,24.785611,59.474818,7.376769375087471,38.574462203769485,63.8646619876704,2.340516986161177,0.000682327591967541,0.09054388593613724
2026-06-03T18:23:15+03:00,27.18,286.86,-27.700342601337486,9.70056,102.70841435515138,86.90050878749194,0.5000202678106694,2.916,0.0,-0.16615776058793874,-92.89937690251168,5.219645513641799,24.785666,59.474861,7.246662291823436,38.481071608499406,64.22734274665197,2.2826849527121835,0.003082176682717518,0.09362606261885476
2026-06-03T18:23:16+03:00,27.18,286.84,-28.697289164865122,9.992159999999998,101.99794668918915,86.9979116126642,0.0,3.12984,0.0,-0.14896902673401402,-92.89937690251168,5.219645513641799,24.785694,59.474857,7.400962273034067,40.41366834375643,61.58427834543272,2.3830090717829018,0.0008879998859353472,0.09451406250479011
2026-06-03T18:23:17+03:00,27.18,286.85,-28.697289164865122,9.70056,99.99832398418258,86.90050878749194,-0.09998113525032865,2.95488,0.0,-0.13178029288008933,-93.1973149559797,5.179538467982642,24.785688,59.474809,7.248852228481577,39.98516286326955,60.013161120913026,2.2640611806010886,0.0028909794980501837,0.0974050420028403
2026-06-03T18:23:18+03:00,27.18,286.85,-27.700342601337486,9.60336,100.9952705477102,86.9979116126642,0.0,2.8771199999999997,0.0,-0.1546986046853223,-93.00250930563523,5.179538467982642,24.785745,59.474848,7.181616166272294,38.433107428670695,62.56216311903951,2.2537470874288643,0.0029195125848537067,0.100324554587694
2026-06-03T18:23:19+03:00,27.18,286.85,-28.697289164865122,9.89496,95.60946727348046,86.29890310260458,-0.8000209693411684,2.8771199999999997,0.0,-0.16615776058793874,-93.99945586916286,5.4087215860349716,24.785771,59.474845,7.499588872636065,39.31269248104772,56.29677479243274,2.226027400679193,0.0008139969157640539,0.10113855150345806
2026-06-03T18:23:20+03:00,27.18,286.85,-29.69996530634406,9.70056,99.99832398418258,85.50249176737275,-0.8000209693411684,2.76048,0.0,-0.13178029288008933,-95.00213201064179,4.692524342121443,24.78577,59.474799,7.429691648388185,40.307814783976966,59.69050920020561,2.1050871269911227,0.0027651234996318628,0.10390367500308992
2026-06-03T18:23:21+03:00,27.18,286.85,-30.702641447823,9.89496,95.99907857416943,84.49981562589382,0.1170552775452272,2.6632800000000003,0.0,-0.08021409131831525,-95.7011405207014,3.2601298542943837,24.785825,59.474841,7.725611700218193,40.840377505264115,55.158701068905316,2.0148629072162967,0.003031949317427926,0.10693562432051784
2026-06-03T18:23:22+03:00,27.18,286.84,-27.700342601337486,10.1088,98.99564784270365,88.07507226751014,-1.0730926545005188,2.76048,0.0,-0.05729577951308232,-96.19961380246522,2.8017636181897254,24.785819,59.474793,7.77136898091777,37.20449838845704,61.79114945424661,2.1986738665954686,0.0028909795035470596,0.1098266038240649
2026-06-03T18:23:23+03:00,27.18,286.85,-25.700719896330916,9.89496,96.3199349394427,83.3023338340704,-0.5000202678106694,2.7993599999999996,0.0,-0.08021409131831525,-96.89862231252482,3.1741861850247606,24.785878,59.47484,7.471819473261787,35.05142543056181,61.268509508880896,2.291659405954312,0.0033504471224227186,0.11317705094648761
2026-06-03T18:23:24+03:00,27.18,286.84,-24.698043754851973,9.79776,97.99870127917599,86.83175385207626,-0.15996981640052585,2.6827199999999998,0.0,-0.08594366926962349,-97.00175471564837,3.9190313186948313,24.785905,59.474838,7.4453142763316595,33.35719583488566,64.64150544429033,2.2407657022566805,0.0008330221653704679,0.11401007311185808
2026-06-03T18:23:25+03:00,27.18,286.84,-24.698043754851973,9.70056,96.99602513769707,86.96926372290766,0.04778468011391066,2.64384,0.0,-0.08594366926962349,-96.80121948735258,4.297183463481174,24.785934,59.474838,7.381700159352002,33.304846784152005,63.69117835354507,2.2096181381801254,0.000885361687902364,0.11489543479976044
2026-06-03T18:23:26+03:00,27.18,286.84,-25.700719896330916,9.60336,99.00137742065495,83.3023338340704,0.525516889693991,2.50776,0.0,-0.20053522829578813,-96.6006842590568,5.202456779787875,24.785961,59.474837,7.423780073519011,34.12453896902787,64.87683845162708,2.07597424672976,0.0008264908803379458,0.11572192568009838
2026-06-03T18:23:27+03:00,27.18,286.84,-25.700719896330916,9.50616,96.72100539603427,83.49713948441487,0.5499248917665641,2.5855200000000003,0.0,-0.49847328176381617,-96.40014903076101,5.2998596049601145,24.785987,59.474837,7.2634878925753155,34.580971132401544,62.14003426363273,2.1287230299662223,0.0007937725711999485,0.11651569825129833
2026-06-03T18:23:28+03:00,27.18,286.82,-25.700719896330916,9.50616,91.99983316415629,87.85734830536043,0.43447389604770326,2.7993599999999996,0.0,-0.29793805346802804,-96.19961380246522,5.397262430132355,24.785968,59.474783,7.0884672156634885,35.56204149207721,56.43779167207907,2.2772408396786283,0.0032972414847622527,0.11981293973606058
2026-06-03T18:23:29+03:00,27.18,286.83,-26.69766645985855,9.408959999999999,94.99640243269049,83.89820994100646,0.028819777095080407,2.8771199999999997,0.0,-0.09740282517223994,-95.90167574899719,5.202456779787875,24.786039,59.474831,6.959667151090117,37.40153845794339,57.5948639747471,2.2855792699981388,0.003608704530178614,0.1234216442662392
2026-06-03T18:23:30+03:00,27.18,286.83,-26.69766645985855,9.408959999999999,96.23972084812438,84.20187757242579,-0.12209730614237845,2.5855200000000003,0.0,0.0,-95.7011405207014,5.202456779787875,24.786064,59.474827,7.193494502009408,35.99066880875958,60.2490520393648,2.091977094884352,0.0008002168057816755,0.12422186107202086
2026-06-03T18:23:31+03:00,27.18,286.83,-26.69766645985855,9.408959999999999,89.9944808811984,84.09874516930223,0.18919066395219783,2.37168,0.0,-0.09740282517223994,-95.90167574899719,5.202456779787875,24.786039,59.474781,7.367586922287096,35.01336703360096,54.98111384759744,1.942449101968586,0.002868364812310914,0.12709022588433178
2026-06-03T18:23:32+03:00,27.18,286.82,-26.69766645985855,9.408959999999999,95.99907857416943,83.89820994100646,-0.20494700331829546,2.1384000000000003,0.0,-0.40107045659157625,-96.19961380246522,5.500394833255903,24.786112,59.474822,7.559832490964151,33.998879709344806,62.000198864824625,1.7728373255757262,0.0033226983977784497,0.13041292428211024
2026-06-03T18:23:33+03:00,27.18,286.82,-26.69766645985855,9.408959999999999,96.58922510315419,83.89820994100646,-0.2437935418281653,2.4299999999999997,0.0,0.0,-96.30274620558878,5.397262430132355,24.786079,59.474781,7.319898265069024,35.27528939718778,61.313935705966415,1.9838197621702602,0.002662398785340309,0.13307532306745054
2026-06-03T18:23:34+03:00,27.18,286.82,-25.700719896330916,9.408959999999999,98.99564784270365,83.39973665924262,-0.1205503200955252,2.7993599999999996,0.0,-0.6990085100596044,-96.89862231252482,5.397262430132355,24.786157,59.474816,6.992723144395652,35.698439861291604,63.29720798141204,2.2733586216204453,0.00317750460325333,0.13625282767070387
2026-06-03T18:23:35+03:00,27.18,286.82,-26.69766645985855,9.408959999999999,99.99832398418258,82.79813097435526,-0.5753642178703727,2.50776,0.0,-0.09167324722093173,-97.40282517223994,4.5263665815335035,24.786181,59.474812,7.25655498588001,35.62986377956989,64.36846020461269,2.038300395880794,0.0007711525670826329,0.1370239802377865
2026-06-03T18:23:36+03:00,27.18,286.82,-26.69766645985855,9.50616,98.99564784270365,82.79813097435526,0.09998113525032865,2.44944,0.0,-0.09167324722093173,-97.09915754082061,4.194051060357626,24.786206,59.474807,7.400141219249804,35.24996676541954,63.745681077284104,2.000315310885464,0.0008202829063052723,0.13784426314409176
2026-06-03T18:23:37+03:00,27.18,286.81,-26.69766645985855,9.195120000000001,95.99907857416943,83.19920143094684,0.535199876431702,2.37168,0.0,-0.07448451336700701,-96.49755185593325,4.262805995773324,24.786173,59.474773,7.156062025268892,35.26098905749126,60.73808951667817,1.9365498778962205,0.002278502964835929,0.14012276610892768
2026-06-03T18:23:38+03:00,27.18,286.81,-26.69766645985855,9.29232,93.99945586916286,84.00134234412998,1.1000216708716675,2.2550399999999997,0.0,-0.06875493541569878,-95.59800811757786,4.004974987964455,24.786256,59.4748,7.347874029330892,34.623055868301606,59.37640000086125,1.855690007819031,0.003009125424753384,0.14313189153368105
2026-06-03T18:23:39+03:00,27.18,286.81,-25.700719896330916,9.29232,97.99870127917599,84.99828890765764,0.9999832398418258,2.3327999999999998,0.0,-0.09167324722093173,-94.69846437922247,4.337290509140332,24.786279,59.474798,7.261121554473251,33.709592867020575,64.28910841215541,1.940565841113257,0.0007124004677961334,0.1438442920014772
2026-06-03T18:23:40+03:00,27.18,286.8,-26.69766645985855,9.00072,96.99602513769707,85.30195653907695,0.6999825383113268,2.3522399999999997,0.0,-0.06302535746439056,-94.49792915092668,4.274265151675942,24.786298,59.474794,6.97972507861075,35.40648250048605,61.589542637211025,1.9172220271130762,0.0006279193616890433,0.14447221136316624
2026-06-03T18:23:41+03:00,27.18,286.8,-27.700342601337486,9.097919999999998,97.99870127917599,85.3993593642492,0.2000195662801704,2.29392,0.0,-0.07448451336700701,-94.80159678234602,4.469070802020421,24.786316,59.47479,7.146899978711909,36.28095246469459,61.717748814481396,1.8491863698260065,0.000599830280058598,0.14507204164322485
2026-06-03T18:23:42+03:00,27.18,286.81,-27.700342601337486,9.29232,104.99451595772337,85.19882413595342,0.300000701530499,2.48832,0.0,-0.09167324722093173,-94.80159678234602,4.63522856260836,24.786337,59.474788,7.182928554003623,36.96720613631555,68.02730982140781,1.9881175020291748,0.0006522981692740805,0.14572433981249894
2026-06-03T18:23:43+03:00,27.18,286.81,-28.697289164865122,9.408959999999999,102.99489325271679,85.19882413595342,-0.09998113525032865,2.48832,0.0,-0.08021409131831525,-94.80159678234602,4.961814505832929,24.786356,59.474785,7.3243993514989425,38.08604509511707,64.90884815759972,1.9585200520975437,0.0006074474059683206,0.14633178721846726
2026-06-03T18:23:44+03:00,27.18,286.81,-30.702641447823,9.097919999999998,101.99794668918915,85.69729741771722,0.5000202678106694,2.60496,0.0,-0.02864788975654116,-93.99945586916286,4.2169693721628585,24.786377,59.474782,6.985883511842544,41.67822639626368,60.31972029292547,1.9456209968062208,0.0006660012936933686,0.14699778851216064
2026-06-03T18:23:45+03:00,27.18,286.81,-30.702641447823,9.195120000000001,101.99794668918915,85.89783264601301,0.09998113525032865,2.39112,0.0,-0.022918311805232933,-93.99945586916286,3.460665082590172,24.786399,59.47478,7.242803672270711,40.4068842886326,61.59106240055655,1.8207432589894534,0.00068232833539722,0.14768011684755786
2026-06-03T18:23:46+03:00,27.18,286.81,-29.69996530634406,9.195120000000001,99.51130985832137,85.89783264601301,0.2000195662801704,2.29392,0.0,0.022918311805232933,-94.29739392263087,2.773115728433184,24.786421,59.474777,7.291668222937354,38.66713480643159,60.84417505188978,1.791067323417222,0.0006954399415871618,0.14837555678914502
2026-06-03T18:23:47+03:00,27.18,286.81,-28.697289164865122,9.408959999999999,98.99564784270365,86.20150027743236,1.5000035076524951,2.31336,0.0,0.0,-93.50098258739904,2.2058875112536693,24.786368,59.474751,7.462888187299884,37.25744479601647,61.738203046687175,1.8412572321951841,0.0022495607029360777,0.1506251174920811
2026-06-03T18:23:48+03:00,27.18,286.81,-29.69996530634406,9.097919999999998,98.99564784270365,87.80005252584735,2.3000244769936637,2.21616,0.0,-0.017188733853924696,-91.50135988239246,2.0511889065683473,24.786386,59.474751,7.256447387942303,38.40314710533974,60.592500737363906,1.7367144788169249,0.0005495362559656899,0.15117465374804678
2026-06-03T18:23:49+03:00,27.18,286.81,-31.69958801135063,9.195120000000001,101.99794668918915,95.85010954743542,3.0000070153049903,2.08008,0.0,0.005729577951308233,-88.6021934390305,1.575633936609764,24.786492,59.474767,7.505371258051919,40.0733749518632,61.92457173732595,1.591720147166296,0.0033760369290044673,0.15455069067705124
2026-06-03T18:23:50+03:00,27.18,286.8,-32.70226415282958,9.29232,106.99986824068124,94.10258827228641,3.9999902551468165,2.2356,0.0,0.017188733853924696,-84.29928039759803,1.1172677005051053,24.786428,59.474747,7.508865817570064,41.958767839304016,65.04110040137722,1.6624506525146001,0.002294106583316084,0.15684479726036732
2026-06-03T18:23:51+03:00,27.18,286.8,-34.70188685783615,9.408959999999999,102.99489325271679,97.09915754082061,2.6000251785241626,2.46888,0.0,0.05156620156177409,-81.89858723599987,0.7276563998161455,24.786532,59.474755,7.511898864852964,45.486048400754015,57.50884485196278,1.730889601901591,0.0032113046645079507,0.16005610192487527
2026-06-03T18:23:52+03:00,27.03,286.8,-34.70188685783615,9.097919999999998,104.99451595772337,104.49031309800824,1.899985344433323,2.1967199999999996,0.0,0.5213915935690492,-80.09949975928909,3.0825129378038287,24.786472,59.474742,7.398406640078807,44.43374121251176,60.5607747452116,1.568591041637484,0.001991490011051686,0.16204759193592694
2026-06-03T18:23:53+03:00,27.03,286.8,-35.69883342136378,8.90352,100.9952705477102,105.71071320163689,1.4000223724021665,2.41056,0.0,0.40107045659157625,-79.6984293026975,2.939273489021123,24.786567,59.474746,7.086912062927734,47.14701128149537,53.84825926621484,1.639469072199092,0.002910279365642015,0.16495787130156894
2026-06-03T18:23:54+03:00,27.03,286.79,-37.69845612637036,9.097919999999998,111.99606021422201,106.9712203509247,1.200002806121996,2.0606400000000002,0.0,0.41252961249419273,-79.40049124922947,3.523690440054563,24.786585,59.474742,7.573029869776122,47.27657622748549,64.71948398673652,1.398061943000405,0.0005998309952832677,0.1655577022968522
2026-06-03T18:23:55+03:00,27.03,286.79,-39.698078831376925,8.90352,122.99684988073382,108.31194159153083,1.5999846429028237,2.48832,0.0,0.641712730546522,-78.00247422911028,3.747143980155584,24.786606,59.474737,7.167402505255545,52.510107399434446,70.48674248129937,1.514444966620618,0.0007080718856939857,0.1662657741825462
2026-06-03T18:23:56+03:00,27.18,286.79,-41.697701536383505,8.80632,118.99760447072069,109.79017270296835,1.4000223724021665,2.2356,0.0,0.5729577951308232,-75.69918389268436,3.420558036931015,24.786624,59.474732,7.290362544730931,53.467769158209535,65.52983531251115,1.33079654336316,0.0006263496074105061,0.16689212378995671
2026-06-03T18:23:57+03:00,27.11,286.79,-42.70037767786244,8.70912,121.9999033172062,105.40131599226623,1.5000035076524951,2.08008,0.0,0.7563042895726866,-73.99749924114583,3.3976397251257815,24.786642,59.474727,7.317699827893821,53.81488773578438,68.18501558142182,1.2280708432676872,0.0006263496787676368,0.16751847346872434
2026-06-03T18:23:58+03:00,27.03,286.8,-44.70000038286902,8.59248,127.99877143222591,106.30085973062164,1.2999839413723246,2.00232,0.0,0.5328507494716656,-73.49902595938201,3.3059664779048505,24.786588,59.47472,7.3062670428241505,55.81442054386079,72.18435088836512,1.1250539414028178,0.001701455034813357,0.1692199285035377
2026-06-03T18:23:59+03:00,27.03,286.8,-44.70000038286902,8.59248,125.51213460135814,106.70193018721321,1.4000223724021665,1.80792,0.0,0.5385803274229739,-73.20108790591398,3.237211542489151,24.7866,59.474714,7.417239054777249,54.57210267723485,70.94003192412329,1.0480114307677528,0.000514085443719378,0.16973401394725707
2026-06-03T18:24:00+03:00,27.03,286.79,-46.69962308787559,8.59248,126.99609529074696,107.29780629414927,1.5000035076524951,1.90512,0.0,0.6073352628386726,-72.39894699273083,3.20856365273261,24.78669,59.47471,7.416653497312457,57.47401360121857,69.52208168952839,1.024348868550275,0.0027581836136406144,0.17249219756089768
2026-06-03T18:24:01+03:00,27.18,286.79,-46.69962308787559,8.59248,122.99684988073382,108.19735003250467,1.5000035076524951,2.11896,0.0,0.5156620156177408,-71.4020004292032,4.428963756361264,24.786624,59.474704,7.303901262259056,58.888518463352895,64.10833141738092,1.0948770284323233,0.0020469893513418856,0.17453918691223957
2026-06-03T18:24:02+03:00,27.18,286.78,-47.70229922935453,8.59248,126.99609529074696,109.49796422745162,1.2999839413723246,2.7799199999999997,0.0,0.544309905374282,-69.79771860283688,3.6382819990807276,24.786639,59.474697,7.029109764810597,64.71148408491624,62.28461120583073,1.1875168987842781,0.0006218922036964146,0.17516107911593598
2026-06-03T18:24:03+03:00,27.18,286.78,-48.69924579288217,8.70912,123.99952602221278,111.19964887899017,1.5000035076524951,3.07152,0.0,0.5328507494716656,-68.10176352924965,4.291453885529866,24.786747,59.474689,7.069093018806717,67.75089712838512,56.24862889382766,1.1629822886553058,0.003332102760964127,0.1784931818769001
2026-06-03T18:24:04+03:00,27.11,286.78,-48.69924579288217,8.30088,131.99801684223905,112.70079830223293,1.4000223724021665,2.95488,0.0,0.3781521447863433,-66.80114933430268,4.807115901147607,24.786761,59.474682,6.727425954484347,67.9663894188196,64.03162742341945,1.108524500146178,0.000599766634605791,0.1790929485115059
2026-06-03T18:24:05+03:00,27.03,286.78,-50.698868497888746,8.30088,138.35211879023987,113.60034204058832,1.4000223724021665,2.21616,0.0,0.37242256683503505,-66.19954364941532,4.136755280844544,24.786706,59.474673,7.107176901486037,64.66185131661057,73.6902674736293,0.948427224103886,0.0017641333606498249,0.1808570818721557
2026-06-03T18:24:06+03:00,26.88,286.78,-50.698868497888746,8.39808,133.99763954724563,114.59728860411596,2.6000251785241626,2.7021599999999997,0.0,0.5042028597151245,-64.8015266292961,3.6497411549833445,24.786792,59.47467,7.005865714020719,68.06430399323729,65.93333555400834,1.0094344650085836,0.002631753271908591,0.1834888351440643
2026-06-03T18:24:07+03:00,27.03,286.78,-53.701167344374255,8.49528,128.99571799575352,117.10111416883765,3.9000091198964877,2.74104,0.0,0.6130648407899808,-61.50128972934256,3.787251025814742,24.786807,59.474662,7.2189144059766575,71.52056179654285,57.47515619921067,0.8688118524855685,0.0006640364486074962,0.1841528715926718
2026-06-03T18:24:08+03:00,27.18,286.78,-54.698113907901885,8.203679999999999,146.20164058353217,121.10035957885079,4.2000098214269865,2.99376,0.0,0.5557690612768985,-57.100973862737845,4.004974987964455,24.786823,59.474652,6.919353496129435,75.37550527141225,70.82613531211992,0.7558736380684012,0.0007745350503009312,0.18492740664297272
2026-06-03T18:24:09+03:00,27.11,286.78,-57.70041275438739,8.30088,136.99993839373113,125.99914872721935,4.2000098214269865,2.54664,0.0,0.49847328176381617,-52.40271994266509,5.397262430132355,24.786836,59.47464,7.266258705943852,74.93257611272688,62.06736228100425,0.6620131688419891,0.0008232760867461652,0.1857506827297189
2026-06-03T18:24:10+03:00,27.03,286.78,-60.70271160087291,8.10648,145.99537577728506,128.60037711711328,2.3000244769936637,2.4299999999999997,0.0,0.20053522829578813,-50.7984381162988,5.2998596049601145,24.786813,59.474632,7.234715087745943,77.73549752664309,68.25987825064198,0.5161927939769252,0.0008510554854291861,0.18660173821514808
2026-06-03T18:24:11+03:00,26.88,286.78,-62.70233430587948,8.30088,158.73222756304327,129.5973236806409,1.4000223724021665,2.916,0.0,-0.6016056848873644,-50.397367659707214,5.001921551492087,24.786856,59.474614,7.4300643799712525,83.113438200834,75.61878936220927,0.34964004470056137,0.0017011757500523103,0.18830291396520038
2026-06-03T18:24:12+03:00,26.88,286.77,-64.70195701088606,8.30088,160.99541085381,128.80091234540907,0.5000202678106694,2.95488,0.0,-0.8021409131831525,-51.497446626358396,4.698253920072751,24.786864,59.474601,7.5281394097918835,85.48733442107556,75.50807643273444,0.23248838764763766,0.0008186814528587807,0.18912159541805917
2026-06-03T18:24:13+03:00,26.92,286.78,-64.70195701088606,8.49528,152.99692003378374,127.39716574733855,-0.09998113525032865,2.97432,0.0,-0.49847328176381617,-53.10172845272469,4.801386323196299,24.786845,59.474607,7.70851722327113,85.11861593543165,67.87830409835209,0.2530943968544789,0.0006830412144988613,0.18980463663255803
2026-06-03T18:24:14+03:00,27.03,286.78,-64.70195701088606,8.49528,151.9999734702561,126.30281635863868,-0.5000202678106694,3.42144,0.0,0.49847328176381617,-54.098675016252336,5.500394833255903,24.786883,59.474575,7.683396655693088,88.44260102490075,63.55737244535534,0.09298924031375297,0.0022462340265506477,0.19205087065910867
2026-06-03T18:24:15+03:00,27.03,286.78,-63.69928086940712,8.49528,149.99462118729824,125.99914872721935,-0.9000021045914972,3.6741599999999996,0.0,0.8995437383553924,-53.89813978795654,6.302535746439056,24.786866,59.474581,7.616387167947156,89.32332200147872,60.67129918581952,0.043391772644618264,0.0006320096683590082,0.19268288032746766
2026-06-03T18:24:16+03:00,27.03,286.78,-62.70233430587948,8.39808,149.99462118729824,127.09922769387053,0.2000195662801704,3.47976,0.0,0.40107045659157625,-52.40271994266509,6.399938571611295,24.786915,59.474546,7.472086968124457,87.14854758881471,62.84607359848353,0.17310654845295587,0.0025814277275779543,0.19526430805504563
2026-06-03T18:24:17+03:00,26.96,286.77,-62.70233430587948,8.59248,152.38958477094505,127.99877143222591,0.8000209693411684,3.1104000000000003,0.0,-0.20053522829578813,-51.89851708294997,5.700930061551691,24.786889,59.474556,7.680589444846038,83.79454228854021,68.59504248240484,0.33621574276342314,0.0009956803303466176,0.19625998838539224
2026-06-03T18:24:18+03:00,26.77,286.77,-63.69928086940712,8.59248,150.99729732877717,127.2997629221663,-0.09998113525032865,3.28536,0.0,-1.3006141949469687,-52.90119322442891,4.60085109490051,24.786942,59.474519,7.720648200749426,86.12458410987193,64.87271321890523,0.2220482977537979,0.002750331653071283,0.19901032003846353
2026-06-03T18:24:19+03:00,26.73,286.77,-62.70233430587948,8.70912,148.99767462377056,126.89869246557473,0.3999818367808277,3.18816,0.0,-0.6990085100596044,-53.302263681020484,4.199780638308934,24.786955,59.474505,7.781089665466499,84.05468813637464,64.94298648739593,0.33022692371598306,0.0009304071784133407,0.19994072721687686
2026-06-03T18:24:20+03:00,26.92,286.77,-62.70233430587948,8.59248,148.99767462377056,126.40021918381092,0.09998113525032865,3.53808,0.0,-0.09740282517223994,-53.8007369627843,4.60085109490051,24.78697,59.47449,7.646190048271682,86.98217584467075,62.015498779099815,0.18626794467101732,0.0010112514254221616,0.20095197864229902
2026-06-03T18:24:21+03:00,27.03,286.75,-60.70271160087291,8.49528,151.9999734702561,125.70121067375132,-2.003748001131515,4.0824,0.0,0.40107045659157625,-54.7002807011397,5.998868115019719,24.786942,59.474508,7.409045881866631,89.42239345496371,62.577580015292384,0.04115453248087267,0.0013788923607207324,0.20233087100301975
2026-06-03T18:24:22+03:00,27.03,286.76,-58.69735931791503,8.49528,148.99767462377056,125.70121067375132,0.04176862326503702,3.7908,0.0,1.0026761414789407,-54.00127219108009,7.402614713090236,24.78696,59.474491,7.285349665882841,85.09445319167509,63.90322143209548,0.3241641170869172,0.001160229956338961,0.2034911009593587
2026-06-03T18:24:23+03:00,27.03,286.78,-58.69735931791503,8.39808,149.99462118729824,125.99914872721935,0.03139808717316911,3.5964,0.0,-0.09740282517223994,-54.098675016252336,7.0015442564986605,24.787029,59.474445,7.216477058358862,83.89966824222628,66.09495294507195,0.38218881235068236,0.003476007327741965,0.2069671082871007
2026-06-03T18:24:24+03:00,26.85,286.78,-59.700035459393966,8.49528,149.7081422897328,125.79861349892356,-0.09998113525032865,3.44088,0.0,-0.49847328176381617,-54.299210244548114,5.397262430132355,24.787001,59.474461,7.38332808001957,83.42655826504763,66.28158402468516,0.39390052180771506,0.001286727001674436,0.2082538352887751
2026-06-03T18:24:25+03:00,26.73,286.78,-60.70271160087291,8.90352,149.99462118729824,125.59807827062775,0.3999818367808277,3.71304,0.0,-0.8021409131831525,-54.40234264767167,4.60085109490051,24.787058,59.474414,7.791338211111457,85.2600929009015,64.73452828639674,0.3068183602950349,0.003318030270731804,0.2115718655595069
2026-06-03T18:24:26+03:00,26.73,286.77,-59.700035459393966,8.80632,144.99842921375745,125.79861349892356,1.3667908202845787,3.81024,0.0,-1.1000789666511805,-53.89813978795654,4.400315866604722,24.787073,59.4744,7.629626623753633,85.24253004002736,59.755899173730086,0.31601419733285296,0.0009580476914191234,0.21252991325092604
2026-06-03T18:24:27+03:00,26.85,286.77,-59.700035459393966,8.70912,144.99842921375745,125.70121067375132,0.2000195662801704,3.888,0.0,0.09740282517223994,-54.499745472843905,5.099324376664327,24.787056,59.474421,7.536423059438274,86.15032997378964,58.84809923996781,0.2610359458682189,0.0013647998416774553,0.2138947130926035
2026-06-03T18:24:28+03:00,27.03,286.78,-57.70041275438739,8.59248,145.8693250623563,125.9017459020471,-0.24425190806426994,4.276800000000001,0.0,0.29793805346802804,-54.00127219108009,6.697876625079324,24.787111,59.474368,7.26973711440118,87.52005289143318,58.349272170923115,0.18505597627237122,0.0036011536277270307,0.21749586672033053
2026-06-03T18:24:29+03:00,27.03,286.78,-57.70041275438739,8.49528,144.99842921375745,126.30281635863868,0.0,3.5964,0.0,0.8021409131831525,-53.39966650619273,7.098947081670899,24.787094,59.474393,7.242425503304169,82.51839312724948,62.480036086507965,0.4682797320037877,0.0015897986035352748,0.2190856653238658
2026-06-03T18:24:30+03:00,26.96,286.78,-58.69735931791503,8.49528,144.99842921375745,126.69815723727893,0.2000195662801704,3.6352800000000003,0.0,-0.20053522829578813,-53.10172845272469,5.998868115019719,24.787153,59.474335,7.300293319314946,83.87824632065218,61.120182893105266,0.38767202935461775,0.0039240955292677415,0.22300976085313354
2026-06-03T18:24:31+03:00,26.81,286.78,-58.69735931791503,8.80632,146.99805191876402,127.20236009699407,0.6999825383113268,3.46032,0.0,-0.6016056848873644,-52.59752559300958,5.2998596049601145,24.787173,59.47432,7.606602505311526,81.57043494525031,65.42761697351371,0.5072603544617814,0.001088920374323796,0.22409868122745732
2026-06-03T18:24:32+03:00,26.73,286.77,-58.69735931791503,8.80632,147.99499848229166,127.79823620393013,1.5000035076524951,3.5964,0.0,-0.6990085100596044,-51.801114257777726,4.497718691776963,24.787148,59.474354,7.587848161308273,82.58692654930206,65.4080719329896,0.46401424446245976,0.0021815390746232994,0.22628022030208061
2026-06-03T18:24:33+03:00,26.73,286.77,-60.70271160087291,9.00072,143.9957530722785,128.80091234540907,1.200002806121996,3.8491199999999997,0.0,-0.6016056848873644,-51.10210574771813,3.9018425848409057,24.787208,59.474292,7.869077483533457,85.95340357468378,58.042349497594714,0.27162366307182384,0.004152548923272517,0.23043276922535313
2026-06-03T18:24:34+03:00,26.73,286.77,-59.700035459393966,8.80632,147.80019283194716,128.49724471398974,-0.6999825383113268,4.31568,0.0,0.0,-51.89851708294997,5.2998596049601145,24.787226,59.474276,7.604406636310921,89.04045286038678,58.75973997156038,0.07227242322772696,0.0011076599044928864,0.23154042912984601
2026-06-03T18:24:35+03:00,26.88,286.77,-58.69735931791503,8.70912,152.99692003378374,127.50029815046209,-0.9999832398418258,4.374,0.0,0.29793805346802804,-52.79806082130536,6.801009028202872,24.787248,59.474262,7.442905748923729,88.83830743807502,64.15861259570872,0.08867834899219273,0.001076693849535652,0.23261712297938167
2026-06-03T18:24:36+03:00,26.81,286.77,-57.70041275438739,8.30088,153.99959617526267,125.99914872721935,-1.7000230739326654,4.4712,0.0,0.09740282517223994,-54.99821875460771,7.098947081670899,24.78727,59.474247,7.016539595981296,90.29116012637076,63.70843604889191,-0.022721212017101804,0.0011242976569473832,0.23374142063632905
2026-06-03T18:24:37+03:00,26.73,286.77,-57.70041275438739,8.39808,144.09888547540206,123.50105274044896,-2.3000244769936637,3.9074399999999994,0.0,-0.40107045659157625,-57.30150909103363,6.497341396783535,24.787292,59.47423,7.1222676656560795,85.32861655671952,58.77026891868253,0.3182247455686103,0.0012228138265412325,0.2349642344628703
2026-06-03T18:24:38+03:00,26.73,286.77,-56.69773661290846,8.70912,149.99462118729824,121.70196526373815,-1.4000223724021665,4.23792,0.0,-0.6990085100596044,-58.90006133944863,5.998868115019719,24.787315,59.474215,7.299248140851576,85.72688280416192,64.26773838313632,0.3157710038980143,0.0011427993950446293,0.23610703385791493
2026-06-03T18:24:39+03:00,26.66,286.76,-57.70041275438739,9.097919999999998,143.9957530722785,120.20081584049541,-1.1000216708716675,4.14072,0.0,0.0,-60.49861358786363,5.202456779787875,24.78734,59.474201,7.723858536072821,84.64589530402986,59.349857768248626,0.38637395382500844,0.0011360885156741927,0.23724312237358913
2026-06-03T18:24:40+03:00,26.73,286.75,-54.698113907901885,8.90352,137.25776940154,118.99760447072069,-1.5000035076524951,4.16016,0.0,-0.8021409131831525,-61.39815732621903,5.099324376664327,24.787365,59.474186,7.3327919832812665,82.27986751946972,54.977901882070285,0.5588525430294896,0.0011813013181151463,0.23842442369170427
2026-06-03T18:24:41+03:00,26.73,286.77,-54.698113907901885,9.097919999999998,139.99650766226534,118.00065790719304,-1.2999839413723246,4.276800000000001,0.0,0.20053522829578813,-62.29770106457441,5.798332886723932,24.787394,59.474172,7.489473529060329,82.47550505354054,57.5210026087248,0.5600471322419567,0.0012214874800353373,0.2396459111717396
2026-06-03T18:24:42+03:00,26.73,286.77,-53.701167344374255,9.29232,137.0400454393903,118.20119313548884,-0.300000701530499,3.9851999999999994,0.0,0.6990085100596044,-61.70182495763835,5.798332886723932,24.787425,59.474159,7.640921001222238,78.55762497477521,58.48242046461509,0.7905930576659786,0.0012273284142977007,0.24087323958603732
2026-06-03T18:24:43+03:00,26.73,286.77,-52.69849120289531,9.00072,137.99688495725877,117.80012267889725,-0.600001403060998,4.276800000000001,0.0,-0.8021409131831525,-61.99976301110639,5.001921551492087,24.787455,59.474147,7.255907427086051,80.65888460432808,57.33800035293069,0.6941757312360765,0.0011658276402264833,0.2420390672262638
2026-06-03T18:24:44+03:00,26.62,286.77,-53.701167344374255,9.195120000000001,138.99956109873773,117.8975255040695,-0.2000195662801704,4.101839999999999,0.0,-0.6990085100596044,-62.40083346769795,4.801386323196299,24.787477,59.474134,7.531184837439654,79.73828313466788,59.26127796406985,0.7307213679315883,0.0010303998070878742,0.2430694670333517
2026-06-03T18:24:45+03:00,26.58,286.77,-52.69849120289531,9.195120000000001,139.99650766226534,118.09806073236527,0.8000209693411684,3.9463199999999996,0.0,-0.40107045659157625,-61.70182495763835,4.102377813136695,24.787502,59.474122,7.492882568267243,77.46669420373986,62.52981345852548,0.8563794356331881,0.0010501557598257814,0.24411962279317748
2026-06-03T18:24:46+03:00,26.7,286.76,-51.701544639367675,9.29232,135.99726225225223,118.00065790719304,0.300000701530499,3.888,0.0,-0.2578310078088704,-61.70182495763835,3.4434763487362474,24.787525,59.47411,7.528735647346174,75.61046484769048,60.38679740456175,0.9662184473104273,0.0010066506955447015,0.24512627348872218
2026-06-03T18:24:47+03:00,26.77,286.76,-52.69849120289531,9.408959999999999,140.68978659437363,118.69966641725263,0.5000202678106694,4.257359999999999,0.0,-0.18334649444186346,-61.10021927275099,3.3575326794666243,24.787547,59.474097,7.622559260134538,79.07576044560936,61.61402614876427,0.806815927431706,0.001030400286647769,0.24615667377536996
2026-06-03T18:24:48+03:00,26.77,286.76,-51.701544639367675,9.50616,136.99993839373113,119.30127210214,0.09998113525032865,3.9463199999999996,0.0,-0.23491269600363757,-60.49861358786363,3.850276383279132,24.787571,59.474084,7.70979199847288,75.3862132805587,61.61372511317242,0.9956652362686653,0.0010712043346198022,0.24722787810998975
2026-06-03T18:24:49+03:00,26.73,286.76,-51.701544639367675,9.097919999999998,133.99763954724563,118.90020164554844,-0.9000021045914972,4.16016,0.0,-0.40107045659157625,-61.39815732621903,5.798332886723932,24.787593,59.474069,7.2914259441050575,78.30209429875391,55.69554524849171,0.8434786896777131,0.0011242997711154855,0.24835217788110522
2026-06-03T18:24:50+03:00,26.7,286.76,-51.701544639367675,9.195120000000001,141.5721415988751,118.69966641725263,-0.2000195662801704,3.7519199999999997,0.0,-0.20053522829578813,-61.50128972934256,5.700930061551691,24.787613,59.474058,7.4742653210077075,74.90199913935872,66.67014245951638,0.9772656851049522,0.0009000043886080749,0.2492521822697133
2026-06-03T18:24:51+03:00,26.58,286.76,-51.701544639367675,9.408959999999999,137.99688495725877,117.70271985372501,-0.300000701530499,3.6547199999999997,0.0,-0.19480565034447989,-62.60136869599375,4.549284893338736,24.787634,59.474046,7.698190489731081,73.57642279124336,64.42046216601541,1.0333216103340206,0.000965050307735165,0.25021723257744843
2026-06-03T18:24:52+03:00,26.58,286.76,-51.701544639367675,9.50616,135.99726225225223,116.90057894054185,0.09998113525032865,3.6935999999999996,0.0,-0.1604281826366305,-63.1972448029298,3.724225668350351,24.787656,59.474035,7.777399352735823,73.58436982938944,62.41289242286278,1.0438229771467873,0.0009424995643952438,0.2511597321418437
2026-06-03T18:24:53+03:00,26.62,286.75,-51.701544639367675,9.408959999999999,135.1607438713612,116.79744653741832,0.09998113525032865,3.96576,0.0,-0.13750987083139757,-63.300377206053355,3.231481964537843,24.787636,59.474027,7.6160941489798635,75.8214718855882,59.33927198577301,0.9713893715361019,0.0007772201593222218,0.2519369523011659
2026-06-03T18:24:54+03:00,26.73,286.75,-50.698868497888746,9.50616,133.24133525767294,116.90057894054185,-0.09998113525032865,4.19904,0.0,-0.1546986046853223,-63.002439152585325,3.3632622574179325,24.787662,59.474013,7.578442314456941,76.08776538920729,57.15356986846565,1.0095975185597925,0.0011568237259946081,0.25309377602716054
2026-06-03T18:24:55+03:00,26.73,286.75,-49.7019219343611,9.50616,138.99956109873773,117.10111416883765,-0.3999818367808277,4.41288,0.0,-0.1546986046853223,-62.698771521165995,3.5007721282493303,24.787725,59.473993,7.455042755459961,76.53936792038765,62.46019317835008,1.0272178220739776,0.002268196977241629,0.25536197300440217
2026-06-03T18:24:56+03:00,26.73,286.76,-49.7019219343611,9.097919999999998,139.99650766226534,116.90057894054185,-0.5000202678106694,4.33512,0.0,-0.1604281826366305,-63.300377206053355,4.125296124941927,24.787747,59.47398,7.109705354994471,77.41523708958886,62.58127057267649,0.9445519896072658,0.0010304018028945532,0.2563923748072967
2026-06-03T18:24:57+03:00,26.66,286.76,-49.7019219343611,9.29232,138.99956109873773,116.29897325565449,-0.5000202678106694,4.257359999999999,0.0,-0.13750987083139757,-63.999385716112954,4.27999472962725,24.787768,59.473967,7.300641745704512,76.1100168513234,62.889544247414335,1.022014737434329,0.0010107657716935765,0.2574031405789903
2026-06-03T18:24:58+03:00,26.58,286.76,-49.7019219343611,9.408959999999999,133.69970149377758,115.89790279906293,0.0,3.57696,0.0,-0.1432394487827058,-64.40045617270454,3.970597520256605,24.78779,59.473955,7.601898481026634,70.7328856184731,62.966815875304476,1.180298906184647,0.0009855988625617773,0.25838873944155205
2026-06-03T18:24:59+03:00,26.43,286.74,-50.698868497888746,9.50616,133.02934087347455,115.30202669212686,0.2000195662801704,3.9851999999999994,0.0,-0.10886198107485642,-64.89892945446834,3.7700622919608167,24.787815,59.473943,7.632679867526643,74.52944225523606,58.49989861823849,1.0630248632916883,0.0010501586989186409,0.2594388981404707
2026-06-03T18:25:00+03:00,26.58,286.76,-50.698868497888746,9.195120000000001,133.99763954724563,114.79782383241175,-0.09998113525032865,4.0629599999999995,0.0,-0.12605071492878112,-65.20259708588767,3.5637974857137205,24.78782,59.473921,7.330161604829327,76.09771898199784,57.89992056524778,0.9761939416490666,0.0013311516139676819,0.2607700497544384
2026-06-03T18:25:01+03:00,26.58,286.77,-49.7019219343611,9.195120000000001,133.99763954724563,114.7004210072395,-0.600001403060998,4.52952,0.0,-0.13178029288008933,-65.29999991105991,3.5294200180058715,24.787848,59.473909,7.1548583784620625,78.57268018485924,55.42495936238639,0.897409933843552,0.001118499282012543,0.2618885490364509
2026-06-03T18:25:02+03:00,26.58,286.77,-48.69924579288217,9.00072,132.9949634057667,114.40248295377148,-0.600001403060998,4.276800000000001,0.0,-0.13178029288008933,-65.59793796452794,3.9247608966461396,24.787895,59.473907,6.963522120580586,76.17673139178348,56.81823201398322,1.0218465388746631,0.0014399629009615189,0.26332851193741247
2026-06-03T18:25:03+03:00,26.58,286.77,-48.69924579288217,9.097919999999998,134.99458611077327,114.40248295377148,-0.2000195662801704,4.374,0.0,-0.10313240312354818,-65.59793796452794,4.004974987964455,24.787906,59.473881,7.026708032070845,76.58065737800257,58.4139287327707,1.0151017014881438,0.0015984779543537922,0.2649269898917663
2026-06-03T18:25:04+03:00,26.51,286.77,-48.69924579288217,9.29232,133.40176344030957,114.4998857789437,0.2000195662801704,3.71304,0.0,-0.10313240312354818,-65.59793796452794,3.850276383279132,24.787933,59.473866,7.388466809511125,70.88063138652738,62.52113205378218,1.2161591578389732,0.0012216480547447349,0.266148637946511
2026-06-03T18:25:05+03:00,26.43,286.76,-48.69924579288217,9.097919999999998,131.99801684223905,114.0014124971799,-0.2000195662801704,4.04352,0.0,-0.09167324722093173,-66.30267605253886,3.735684824252967,24.787961,59.473852,7.110674486253072,73.98956500378668,58.00845183845237,1.1152530408481076,0.001199548173203663,0.26734818611971467
2026-06-03T18:25:06+03:00,26.43,286.77,-48.69924579288217,9.097919999999998,129.71764481761838,113.60034204058832,0.09998113525032865,3.7713599999999996,0.0,-0.09167324722093173,-66.49748170288335,3.3632622574179325,24.787986,59.473841,7.1904999700266155,71.90458140429129,57.813063413327086,1.1713860182232134,0.0010098214023028878,0.26835800752201755
2026-06-03T18:25:07+03:00,26.43,286.77,-48.69924579288217,9.195120000000001,128.99571799575352,113.89828009405635,0.6999825383113268,3.71304,0.0,-0.08594366926962349,-65.90160559594727,3.168456607073453,24.788009,59.473832,7.29855251769073,71.16871391755834,57.82700407819519,1.1985045580548672,0.0008864190400010002,0.2692444265620185
2026-06-03T18:25:08+03:00,26.47,286.77,-48.69924579288217,9.00072,127.86126156139451,114.59728860411596,0.0,4.0629599999999995,0.0,-0.10313240312354818,-65.29999991105991,3.5122312841519467,24.788034,59.473822,7.017687152270637,74.48115683229557,53.380104729098946,1.0870663837386194,0.0009715288198031472,0.2702159553818217
2026-06-03T18:25:09+03:00,26.43,286.77,-48.69924579288217,9.097919999999998,131.9006140170668,114.59728860411596,0.0,3.8296799999999998,0.0,-0.09740282517223994,-65.20259708588767,3.552338329811104,24.788058,59.473812,7.172599981246248,72.3474129172047,59.55320109986211,1.1613298508619536,0.0009477313572211878,0.2711636867390429
2026-06-03T18:25:10+03:00,26.43,286.77,-47.70229922935453,8.90352,129.99839413723248,124.320382387486,1.2530014021715974,3.3242399999999996,0.0,-0.12605071492878112,-64.29732376958098,3.747143980155584,24.788084,59.473802,7.105357526074285,67.94813597493369,62.05025816229879,1.2480716962077105,0.0009956942664224415,0.27215938100546533
2026-06-03T18:25:11+03:00,26.43,286.76,-49.7019219343611,9.195120000000001,128.99571799575352,123.96514855450492,-0.743298147623217,3.09096,0.0,-0.09740282517223994,-65.39740273623217,3.747143980155584,24.788107,59.473792,7.5723132126795765,67.84097305130476,61.154744944448765,1.1658439241732323,0.0009243298549196732,0.273083710860385
2026-06-03T18:25:12+03:00,26.43,286.77,-49.7019219343611,9.00072,131.99801684223905,123.97660771040755,2.2534430082495276,3.3242399999999996,0.0,-0.10886198107485642,-64.49785899787676,2.790304462287109,24.788132,59.473782,7.304823522320295,70.01079516154486,61.98722168069419,1.1363684692606164,0.0009715295303080338,0.27405524039069307
2026-06-03T18:25:12+03:00,26.43,286.77,-49.7019219343611,9.097919999999998,129.99839413723248,127.59770097563433,4.255930502231755,3.6935999999999996,0.0,-0.17188733853924698,-60.401210762691385,2.6356058576017865,24.788174,59.47378,7.276469005441379,72.47908998200934,57.51930415522314,1.1119724530640889,0.0012879108933285346,0.2753431512840216
2026-06-03T18:25:13+03:00,26.43,286.77,-53.701167344374255,8.90352,131.99801684223905,130.39373501587272,0.7761286292842132,3.888,0.0,-0.05729577951308232,-58.49899088285704,3.151267873219528,24.788182,59.473757,7.307738641918584,79.09205609767758,52.90596074456147,0.735732410442829,0.0014038873923452849,0.27674703867636685
2026-06-03T18:25:14+03:00,26.43,286.77,-55.70079004938082,9.00072,135.99726225225223,121.10035957885079,-0.8331952256792432,3.7519199999999997,0.0,0.0,-59.10059656774442,5.001921551492087,24.788214,59.473755,7.5518279374277695,79.93253253070517,56.06472972154705,0.6558644951635042,0.000984350449272729,0.2777313891256396
