time,dpt,mtw,awa,aws,cog,hdg,rot,sog,stw,pitch,yaw,roll,lng,lat,tws,twa,twd,vmg,dist,cum_dist
2025-10-01T17:26:32+03:00,,,-61.00195701088606,7.795439999999999,171.99620052032182,153.3005876652031,0.9999832398418258,4.1212800000000005,,-0.6990085100596044,-26.098227568209,5.597797658428142,24.794082,59.475193,6.826756965731736,92.87330101735697,79.12289950296486,-0.20658965363244594,0.0003687730908892726,0.0003687730908892726
2025-10-01T17:26:33+03:00,,,-63.99852627942025,7.795439999999999,168.99963125178763,156.8013597934524,2.400005612243992,4.393439999999999,,-0.8021409131831525,-21.89844692990006,4.698253920072751,24.79409,59.475155,7.074054471499289,97.93004029073037,71.06959096105726,-0.6061359111871192,0.002297113999030602,0.0026658870899198745
2025-10-01T17:26:35+03:00,,,-65.0012024208992,8.00928,172.99887666180075,161.29907848522936,2.1000049107134933,4.23792,,-0.40107045659157625,-17.498131063295343,3.9992454100131463,24.79409,59.475113,7.308913989920537,96.70369367776789,76.29518298403286,-0.49471258863006295,0.0025245240893051342,0.005190411179225009
2025-10-01T17:26:37+03:00,,,-63.99852627942025,7.795439999999999,185.6096777326302,165.29832389524248,1.4000223724021665,4.276800000000001,,-0.8021409131831525,-14.398429391637588,3.9992454100131463,24.794115,59.475052,7.058907756667006,96.99230772725805,88.61737000537214,-0.5206408991951623,0.0037451664713461833,0.008935577650571193
2025-10-01T17:26:39+03:00,,,-65.99814898442683,7.698239999999999,185.99928903331917,165.20092107007028,0.2000195662801704,4.0824,,-0.6990085100596044,-14.799499848229162,4.497718691776963,24.794093,59.475038,7.096602631281689,97.70138330786939,88.29790572544978,-0.547082876987281,0.0010766842255133765,0.01001226187608457
2025-10-01T17:26:46+03:00,,,-63.99852627942025,7.795439999999999,183.99966632831257,163.09816596194014,-0.300000701530499,4.33512,,-1.0026761414789407,-17.102790184655074,6.399938571611295,24.794092,59.474973,7.06624450957058,97.4616765181129,86.53798981019968,-0.5629717510525173,0.0039071208450346595,0.013919382721119228
2025-10-01T17:26:48+03:00,,,-67.00082512590576,8.00928,182.37819576809233,160.5026671499975,-0.2000195662801704,4.374,,-0.49847328176381617,-19.19981571483389,7.2020794847944485,24.794105,59.47496,7.47694613577839,99.58220472809433,82.795991039998,-0.7281069838680784,0.0008764154064154801,0.014795798127534707
2025-10-01T17:26:50+03:00,,,-63.99852627942025,8.00928,180.99736748182707,157.39723590038847,-0.8000209693411684,4.1212800000000005,,-0.8995437383553924,-22.998525896551243,8.502693679741416,24.794117,59.474917,7.22440679305772,94.84405168219685,86.15331579963022,-0.34801724041969684,0.002610466990263445,0.017406265117798154
2025-10-01T17:26:52+03:00,,,-63.99852627942025,8.39808,179.99469134034814,157.50036830351198,0.8000209693411684,4.35456,,-1.0026761414789407,-22.2021145613194,7.299482309966689,24.794125,59.474875,7.577983486174171,95.09430974893628,84.90038159141186,-0.38666479246229263,0.002536311046839518,0.01994257616463767
2025-10-01T17:26:54+03:00,,,-65.99814898442683,8.30088,180.99736748182707,161.00114043176134,1.5000035076524951,4.45176,,-0.8995437383553924,-18.59821002994652,6.199403343315507,24.794127,59.474837,7.658974395080521,98.07041096942339,82.92695651240368,-0.6249823157685586,0.002284909211137393,0.022227485375775066
2025-10-01T17:26:56+03:00,,,-65.99814898442683,7.892639999999999,189.9985344433323,164.19824492859135,1.2999839413723246,4.16016,,-0.49847328176381617,-15.49850835828877,6.399938571611295,24.794122,59.474795,7.272458493779031,97.5036144552578,92.49491998807449,-0.5432700376700751,0.0025291349297293137,0.02475662030550438
2025-10-01T17:27:00+03:00,,,-71.00007053591892,7.60104,188.99585830185336,167.89955228513642,0.5000202678106694,4.393439999999999,,-0.49847328176381617,-11.997736230039438,6.102000518143266,24.794097,59.47472,7.438661948445434,104.94837285556308,84.04748544629028,-1.1332816071023046,0.001746656753107371,0.02650327705861175
2025-10-01T17:27:02+03:00,,,-72.9996932409255,7.892639999999999,188.99585830185336,168.5011579700238,0.8000209693411684,4.7628,,-0.8995437383553924,-11.401860123103383,6.102000518143266,24.794078,59.474685,7.937034528114814,108.01894958554814,80.97690871630522,-1.4732841773614904,0.0021822754435701806,0.02868555250218193
2025-10-01T17:27:06+03:00,,,-72.00274667739787,7.60104,196.35836596928442,170.70131590332616,1.1000216708716675,4.60728,,-1.1000789666511805,-8.30215845144563,5.998868115019719,24.794045,59.474613,7.573797410430156,107.35165996224387,89.00670600704055,-1.3740549161227442,0.0010128131370420802,0.02969836563922401
2025-10-01T17:27:10+03:00,,,-72.00274667739787,7.503839999999999,188.99585830185336,172.3972709769134,0.2000195662801704,4.276800000000001,,-1.1000789666511805,-7.0015442564986605,4.400315866604722,24.793978,59.474489,7.400496686111075,105.34444343867986,83.6514148631735,-1.1317317881499822,0.0025335536052905993,0.03223191924451461
2025-10-01T17:27:12+03:00,,,-72.00274667739787,7.1928,188.99585830185336,171.6982624668538,0.09998113525032865,4.393439999999999,,-1.0026761414789407,-7.9984908200262925,4.801386323196299,24.793968,59.474452,7.177115909293342,107.6077618272537,81.38809647459966,-1.3290112776588754,0.0022448429578995335,0.03447676220241414
2025-10-01T17:27:14+03:00,,,-72.00274667739787,6.6095999999999995,188.99585830185336,170.30024544673458,-0.3999818367808277,4.21848,,-0.8995437383553924,-9.29910501497326,5.597797658428142,24.793957,59.474413,6.652264037789079,109.09601472492588,79.89984357692748,-1.3800848909903156,0.0023681343767484385,0.03684489657916258
2025-10-01T17:27:16+03:00,,,-69.99739439443997,6.7068,190.9954810068599,169.89917499014302,0.2000195662801704,4.0824,,-1.0026761414789407,-9.499640243269049,4.801386323196299,24.793948,59.474378,6.551022981742397,105.84125728833959,85.15422371852031,-1.114385163050798,0.0021216379612199365,0.03896653454038252
2025-10-01T17:27:18+03:00,,,-72.9996932409255,6.804,189.9985344433323,170.7987187284984,0.2000195662801704,4.21848,,-0.40107045659157625,-8.30215845144563,3.3976397251257815,24.793937,59.474339,6.877941240865701,108.91112221453255,81.08741222879974,-1.3672138627367807,0.002368134481064879,0.0413346690214474
2025-10-01T17:27:20+03:00,,,-72.9996932409255,6.39576,188.99585830185336,172.00193009827314,0.5000202678106694,3.8491199999999997,,-0.8021409131831525,-7.500017538262475,3.3976397251257815,24.793926,59.4743,6.4285284084696945,107.93088509518415,81.06497320666921,-1.1850267531857122,0.0023681345360287496,0.04370280355747615
2025-10-01T17:27:22+03:00,,,-74.00236938240442,6.29856,192.9951037118665,173.3025442932201,0.0,4.19904,,-0.6016056848873644,-6.399938571611295,3.0997016716577535,24.793909,59.474264,6.536500308696722,112.13767658786323,80.85742712400328,-1.582338725362716,0.0022252510606039122,0.04592805461808006
2025-10-01T17:27:24+03:00,,,-74.00236938240442,6.006959999999999,196.99434912187962,172.90147383662853,-0.5000202678106694,3.81024,,-0.6990085100596044,-7.2020794847944485,3.2028340747813018,24.793889,59.474224,6.1632591887268,110.46345461374582,86.5308945081338,-1.3320974942494173,0.0024806326981838293,0.04840868731626389
2025-10-01T17:27:26+03:00,,,-72.00274667739787,5.90976,192.9951037118665,170.7987187284984,-1.2999839413723246,3.8491199999999997,,-0.8995437383553924,-9.998113525032863,3.2028340747813018,24.79387,59.47419,5.973643034092921,109.79667422294334,83.19842948892317,-1.303632685002903,0.002124392451570467,0.05053307976783435
2025-10-01T17:27:28+03:00,,,-71.00007053591892,6.29856,189.9985344433323,167.49848182854487,-1.5000035076524951,3.6352800000000003,,-0.40107045659157625,-13.498885653282196,3.798710181717358,24.793858,59.474152,6.1626362038152545,104.90058606346054,85.09794837987175,-0.9347856342908586,0.002313288630103905,0.052846368397938256
2025-10-01T17:27:30+03:00,,,-67.9977716894334,5.79312,186.9962355968468,165.0977886669467,-0.5000202678106694,3.47976,,-0.6990085100596044,-15.601640761412316,4.297183463481174,24.793844,59.474116,5.528505751960913,103.70052379954913,83.29571179729766,-0.8241708140967968,0.002205687904214293,0.05505205630215255
2025-10-01T17:27:32+03:00,,,-69.99739439443997,5.598719999999999,188.99585830185336,164.89725343865092,-0.09998113525032865,3.5575200000000002,,-0.6016056848873644,-15.49850835828877,4.698253920072751,24.793832,59.474082,5.511397241699444,107.3376198709448,81.65823843090855,-1.0601469967903205,0.00207624151689966,0.05712829781905221
2025-10-01T17:27:34+03:00,,,-71.00007053591892,6.201359999999999,188.99585830185336,163.40183359335947,-0.300000701530499,3.5575200000000002,,-0.6990085100596044,-17.200193009827313,5.597797658428142,24.793821,59.474047,6.062000220701813,104.70274748210552,84.29311081974784,-0.902913970475036,0.002130406853419291,0.0592587046724715
2025-10-01T17:27:34+03:00,,,-74.99931594593207,6.901199999999999,183.99966632831257,159.2994557802228,0.300000701530499,3.71304,,-0.49847328176381617,-20.700965138076644,6.302535746439056,24.793823,59.473982,6.938908747803696,106.12180778331242,77.87785854500015,-1.031038145333415,0.003907478685660913,0.06316618335813241
2025-10-01T17:27:36+03:00,,,-74.99931594593207,6.29856,185.99928903331917,160.5026671499975,-0.2000195662801704,3.6352800000000003,,-0.8995437383553924,-20.09935945318928,6.600473799907084,24.793822,59.474015,6.405795515197265,108.24017504836033,77.75911398495884,-1.1378460920846678,0.0019837895872731686,0.06514997294540559
2025-10-01T17:27:37+03:00,,,-74.99931594593207,7.1928,182.99699018683364,159.40258818334632,0.09998113525032865,3.7713599999999996,,-0.6016056848873644,-20.299894681485068,5.700930061551691,24.79382,59.473948,7.205353651011468,105.36880588383578,77.62818430299787,-0.9995280137097999,0.004027679878407968,0.06917765282381355
2025-10-01T17:27:39+03:00,,,-74.00236938240442,7.095599999999999,180.99736748182707,159.20205295505053,-0.09998113525032865,3.6352800000000003,,-0.8995437383553924,-20.90150036637243,5.2998596049601145,24.793814,59.473912,7.024599577963557,103.83483796013962,77.16252952168745,-0.8692823280231924,0.0021716176413344003,0.07134927046514795
2025-10-01T17:27:41+03:00,,,-76.99893865093864,7.40664,179.99469134034814,158.49731486703965,-0.3999818367808277,3.53808,,-0.8021409131831525,-21.600508876432034,5.597797658428142,24.793811,59.473873,7.455572901689179,104.54039489411133,75.45429644623681,-0.8882792418407631,0.0023459895753828886,0.07369526004053084
2025-10-01T17:27:43+03:00,,,-74.00236938240442,7.60104,179.99469134034814,157.59777112868423,-0.9000021045914972,3.73248,,-0.40107045659157625,-23.101658299674792,6.199403343315507,24.793895,59.473887,7.487950702893554,102.63297754426208,77.36171379608606,-0.8163117041515766,0.0026991013495447887,0.07639436139007563
2025-10-01T17:27:45+03:00,,,-65.99814898442683,7.892639999999999,181.9943140453547,151.7994382419603,-2.400005612243992,3.6741599999999996,,-0.6016056848873644,-29.10052641469451,6.600473799907084,24.793895,59.473853,7.225077093779623,93.67973826026383,88.31457578509088,-0.23580541098949684,0.002043662358409477,0.0784380237484851
2025-10-01T17:27:49+03:00,,,-61.00195701088606,7.795439999999999,173.9958232253284,149.5018774834857,0.09998113525032865,3.7908,,-0.8995437383553924,-30.699078663109514,6.102000518143266,24.793824,59.473727,6.818184620533035,90.09855969440864,83.89726353091976,-0.006520897498539459,0.0021216386476990813,0.08055966239618419
2025-10-01T17:27:51+03:00,,,-57.00271160087291,7.40664,172.99887666180075,149.39874508036215,0.5000202678106694,3.9851999999999994,,-0.8021409131831525,-30.49854343481372,7.098947081670899,24.793882,59.473742,6.212110830809811,89.55311776799286,83.44575889380789,0.031082516543341213,0.0019871026802598243,0.08254676507644401
2025-10-01T17:27:55+03:00,,,-52.997736612908454,8.10648,173.61194150259075,150.69935927530912,0.6999825383113268,3.92688,,-0.49847328176381617,-28.89999118639872,6.497341396783535,24.79385,59.473618,6.543548810355725,81.63473190991692,91.97720959267383,0.5712955339050731,0.0021744059987228266,0.08472117107516684
2025-10-01T17:27:57+03:00,,,-48.99849120289531,8.10648,172.99887666180075,151.1004297319007,0.300000701530499,3.9074399999999994,,-0.29793805346802804,-28.802588361226483,6.302535746439056,24.79386,59.473581,6.278514176825275,77.01224894546867,95.98662771633208,0.8781687878404957,0.0022448440283892217,0.08696601510355606
2025-10-01T17:27:59+03:00,,,-48.00154463936767,8.10648,172.99887666180075,152.6989819803157,1.200002806121996,4.04352,,-0.6990085100596044,-26.602430427924123,4.898789148368539,24.79389,59.473597,6.180607077258209,77.09248467624342,95.90639198555733,0.9032332922139654,0.0013280930329169812,0.08829410813647304
2025-10-01T17:28:03+03:00,,,-54.99735931791503,7.40664,177.99506863534154,159.70052623681437,0.8000209693411684,3.53808,,-0.6990085100596044,-20.597832734953094,4.297183463481174,24.793902,59.473526,6.1084269435650915,83.32078526122241,94.67428337411913,0.4115156262631717,0.0010928400570920547,0.08938694819356509
2025-10-01T17:28:07+03:00,,,-65.0012024208992,6.39576,182.99699018683364,159.40258818334632,0.0,3.73248,,-0.49847328176381617,-20.99890319154467,5.500394833255903,24.793892,59.473413,5.887319900686066,100.07228943766842,82.92470074916523,-0.6527755171685582,0.0019835546417607563,0.09137050283532584
2025-10-01T17:28:08+03:00,,,-63.001579715892625,6.6095999999999995,180.41868010874492,158.80098249845895,0.0,3.57696,,-0.6990085100596044,-21.49737647330849,4.898789148368539,24.793903,59.47341,5.917421760537322,95.59015037551738,84.82852973322754,-0.34843814929512257,0.0003811897607419663,0.0917516925960678
2025-10-01T17:28:12+03:00,,,-71.00007053591892,5.404319999999999,186.9962355968468,154.89913991361806,-0.8000209693411684,3.61584,,-0.6016056848873644,-25.59975428644518,6.102000518143266,24.793909,59.47334,5.436640745106909,109.96558611985813,77.03064947698866,-1.2346490658444842,0.00037127075526918323,0.09212296335133699
2025-10-01T17:28:16+03:00,,,-59.00233430587948,6.39576,173.9958232253284,151.19783255707296,-0.5000202678106694,3.4992,,-0.6990085100596044,-29.50159687128609,6.89841185337511,24.793906,59.473233,5.486215528419413,92.14523250450412,81.85059072082427,-0.13098423487240948,0.0021117305607768096,0.0942346939121138
2025-10-01T17:28:18+03:00,,,-57.00271160087291,7.503839999999999,176.99812207181392,150.29828881871757,0.2000195662801704,3.57696,,-1.0026761414789407,-29.902667327877666,7.0015442564986605,24.793917,59.473243,6.314043543667035,85.37044129001468,91.62768078179924,0.2887077042993606,0.0006885376614954867,0.09492323157360928
2025-10-01T17:28:20+03:00,,,-57.99965816440055,7.892639999999999,172.99887666180075,149.19820985206638,0.300000701530499,3.44088,,-0.8021409131831525,-30.899613891405295,7.500017538262475,24.793926,59.473214,6.734274048835596,83.67739320382613,89.32148345797462,0.37893201207499677,0.001764648641274935,0.09668788021488421
2025-10-01T17:28:24+03:00,,,-57.00271160087291,8.59248,173.9958232253284,147.8975956571194,-0.09998113525032865,3.9851999999999994,,-0.29793805346802804,-31.999692858056477,8.19902604832208,24.793943,59.473148,7.239846121406045,84.49721360600499,89.4986096193234,0.3821574074897042,0.0006080157650726484,0.09729589597995686
2025-10-01T17:28:28+03:00,,,-56.00003545939396,8.39808,174.99849936680735,150.2008859935453,0.8000209693411684,4.16016,,-1.1000789666511805,-28.802588361226483,6.600473799907084,24.793965,59.473033,6.982927117587665,85.5978681933884,89.40063117341896,0.31931776289249275,0.002109301442734498,0.09940519742269135
2025-10-01T17:28:30+03:00,,,-56.00003545939396,8.49528,169.99657781531528,149.70241271178148,-0.9999832398418258,4.393439999999999,,-0.8021409131831525,-30.699078663109514,7.098947081670899,24.793973,59.473037,7.051954312977251,87.09774793686621,82.89882987844906,0.22244951351343728,0.0003427322949620515,0.09974792971765341
2025-10-01T17:28:34+03:00,,,-56.00003545939396,8.80632,173.48016120971067,150.8024916784327,0.9999832398418258,4.510079999999999,,-0.6016056848873644,-28.699455958102938,7.098947081670899,24.794002,59.472953,7.312521652311322,86.75172736647968,86.72843384323099,0.25555325496347575,0.0006447237773034968,0.10039265349495691
2025-10-01T17:28:38+03:00,,,-54.00041275438739,8.70912,174.99849936680735,149.70241271178148,-0.3999818367808277,4.60728,,-0.49847328176381617,-30.40114060964148,9.001166961505232,24.794017,59.472835,7.064423881091751,85.84573581607418,89.15276355073317,0.3337609325002591,0.002589136127518047,0.10298178962247495
2025-10-01T17:28:40+03:00,,,-54.99735931791503,9.29232,170.77007083874187,148.40179851683453,0.09998113525032865,4.82112,,-0.6990085100596044,-31.398087173169117,7.9984908200262925,24.794037,59.472827,7.628582942801241,86.17357410248478,84.5964967362571,0.32173309575365594,0.00077723719833673,0.10375902682081169
2025-10-01T17:28:44+03:00,,,-54.99735931791503,8.90352,174.99849936680735,151.9999734702561,1.1000216708716675,4.82112,,-1.1000789666511805,-27.501974166279513,7.9984908200262925,24.794048,59.472708,7.29870940837266,87.75377551764754,87.24472384915981,0.18895883873443714,0.002602602456549139,0.10636162927736083
2025-10-01T17:28:46+03:00,,,-59.999280869407116,8.70912,172.99887666180075,153.70165812179465,1.1000216708716675,4.84056,,-0.8995437383553924,-26.00082474303676,6.697876625079324,24.794064,59.472662,7.557900364494829,93.68614804164677,79.31272862015398,-0.3112046753705433,0.002807777510249187,0.10916940678761002
2025-10-01T17:28:48+03:00,,,-57.99965816440055,8.30088,175.99544593033497,154.60120186015004,0.9999832398418258,5.1127199999999995,,-0.6990085100596044,-24.70021054808979,8.399561276617868,24.794074,59.472614,7.075624232096765,95.79060239623888,80.20484353409609,-0.5158382538689283,0.0029012801735210556,0.11207068696113107
2025-10-01T17:28:50+03:00,,,-61.00195701088606,8.80632,178.99774477682047,153.99959617526267,-0.09998113525032865,5.1710400000000005,,-0.8021409131831525,-26.699833253096365,9.797578296737077,24.794075,59.472567,7.75495250800734,96.67871277479836,82.31903200202211,-0.6014009196715331,0.0028252276514651076,0.11489591461259617
2025-10-01T17:28:52+03:00,,,-63.99852627942025,9.00072,175.99544593033497,150.4014212218411,-0.9999832398418258,5.22936,,-0.49847328176381617,-30.097472978222147,9.900710699860626,24.794074,59.472519,8.190877823117058,99.01530072947352,76.98014520086144,-0.8194314024893128,0.002885331931669885,0.11778124654426605
2025-10-01T17:28:54+03:00,,,-61.99890357441368,9.29232,173.76091052932478,149.30134225518992,-0.600001403060998,5.1710400000000005,,-1.0026761414789407,-30.49854343481372,9.602772646392598,24.794133,59.47252,8.24427830845077,95.62725158085274,78.13365894847203,-0.5070527833723132,0.0018023792514335472,0.1195836257956996
2025-10-01T17:28:59+03:00,,,-59.999280869407116,9.50616,172.99887666180075,148.79713939547477,-0.09998113525032865,5.3654399999999995,,-1.1974817918234204,-31.100149119701083,9.001166961505232,24.794147,59.472473,8.255251929841151,94.25328785587574,78.74558880592501,-0.39793170026686775,0.002857216976268496,0.1224408427719681
2025-10-01T17:29:01+03:00,,,-54.99735931791503,9.408959999999999,170.9992539567942,147.7027900067749,-0.09998113525032865,5.50152,,-0.8021409131831525,-32.10282526118002,9.998113525032863,24.794162,59.472424,7.707827241150398,90.77612864876437,80.22312530802984,-0.07452131270450736,0.0029806722468536657,0.12542151501882176
2025-10-01T17:29:03+03:00,,,-52.997736612908454,10.1088,169.99657781531528,147.1985871470598,-0.600001403060998,5.42376,,-0.6990085100596044,-33.09977182470766,9.797578296737077,24.794176,59.472377,8.099955388947993,85.32492328164484,84.67165453367043,0.44206339760980423,0.002857217157207163,0.12827873217602892
2025-10-01T17:29:05+03:00,,,-50.00116734437425,9.992159999999998,169.60123693667498,146.20164058353217,-0.09998113525032865,5.20992,,-1.1000789666511805,-33.798780334767265,10.800254438216017,24.794192,59.47233,7.750046626976051,80.99710855654055,88.60412838013443,0.8152707297857756,0.002866988388742,0.13114572056477092
2025-10-01T17:29:07+03:00,,,-50.99811390790188,10.303199999999999,169.60123693667498,146.40217581182796,0.6999825383113268,5.3654399999999995,,-1.3980170201192088,-33.500842281299235,10.198648753328653,24.79421,59.472283,8.084669049124386,82.04530623203107,87.55593070464391,0.7425232956091445,0.002878022393838987,0.13402374295860991
2025-10-01T17:29:09+03:00,,,-50.00116734437425,10.4004,171.65242584324332,148.6023337451303,1.4000223724021665,5.52096,,-1.0026761414789407,-30.200605381345692,8.697499330085895,24.794227,59.472237,8.051902597229965,81.68717181440128,89.96525402884204,0.7982079544493915,0.002813251381078524,0.13683699433968843
2025-10-01T17:29:11+03:00,,,-57.00271160087291,9.89496,167.99695511030868,163.0007631367679,7.500017538262475,5.5598399999999994,,-0.8995437383553924,-13.498885653282196,7.9984908200262925,24.794233,59.472185,8.300629380304189,91.18077918239494,76.81617592791373,-0.11457176594839161,0.003130965138206093,0.13996795947789453
2025-10-01T17:29:13+03:00,,,-67.00082512590576,9.70056,181.9943140453547,178.40186866988444,5.79999446432981,5.3654399999999995,,-0.29793805346802804,0.6016056848873644,3.798710181717358,24.794211,59.472135,9.067349158079141,100.00467874409232,81.9896353012624,-0.9321303580471967,0.0030795347276997794,0.14304749420559432
2025-10-01T17:29:15+03:00,,,-65.99814898442683,8.59248,201.99627067337175,181.90264079813375,-0.600001403060998,5.50152,,-0.8995437383553924,0.8021409131831525,5.2998596049601145,24.794179,59.47209,8.10187502926761,104.3382070696107,97.65806360376105,-1.3624246652855179,0.002875897339216492,0.14592339154481082
2025-10-01T17:29:17+03:00,,,-67.00082512590576,7.892639999999999,197.26936886354244,176.79758684351813,0.3999818367808277,5.443199999999999,,-1.1974817918234204,-3.9018425848409057,7.797955591730505,24.794152,59.472045,7.638766982430541,107.99129082209721,89.27807804144523,-1.6812543923219836,0.0028276817797722345,0.14875107332458307
2025-10-01T17:29:19+03:00,,,-71.00007053591892,8.00928,194.99472641687308,178.40186866988444,1.2999839413723246,5.46264,,-0.6016056848873644,-0.6990085100596044,5.700930061551691,24.794125,59.471997,8.093250862503588,110.65703665389104,84.33768976298204,-1.9270735397028014,0.0030006325500444467,0.15175170587462752
2025-10-01T17:29:21+03:00,,,-74.00236938240442,8.10648,200.9993241098441,181.30103511324637,0.6999825383113268,4.704479999999999,,-0.6990085100596044,1.0026761414789407,5.700930061551691,24.794094,59.471952,8.174738131349649,107.58940349464822,93.40992061519589,-1.421663741557948,0.002865669791663531,0.15461737566629105
2025-10-01T17:29:25+03:00,,,-69.99739439443997,7.795439999999999,201.99627067337175,176.60278119317363,-1.4000223724021665,5.151599999999999,,-0.8995437383553924,-4.199780638308934,5.001921551492087,24.794004,59.471803,7.735248473203667,108.73948126574228,93.25678940762947,-1.6550319487019216,0.003077750219205359,0.15769512588549642
2025-10-01T17:29:27+03:00,,,-71.00007053591892,7.892639999999999,190.9954810068599,173.10200906492432,-1.7000230739326654,5.26824,,-0.6990085100596044,-7.597420363434716,5.2998596049601145,24.793979,59.471755,7.935600697941311,109.88111755409756,81.11436345276235,-1.791568530693788,0.0029844351705834737,0.1606795610560799
2025-10-01T17:29:29+03:00,,,-67.00082512590576,7.795439999999999,190.9954810068599,169.10276365491114,-2.199986045963822,5.0544,,-0.6990085100596044,-11.79720100174365,6.102000518143266,24.794011,59.471761,7.451595929414556,105.63752762775103,85.35795337910888,-1.362416632222222,0.0010414762148812928,0.16172103727096118
2025-10-01T17:29:34+03:00,,,-52.997736612908454,8.49528,171.99620052032182,149.70241271178148,-2.1000049107134933,4.89888,,-0.40107045659157625,-31.501219576292662,6.600473799907084,24.793952,59.471523,6.787803763140464,88.19353881605679,83.80266170426503,0.15442970732894165,0.0029492319739202184,0.1646702692448814
2025-10-01T17:29:36+03:00,,,-50.99811390790188,8.30088,167.99695511030868,144.70049116028943,-2.1000049107134933,4.41288,,-0.40107045659157625,-35.901535442897384,7.299482309966689,24.794035,59.471536,6.5016337685685395,82.83220153550594,85.16475357480273,0.5506198498924082,0.002651948129642677,0.16732221737452407
2025-10-01T17:29:38+03:00,,,-50.99811390790188,8.80632,160.99541085381,142.09926277039548,-1.2999839413723246,4.52952,,-0.6990085100596044,-38.600166657963555,5.397262430132355,24.794063,59.471493,6.918136476508157,81.5825888061132,79.4128220476968,0.6630476455299585,0.0027223524848079264,0.170044569859332
2025-10-01T17:29:42+03:00,,,-44.999245792882164,9.195120000000001,153.99959617526267,136.30092988367153,-1.5000035076524951,4.6655999999999995,,-1.0026761414789407,-44.30109671951525,5.798332886723932,24.794045,59.47136,6.7562142810960575,74.22790497988258,79.77169119538009,1.268164117460004,0.002496458842079964,0.17254102870141197
2025-10-01T17:29:44+03:00,,,-44.999245792882164,9.195120000000001,149.99462118729824,133.99763954724563,-0.9000021045914972,4.4712,,-0.40107045659157625,-46.39812224969406,5.397262430132355,24.794172,59.471371,6.811624021884653,72.65408117176213,77.3405400155361,1.3330433755986526,0.003933637824335657,0.17647466652574761
2025-10-01T17:29:46+03:00,,,-42.999623087875584,8.80632,146.99805191876402,132.70275493024997,-1.200002806121996,4.41288,,-0.40107045659157625,-47.89927167293682,6.102000518143266,24.794212,59.471335,6.338913104484248,71.34430615199385,75.65374576677017,1.4115939441682825,0.00248474872309861,0.17895941524884623
2025-10-01T17:29:48+03:00,,,-44.00229922935453,8.90352,144.99842921375745,130.5025969969476,-0.5000202678106694,4.35456,,-0.6990085100596044,-49.69835914964761,5.500394833255903,24.794255,59.4713,6.515988222785244,71.66408985555961,73.33433935819784,1.3698899128529305,0.002479837280915818,0.18143925252976206
2025-10-01T17:29:50+03:00,,,-41.00000038286902,9.195120000000001,144.99842921375745,126.80128964040247,-2.9000258800546614,4.23792,,-0.40107045659157625,-54.597148298016144,5.798332886723932,24.794298,59.47127,6.609907419124106,65.8743720779612,79.12405713579625,1.7322020072743005,0.0022305585727436807,0.18366981110250574
2025-10-01T17:29:54+03:00,,,-31.99883342136378,8.90352,131.99801684223905,112.40286024876491,-3.9999902551468165,4.0629599999999995,,-0.6990085100596044,-69.09871009277728,8.30215845144563,24.794333,59.471163,5.86718442350781,53.526548407320476,78.47146843491858,2.4152275881932326,0.0024433848656366173,0.18611319596814235
2025-10-01T17:29:56+03:00,,,-27.99958801135063,9.50616,119.9945510342483,105.9971920992023,-3.2000265815851607,3.96576,,-0.8995437383553924,-74.90277255745252,9.001166961505232,24.794392,59.47114,6.286599234029612,45.22619268161151,74.7683583526368,2.7931234624119563,0.0022707850578072676,0.1883839810259496
2025-10-01T17:29:58+03:00,,,-27.99958801135063,10.1088,113.99568291922859,101.90054386401691,-1.5999846429028237,3.8296799999999998,,-0.8021409131831525,-78.70148273916988,7.797955591730505,24.794462,59.471125,6.963483044765394,42.9622769711176,71.03340594811098,2.802569645962273,0.002319703324413103,0.19070368435036272
2025-10-01T17:30:00+03:00,,,-24.997289164865123,9.992159999999998,105.21223991987307,99.20191264895072,-1.4000223724021665,4.0824,,-0.8995437383553924,-81.40011395423606,9.40223741809681,24.794531,59.471115,6.524370959418622,40.32930367395838,64.88293624591469,3.11216633312904,0.0021908501470947954,0.19289453449745753
2025-10-01T17:30:02+03:00,,,-22.000719896330917,9.992159999999998,109.99643750921543,97.90129845400378,-0.5000202678106694,4.00464,,-0.6016056848873644,-82.29965769259144,10.198648753328653,24.794592,59.471106,6.4558693516405325,35.437918861511946,74.55851864770348,3.2627573883479464,0.0019394899335900123,0.19483402443104753
2025-10-01T17:30:06+03:00,,,-24.000342601337486,10.692,100.9952705477102,95.09953483581404,-0.09998113525032865,3.9851999999999994,,-0.8995437383553924,-85.10142131078116,11.401860123103383,24.794737,59.471095,7.235260038715061,36.94645868756871,64.0488118601415,3.18496203906708,0.00393375413265609,0.19876777856370362
2025-10-01T17:30:08+03:00,,,-20.00109719132434,10.206,101.72865652547767,94.89899960751826,-0.2000195662801704,4.19904,,-0.8995437383553924,-85.30195653907695,9.797578296737077,24.794813,59.471088,6.422859473165313,32.92240023120766,68.80625629427001,3.5247054256394152,0.002358352438012427,0.20112613100171606
2025-10-01T17:30:12+03:00,,,-14.999175639832256,9.79776,98.99564784270365,94.60106155405022,-0.2000195662801704,3.6935999999999996,,-0.8021409131831525,-85.3993593642492,7.9984908200262925,24.795032,59.471137,6.302913672706704,23.722523628311137,75.27312421439251,3.3815074666651297,0.0021483852459566665,0.20327451624767273
2025-10-01T17:30:14+03:00,,,-14.999175639832256,10.4976,106.99986824068124,94.19999109745865,-0.2000195662801704,3.7713599999999996,,-0.8995437383553924,-86.20150027743236,9.602772646392598,24.795098,59.471131,6.923873074577235,23.103063487708738,83.8968047529725,3.4688988836264496,0.0020471991184738123,0.20532171536614655
2025-10-01T17:30:16+03:00,,,-14.002229076304623,10.808639999999999,103.99756939419571,93.90205304399062,1.200002806121996,3.7713599999999996,,-1.0026761414789407,-85.69729741771722,9.602772646392598,24.795165,59.471126,7.2073409791483956,21.275933644341535,82.72163574985417,3.5143181484577024,0.0020676737884356322,0.2073893891545822
2025-10-01T17:30:24+03:00,,,-22.000719896330917,10.1088,109.7500656573092,101.6026058105489,0.300000701530499,3.73248,,-0.8995437383553924,-78.5009475108741,9.29910501497326,24.795333,59.471015,6.793574054431022,33.878239717082465,75.87182594022673,3.098794663841194,0.001663685838947943,0.20905307499353012
2025-10-01T17:30:42+03:00,,,-29.999210716357208,9.89496,121.9999033172062,108.70155289221978,0.09998113525032865,3.51864,,-0.6990085100596044,-71.29886802607965,7.098947081670899,24.795877,59.470881,7.070085651486372,44.40773851737825,77.59216479982796,2.513639620842083,0.0022916156712693486,0.21134469066479947
2025-10-01T17:30:44+03:00,,,-29.999210716357208,10.206,118.99760447072069,108.79895571739203,0.300000701530499,3.46032,,-0.40107045659157625,-70.89779756948806,6.600473799907084,24.795929,59.470868,7.413947180413276,43.49418083515846,75.50342363556223,2.510269347614044,0.0017695980518845028,0.21311428871668398
2025-10-01T17:30:48+03:00,,,-31.99883342136378,9.50616,116.99798176571409,108.09994720733242,-0.09998113525032865,3.5964,,-0.8995437383553924,-72.1010089392628,7.0015442564986605,24.796103,59.470923,6.731595269495348,48.444364458312265,68.55361730740182,2.385661112073639,0.0018557721476063554,0.21497006086429032
2025-10-01T17:30:50+03:00,,,-29.002264152829575,9.195120000000001,117.99492832924174,106.59879778408965,0.09998113525032865,3.5575200000000002,,-0.6990085100596044,-73.60215836250555,9.700175471564837,24.796165,59.470908,6.323497700975367,44.8312631641692,73.16366516507254,2.5229439147924158,0.002096805826290652,0.21706686669058098
2025-10-01T17:30:54+03:00,,,-31.00188685783615,9.29232,113.99568291922859,107.09727106585349,0.600001403060998,3.6547199999999997,,-0.8995437383553924,-72.8000174493224,10.198648753328653,24.796208,59.47079,6.440894287168416,47.995262733329014,66.00042018589957,2.445709561503433,0.002014497395786499,0.21908136408636747
2025-10-01T17:30:56+03:00,,,-31.00188685783615,9.408959999999999,118.99760447072069,108.39788526080044,0.9999832398418258,3.86856,,-0.8021409131831525,-71.09833279778384,9.602772646392598,24.796268,59.470774,6.410556751167066,49.11087650046895,69.88672797025174,2.5323489993404626,0.002069093032547686,0.22115045711891515
2025-10-01T17:31:00+03:00,,,-33.00150956284272,9.195120000000001,119.9945510342483,115.19889428900332,3.099988150555319,3.96576,,-0.8021409131831525,-63.901982890940715,7.797955591730505,24.796448,59.470813,6.254055823842459,53.206206181736164,66.78834485251214,2.3752398464208713,0.001967243802839402,0.22311770092175456
2025-10-01T17:31:06+03:00,,,-37.9977015363835,9.00072,128.49151513603843,115.30202669212686,1.200002806121996,4.0824,,-0.8021409131831525,-64.19992094440875,9.998113525032863,24.796628,59.470745,6.306104269534551,61.484764448398494,67.00675068763994,1.948906856718715,0.0025137889655290294,0.2256314898872836
2025-10-01T17:31:08+03:00,,,-39.00037767786244,9.29232,127.99877143222591,116.20157043048223,0.3999818367808277,4.14072,,-0.6016056848873644,-63.901982890940715,11.000789666511807,24.796692,59.470718,6.609747710186854,62.21927976644068,65.77949166578523,1.929943863996469,0.002540175450328109,0.2281716653376117
2025-10-01T17:31:14+03:00,,,-31.99883342136378,10.303199999999999,121.1691145142665,106.902465415509,-0.9999832398418258,4.1212800000000005,,-1.3006141949469687,-73.49902595938201,15.49850835828877,24.796888,59.470638,7.149803855329089,49.783794016962304,71.38532049730419,2.6610021059220976,0.002478331466937589,0.2306499968045493
2025-10-01T17:31:16+03:00,,,-29.002264152829575,10.4004,116.99798176571409,105.40131599226623,-0.600001403060998,4.548959999999999,,-1.3006141949469687,-74.79964015432897,15.601640761412316,24.796955,59.470617,6.79005875481216,47.95684419845571,69.04113756725837,3.0463937558183334,0.002403826331392235,0.23305382313594156
2025-10-01T17:31:18+03:00,,,-29.999210716357208,11.00304,115.99530562423517,106.19772732749809,0.3999818367808277,4.21848,,-1.3006141949469687,-73.69956118767779,17.102790184655074,24.797015,59.470593,7.646356820227389,46.01143470223252,69.98387092200265,2.929796775271972,0.002331806415847159,0.2353856295517887
2025-10-01T17:31:20+03:00,,,-33.00150956284272,11.60568,120.99722717572726,104.30123702561507,-1.2999839413723246,4.393439999999999,,-1.3980170201192088,-76.30078957757173,17.498131063295343,24.797082,59.47057,8.274652646573333,49.81090017486741,71.18632700085985,2.835141172166733,0.0024690749143063432,0.23785470446609505
2025-10-01T17:31:26+03:00,,,-27.002641447823002,11.89728,116.68285497839217,103.4990961124319,1.2999839413723246,5.0544,,-1.7990874767107847,-76.0028515241037,17.89920151988692,24.797307,59.470513,7.741825802773846,44.24554302349864,72.43731195489353,3.620750886555617,0.0025863818325532572,0.2404410862986483
2025-10-01T17:31:28+03:00,,,-27.002641447823002,12.402719999999999,119.04917067228244,106.10032450232583,1.899985344433323,5.1127199999999995,,-1.1974817918234204,-73.20108790591398,17.60126346641889,24.797382,59.470492,8.18349946147504,43.481443945725715,75.56772672655673,3.7097756558716495,0.0026148628618319412,0.24305594916048023
2025-10-01T17:31:32+03:00,,,-27.002641447823002,12.908159999999999,125.07095709910742,109.69849945574742,0.6999825383113268,5.26824,,-1.598552248414997,-70.39932428772426,18.59821002994652,24.797525,59.470443,8.555410749632097,43.237959239033074,81.83299786007434,3.83799157719596,0.0038810422387385614,0.2469369913992188
2025-10-01T17:31:36+03:00,,,-22.99766645985855,12.091679999999998,120.75085532382099,106.10032450232583,1.4000223724021665,5.13216,,-1.598552248414997,-73.00055267761819,16.701719728063498,24.797646,59.470336,7.63539878779812,38.22242143502302,82.52843388879796,4.031901019137631,0.0032304170954431427,0.25016740849466196
2025-10-01T17:31:42+03:00,,,-52.00079004938082,9.70056,155.99921888026924,162.50228985500408,9.49998401794613,5.01552,,-0.8021409131831525,-13.99735893504601,6.199403343315507,24.797855,59.470275,7.703854406403195,82.86681280496535,73.13240607530389,0.622808416535372,0.0018372409605973768,0.25200464945525936
2025-10-01T17:31:44+03:00,,,-67.9977716894334,9.00072,174.99849936680735,178.0982010384651,9.19998331641563,5.151599999999999,,-0.6016056848873644,1.3006141949469687,6.399938571611295,24.797842,59.470228,8.532819010366369,102.03757730201924,72.96092206478811,-1.0743824686188017,0.002852812749048601,0.25485746220430794
2025-10-01T17:31:46+03:00,,,-80.99818406095179,8.70912,195.99740255835198,197.00007869983096,9.1000021811653,4.859999999999999,,-0.20053522829578813,20.90150036637243,2.498095986770389,24.7978,59.47019,9.28564105318268,112.12555795221087,83.87184460614111,-1.8304583603573603,0.002619483206797363,0.25747694541110533
2025-10-01T17:31:52+03:00,,,-110.99825421400169,6.006959999999999,239.11820621989776,227.89969259123623,2.7999874490248207,4.31568,,-0.49847328176381617,49.10248304271155,1.9996227050065731,24.797618,59.470123,8.560837156816335,139.0741715680113,100.04403465188645,-3.260747589496811,0.0024289600030596072,0.2599059054141649
2025-10-01T17:31:58+03:00,,,-117.99979847050034,4.393439999999999,247.99905204442555,236.59719192132215,0.6999825383113268,3.8491199999999997,,-0.6016056848873644,56.79730623131851,3.2028340747813018,24.797443,59.470077,7.0708052725206745,146.72761578639626,101.2714362580293,-3.218141017089726,0.002319764403382331,0.26222566981754725
2025-10-01T17:32:02+03:00,,,-134.00250968850426,4.80168,248.99599860795314,242.6991924394654,2.1000049107134933,3.81024,,-0.6016056848873644,63.901982890940715,1.501149423242757,24.797355,59.469982,7.936846410601541,154.20376019630004,94.7922384116531,-3.4305394210438895,0.00195323037371132,0.26417890019125856
2025-10-01T17:32:04+03:00,,,-144.99756977706474,3.7908,252.99524401796634,251.9008946292664,5.400012627548983,3.6352800000000003,,-0.29793805346802804,74.10063164426936,0.49847328176381617,24.79729,59.469973,7.082485433858359,162.12043173251362,90.87481228545272,-3.4597103246365744,0.002057121527089226,0.26623602171834776
2025-10-01T17:32:06+03:00,,,-168.0018252515673,3.402,261.99641097947153,263.1996223492463,5.199993061268812,3.402,,-0.49847328176381617,85.3993593642492,-0.6990085100596044,24.797226,59.469962,6.766738303637694,174.00091262578368,87.99549835368785,-3.3833691518188473,0.0020630070194610395,0.2682990287378088
2025-10-01T17:32:12+03:00,,,144.99842921375745,2.09952,290.9995345689938,291.1026669721174,5.199993061268812,3.42144,,-0.40107045659157625,112.99873635570096,-5.001921551492087,24.797034,59.46998,5.280395213249948,166.81672260920226,97.81625717819605,-3.3312696901014784,0.0020153705483771226,0.27031439928618595
2025-10-01T17:32:16+03:00,,,120.0002806121996,4.89888,311.9984377605385,300.4991748122628,-1.899985344433323,3.3242399999999996,,0.20053522829578813,119.79974538390384,-2.1027551081301215,24.796875,59.470126,7.164829923141354,143.6913789172816,95.68981667782009,-2.67880288593868,0.0020663169966436724,0.2723807162828296
2025-10-01T17:32:18+03:00,,,123.00257945868512,5.50152,308.99613891405295,297.10153508713705,-0.9999832398418258,3.34368,,0.20053522829578813,116.90057894054185,0.0,24.796821,59.470141,7.841296360355332,143.95636727040994,92.95250618446289,-2.70359646507484,0.0018792458093489176,0.2742599620921785
2025-10-01T17:32:20+03:00,,,120.99722717572726,5.69592,303.9999469405122,296.7978674557178,1.2999839413723246,3.3047999999999997,,-0.40107045659157625,117.10111416883765,-0.8995437383553924,24.796771,59.470155,7.921721535289843,141.9504233716462,85.95037031215838,-2.6024564416076927,0.0017432559355404712,0.276003218027719
2025-10-01T17:32:28+03:00,,,95.00213201064179,5.307119999999999,326.99847283706345,316.7998240837348,1.4000223724021665,3.14928,,0.0,137.4010088503227,-1.3006141949469687,24.796701,59.470143,6.402975868028224,124.34094439119978,91.33941722826324,-1.7765600136142443,0.0016768999308439789,0.27768011795856296
2025-10-01T17:32:30+03:00,,,90.0002104591497,4.80168,323.9961739905779,318.3009735069775,0.300000701530499,2.8576799999999998,,-0.29793805346802804,138.39795541385035,-2.200157933302361,24.796669,59.470167,5.587715687987273,120.75879666536264,84.75497065594055,-1.461489066533219,0.0017423402584607198,0.27942245821702366
2025-10-01T17:32:32+03:00,,,86.00096504913657,5.09328,325.9957966955845,319.2979200705052,1.5000035076524951,3.26592,,-0.20053522829578813,140.09964006538888,-1.7990874767107847,24.796633,59.470195,5.855561547721199,119.8073827215133,85.8031794170978,-1.623442360925238,0.0020101816492206,0.2814326398662443
2025-10-01T17:32:34+03:00,,,73.99749924114583,5.50152,333.3296564732591,322.90182460187805,1.200002806121996,3.2464799999999996,,0.20053522829578813,143.4972797905147,-2.6986312150661775,24.796604,59.47022,5.56406082509014,108.11302464359609,81.44268111685517,-1.009306269142088,0.001744180663863019,0.2831768205301073
2025-10-01T17:32:36+03:00,,,71.99787653613924,6.10416,334.99696365708974,322.7986921987545,-0.300000701530499,3.1687199999999995,,-0.09740282517223994,143.19934173704664,-1.701684651538545,24.796576,59.470247,5.945245809283534,102.45488214969296,77.45184580678267,-0.6834002433435706,0.0018343305030016212,0.2850111510331089
2025-10-01T17:32:42+03:00,,,76.99979808763133,6.6095999999999995,329.99504210559763,321.10273712516727,0.300000701530499,3.07152,,-0.20053522829578813,140.90178097857205,-3.0997016716577535,24.796488,59.47032,6.632285565859019,103.82347522691092,73.81851733250858,-0.733882360826923,0.0016929066229448976,0.28670405765605383
2025-10-01T17:32:44+03:00,,,80.00209693411685,6.7068,329.99504210559763,322.2028160918185,0.2000195662801704,3.44088,,-0.09740282517223994,142.29979799869125,-2.8017636181897254,24.796461,59.470347,6.986259718184892,109.01730028830728,79.01234239390493,-1.1212232593897273,0.001820298577165577,0.2885243562332194
2025-10-01T17:32:48+03:00,,,80.99904349764448,7.3094399999999995,331.5706760422074,323.6982359371099,0.3999818367808277,3.38256,,0.09740282517223994,144.29942070369782,-2.899166443361966,24.796381,59.470526,7.558653630943905,107.23044455480225,78.80112059700969,-1.001967049434037,0.001977443879134005,0.29050180011235344
2025-10-01T17:32:50+03:00,,,78.9994207926379,7.503839999999999,337.1111779211225,323.10235983017384,1.4000223724021665,3.6547199999999997,,-0.40107045659157625,143.39987696534246,-1.7990874767107847,24.796345,59.470551,7.694049083034056,106.7923811053913,83.90355902651379,-1.0558650360552482,0.0018618129937761558,0.29236361310612957
2025-10-01T17:32:52+03:00,,,67.00168456259847,7.40664,332.9973409520831,326.9010700118912,1.7000230739326654,3.6352800000000003,,-0.29793805346802804,147.39912237535557,-2.4006931615981495,24.796319,59.470576,6.858133754999683,96.20673653367568,69.20407748575877,-0.39303281204861107,0.0016995058950775208,0.2940631190012071
2025-10-01T17:32:58+03:00,,,43.99742908809592,5.20992,334.99696365708974,331.3987887036681,0.0,3.3242399999999996,,-0.29793805346802804,151.1004297319007,-3.2028340747813018,24.796246,59.470658,3.643656288416474,83.32347750902031,58.32044116611007,0.38648866107883156,0.00182365759359543,0.2958867765948025
2025-10-01T17:33:00+03:00,,,76.0028515241037,5.09328,340.4973584903456,330.09817450872123,0.300000701530499,3.47976,,0.0,150.09775359042175,-1.598552248414997,24.796225,59.470688,5.429234694933332,114.45782801671218,94.95518650705782,-1.4407019359898876,0.0019138404135035554,0.29780061700830607
2025-10-01T17:33:02+03:00,,,80.99904349764448,4.29624,341.9985079135884,331.1982534753724,0.8000209693411684,3.402,,-0.29793805346802804,151.7994382419603,-1.7990874767107847,24.796206,59.470717,5.045588943710339,122.75424433352715,104.75275224711555,-1.8406070984483984,0.0018371275853807398,0.2996377445936868
2025-10-01T17:33:04+03:00,,,69.00130726760504,5.20992,345.04091380573306,332.6994028986152,1.5999846429028237,3.5575200000000002,,-0.49847328176381617,153.10005243690728,-1.3006141949469687,24.796187,59.470746,5.149343509063875,109.16601539326608,94.20692919899915,-1.167956720809733,0.0018371274281801947,0.301474872021867
2025-10-01T17:33:06+03:00,,,67.00168456259847,5.09328,342.99545447711597,337.39765681868784,-0.5000202678106694,3.3242399999999996,,0.09740282517223994,157.39723590038847,-2.8017636181897254,24.796164,59.470775,4.87461064311664,105.88570477296719,88.88115925008316,-0.9099085025090646,0.0018792714174021828,0.3033541434392692
2025-10-01T17:33:08+03:00,,,69.00130726760504,4.393439999999999,346.9946998871292,333.50154381179834,-1.4000223724021665,3.44088,,-0.29793805346802804,152.89951720861148,-1.1974817918234204,24.796139,59.470805,4.506384664571407,114.46840158445757,101.46310147158675,-1.4251826954397395,0.0019581427544095296,0.30531228619367873
2025-10-01T17:33:10+03:00,,,88.99753431767077,3.9074399999999994,343.998130618595,332.6994028986152,0.2000195662801704,3.42144,,0.0,153.00264961173502,-1.701684651538545,24.796118,59.470836,5.148450602540082,130.63810079506334,114.63623141365832,-2.2283119425750306,0.0019705762428367237,0.3072828624365154
2025-10-01T17:33:14+03:00,,,91.99983316415629,6.901199999999999,342.99545447711597,324.7983149037611,-4.999973494988642,3.36312,,-0.29793805346802804,142.79827128045508,-2.4006931615981495,24.796143,59.470787,7.781838258316752,117.58881368534055,100.58426816245651,-1.5575382427856919,0.001905148194326957,0.3091880106308424
2025-10-01T17:33:16+03:00,,,105.00024553567467,7.698239999999999,310.7608489230559,312.101570163662,-9.4000028826958,3.47976,,-0.6016056848873644,128.6977799422855,-0.6016056848873644,24.79612,59.470822,9.2324619677404,126.35009769097184,77.11094661402774,-2.0625151058755926,0.0022178881403824018,0.3114058987712248
2025-10-01T17:33:18+03:00,,,118.00065790719304,7.40664,314.99500702907267,293.40022773059195,-8.29998121182413,3.36312,,-0.20053522829578813,110.00216708716675,3.300236899953542,24.796082,59.470851,9.463504908658543,136.2877223989427,91.28272942801539,-2.4309273173677837,0.002093967261085189,0.31349986603231
2025-10-01T17:33:20+03:00,,,135.00031568872456,6.39576,285.99761301750175,283.9979903124951,2.000023775463165,2.99376,,-0.40107045659157625,103.99756939419571,1.3980170201192088,24.79603,59.470868,8.771941922794264,148.96512195273445,74.96273497023617,-2.56521409130236,0.0018881292357587768,0.31538799526806877
2025-10-01T17:33:22+03:00,,,129.00144757370484,5.598719999999999,279.998744902482,295.19931520730273,10.699986824068125,2.7215999999999996,,-0.40107045659157625,118.69966641725263,-3.0997016716577535,24.795976,59.470875,7.611299475565816,145.13523741975916,65.13398232224114,-2.2330825857973124,0.0017016371663068075,0.3170896324343756
2025-10-01T17:33:24+03:00,,,101.99794668918915,5.90976,299.99497195254776,315.20127183531974,13.199973571562445,2.6632800000000003,,0.20053522829578813,139.49803438050154,-5.998868115019719,24.795931,59.470882,6.968644637091448,123.95007439525718,63.94504634780492,-1.4873627698366576,0.001436977647635268,0.3185266100820109
2025-10-01T17:33:26+03:00,,,86.00096504913657,8.30088,0.6990085100596044,333.5989466369705,6.9000161352014775,2.7993599999999996,,0.0,156.29715693373726,-4.898789148368539,24.795896,59.470899,8.573209583895125,105.01072063384649,105.70972914390609,-0.7250336109795088,0.0014785748061592443,0.32000518488817015
2025-10-01T17:33:28+03:00,,,80.00209693411685,8.70912,351.9966214386213,342.30217554500774,-0.300000701530499,3.09096,,-0.20053522829578813,162.89763073364438,-3.002298846485514,24.795882,59.470922,8.720991154808534,100.4310297338018,92.42765117242305,-0.5596238487219846,0.0014470559344338142,0.321452240822604
2025-10-01T17:33:30+03:00,,,78.9994207926379,8.203679999999999,348.9943225921357,342.30217554500774,1.200002806121996,3.3047999999999997,,-0.09740282517223994,162.30175462670832,-4.297183463481174,24.79587,59.470951,8.238645889063248,102.18827786965602,91.18260046179171,-0.6977253141951685,0.0017812154919560513,0.32323345631456
2025-10-01T17:33:32+03:00,,,73.99749924114583,7.892639999999999,351.9966214386213,344.30179825001426,2.3000244769936637,3.4992,,0.40107045659157625,164.19824492859135,-7.098947081670899,24.795856,59.47098,7.701349572396326,99.89453483210399,91.89115627072528,-0.6012855032476687,0.0017947720765769302,0.32502822839113693
2025-10-01T17:33:33+03:00,,,69.99825383113267,8.39808,0.9969465635276323,345.49928004183766,-0.6999825383113268,3.73248,,0.20053522829578813,165.49885912353832,-5.998868115019719,24.795848,59.471012,7.938240431983718,96.21889211108287,97.2158386746105,-0.4043289237068938,0.001938894968642883,0.3269671233597798
2025-10-01T17:33:35+03:00,,,69.99825383113267,8.203679999999999,5.998868115019719,343.09858688023957,-1.1000216708716675,3.71304,,0.29793805346802804,162.89763073364438,-4.400315866604722,24.795853,59.471041,7.762023887572069,96.71025820311209,102.70912631813181,-0.4338633472401125,0.0017497963713491431,0.32871691973112893
2025-10-01T17:33:41+03:00,,,73.00055267761819,8.00928,346.9946998871292,334.80215800674523,0.09998113525032865,4.14072,,0.29793805346802804,154.1027285783862,-4.400315866604722,24.795826,59.471149,7.867795178048095,103.21861949263742,90.21331937976657,-0.9468470280776398,0.0023357530826861733,0.3310526728138151
2025-10-01T17:33:45+03:00,,,63.999385716112954,8.30088,2.0282705947631143,345.2013419883697,2.1000049107134933,4.21848,,-0.09740282517223994,165.89992958012988,-7.500017538262475,24.795799,59.471342,7.483217097624405,94.44168836297823,96.46995895774134,-0.3266979163099815,0.002351348403258569,0.3334040212170737
2025-10-01T17:33:47+03:00,,,58.99746416462087,8.80632,1.088619810748564,347.40149992167204,0.3999818367808277,4.1212800000000005,,0.0,167.40107900337262,-4.102377813136695,24.795809,59.471382,7.559668878916677,86.85577631037715,87.94439612112572,0.22605021462450794,0.0024236182937665703,0.33582763951084027
2025-10-01T17:33:53+03:00,,,46.00278137105379,10.4976,14.994305498573642,9.29910501497326,1.899985344433323,4.00464,,-0.20053522829578813,-169.80177216497077,-4.698253920072751,24.795865,59.471492,8.236142642386895,66.476596371648,81.47090187022164,1.5983464437076613,0.002282513949977235,0.3381101534608175
2025-10-01T17:33:55+03:00,,,45.00010522957485,10.1088,22.998525896551243,14.10049133816956,0.3999818367808277,3.5575200000000002,,-0.29793805346802804,-165.20092107007028,-3.798710181717358,24.795894,59.471523,7.999097833564216,63.32949109711211,86.32801699366335,1.5968252464344113,0.0020630203297656168,0.34017317379058315
2025-10-01T17:33:57+03:00,,,46.99972793458143,9.992159999999998,24.99814860155782,14.398429391637588,0.600001403060998,3.9463199999999996,,-0.40107045659157625,-165.80252675495763,-4.698253920072751,24.795926,59.471557,7.850538494953897,68.56964365090904,93.56779225246686,1.4418670309685502,0.0022652097269239154,0.34243838351750705
2025-10-01T17:34:03+03:00,,,43.000482524568284,10.303199999999999,24.99814860155782,16.002711218003892,2.7000063137744914,3.6352800000000003,,-0.20053522829578813,-163.9977097002955,-5.099324376664327,24.796016,59.471648,8.036534742499173,60.969387406799555,85.96753600835737,1.7641172347738812,0.002008894687806902,0.34444727820531396
2025-10-01T17:34:05+03:00,,,39.998183678082775,10.5948,22.998525896551243,21.30257082296401,5.1000119260184835,3.73248,,-0.20053522829578813,-157.9014387601036,-7.9984908200262925,24.796056,59.471676,8.09896985026299,57.22907278983132,80.22759868638256,2.0203228348274718,0.0020794530281941412,0.3465267312335081
2025-10-01T17:34:07+03:00,,,41.00085981956171,10.808639999999999,34.996262126590686,30.298008206517935,-2.199986045963822,3.61584,,-0.09740282517223994,-148.6023337451303,-3.5007721282493303,24.796107,59.471702,8.420817968098714,57.36326835586452,92.3595304824552,1.9500614201948536,0.002206149281821742,0.3487328805153298
2025-10-01T17:34:09+03:00,,,48.00240407606037,9.50616,357.54285289548767,21.10203559466822,-13.600012704122785,3.5575200000000002,,-0.40107045659157625,-164.30137733171486,-4.497718691776963,24.796125,59.471735,7.600483122211796,68.3584680718046,65.90132096729224,1.312007762104591,0.002058284074022978,0.3507911645893528
2025-10-01T17:34:11+03:00,,,63.999385716112954,8.80632,341.7005698601203,354.70098223163876,-12.899972870031945,3.57696,,-0.49847328176381617,169.4007017083792,-6.199403343315507,24.796117,59.471765,7.920104363186231,87.94821546052194,69.64878532064222,0.12806497768309233,0.0018196996389282273,0.35261086422828103
2025-10-01T17:34:13+03:00,,,84.00134234412998,8.39808,315.4705619990313,325.1019825351804,-13.300012002592286,3.7908,,-0.29793805346802804,138.99956109873773,-4.102377813136695,24.796084,59.471792,8.84556251854503,109.22844475159684,64.69900675062814,-1.2484448092918794,0.0019102440630497772,0.3545211082913308
2025-10-01T17:34:17+03:00,,,82.00171963912342,6.39576,345.3503110151037,318.10043827868174,13.499974273092944,3.09096,,-0.09740282517223994,141.6981923138039,-9.998113525032863,24.796021,59.471719,6.705096426535198,109.16335583190379,94.51366684700753,-1.0146465440293593,0.0019557701010906223,0.3564768783924214
2025-10-01T17:34:19+03:00,,,67.99863112612611,7.40664,313.99806046554505,338.49773578533905,13.399993137842614,3.14928,,-0.09740282517223994,162.89763073364438,-11.000789666511807,24.795982,59.47174,6.877456846314943,93.12181801126238,47.11987847680746,-0.17150679055065984,0.0017352909815069781,0.3582121693739284
2025-10-01T17:34:21+03:00,,,56.00089489608667,8.49528,349.9969987336147,0.29793805346802804,9.000021045914972,3.0326400000000002,,0.40107045659157625,-175.8006402799905,-7.098947081670899,24.795975,59.471771,7.249430353731544,76.29342166683182,66.29042040044652,0.7185831125222749,0.0018755565698969324,0.3600877259438253
2025-10-01T17:34:25+03:00,,,39.998183678082775,8.70912,29.994340575098594,23.600131581438607,0.0,2.93544,,-0.09740282517223994,-156.6008245651566,-5.798332886723932,24.796082,59.471943,6.73026990055092,56.27894164531449,86.27328222041308,1.6296099986081352,0.0016220282104872292,0.36170975415431256
2025-10-01T17:34:27+03:00,,,43.000482524568284,8.59248,30.99701671657754,24.797613373262028,0.300000701530499,2.93544,,0.20053522829578813,-154.80173708844583,-6.302535746439056,24.796108,59.471972,6.749397482620303,60.25498376744393,91.25200048402147,1.4563920875175922,0.001915375368739961,0.36362512952305254
2025-10-01T17:34:35+03:00,,,41.99780638308934,8.59248,29.994340575098594,24.098604863202425,1.1000216708716675,3.1687199999999995,,0.29793805346802804,-155.2028075450374,-6.801009028202872,24.796134,59.471945,6.5880689938832155,60.771062682893884,90.76540325799247,1.5472874572779567,0.001713965307899567,0.3653390948309521
2025-10-01T17:34:39+03:00,,,39.998183678082775,9.097919999999998,32.440870360307215,28.498920729807146,-0.3999818367808277,3.05208,,-0.09740282517223994,-151.5989030136645,-5.202456779787875,24.796255,59.47211,7.038736308830525,56.18140285628961,88.62227321659682,1.698681846111376,0.001500762745609387,0.3668398575765615
2025-10-01T17:34:43+03:00,,,33.99931556306306,9.00072,37.998560973076195,30.0000701530499,-0.09998113525032865,3.1687199999999995,,-0.09740282517223994,-150.49882404701333,-7.500017538262475,24.796268,59.472034,6.615421392425887,49.53526896714499,87.53382994022118,2.0564354306881563,0.001653866191932664,0.36849372376849415
2025-10-01T17:34:45+03:00,,,35.99893826806962,9.00072,36.99588483159726,28.000447448043335,-0.6999825383113268,3.12984,,0.0,-152.40104392684768,-7.901087994854052,24.796306,59.472056,6.72509565471181,51.874356409172265,88.87024124076953,1.9323257141752936,0.0017591997833330398,0.3702529235518272
2025-10-01T17:34:47+03:00,,,37.998560973076195,9.00072,35.99893826806962,26.098227568209,0.600001403060998,3.07152,,-0.09740282517223994,-154.20013140355846,-7.2020794847944485,24.79634,59.472079,6.846591932870414,54.031464894493894,90.03040316256352,1.8040292568157437,0.0017288394919737196,0.37198176304380093
2025-10-01T17:34:49+03:00,,,35.00199170454199,8.70912,32.996639421584106,26.997771306564392,2.199986045963822,3.2076,,0.40107045659157625,-152.2005086985519,-9.001166961505232,24.796374,59.472107,6.353892242614203,51.834192222220594,84.8308316438047,1.9821021369166187,0.0019774183781880346,0.373959181421989
2025-10-01T17:34:51+03:00,,,31.999692858056477,9.195120000000001,33.99931556306306,31.799157629760693,6.30001473214048,3.09096,,-0.09740282517223994,-145.89797295211284,-7.597420363434716,24.796407,59.472138,6.774812565967991,45.99071284631074,79.99002840937379,2.1475216107801396,0.0021183043273612333,0.3760774857493502
2025-10-01T17:34:53+03:00,,,20.00195662801704,9.408959999999999,48.999350639587995,48.00240407606037,3.9000091198964877,3.07152,,-0.09740282517223994,-129.20198280200063,-6.600473799907084,24.796436,59.472161,6.606781692743292,29.152061262361542,78.15141190194953,2.682450433814362,0.0016417168018580462,0.3777192025512082
2025-10-01T17:34:55+03:00,,,22.001579333023614,9.097919999999998,54.99821875460771,50.998973344594575,-2.6000251785241626,2.7215999999999996,,0.20053522829578813,-129.5973236806409,-3.798710181717358,24.796484,59.47218,6.653116154936879,30.81697218992022,85.81519094452793,2.3373323470566225,0.0018579783810045967,0.3795771809322128
2025-10-01T17:34:57+03:00,,,20.00195662801704,8.39808,57.99478802314193,48.70141258611997,-4.299990956677315,2.89656,,-0.29793805346802804,-132.5996225271264,-4.497718691776963,24.79653,59.472194,5.762057793828447,29.90306095205591,87.89784897519783,2.510941305064111,0.0016372817252965058,0.3812144626575093
2025-10-01T17:34:59+03:00,,,26.00082474303676,8.203679999999999,54.99821875460771,39.29917516802316,-0.9000021045914972,2.8576799999999998,,-0.09740282517223994,-141.60078948863168,-4.60085109490051,24.796572,59.472206,5.772802945892417,38.53435664428392,93.53257539889162,2.235376553625461,0.00147128502358971,0.38268574768109903
2025-10-01T17:35:01+03:00,,,20.99890319154467,8.30088,32.996639421584106,40.80032459126592,1.8000042091829944,2.6632800000000003,,-0.40107045659157625,-138.5010878169739,-5.500394833255903,24.796603,59.472223,5.892281466150686,30.32029944733256,63.316938868916665,2.2989878958851033,0.001392835598082771,0.3840785832791818
2025-10-01T17:35:03+03:00,,,24.001202038030186,8.203679999999999,39.998183678082775,39.29917516802316,-1.5000035076524951,3.0132,,-0.09740282517223994,-141.6981923138039,-5.397262430132355,24.796629,59.472239,5.587101304448242,36.67317373476294,76.67135741284571,2.416753236130883,0.001247030120265098,0.38532561339944693
2025-10-01T17:35:09+03:00,,,33.00236899953541,8.80632,35.99893826806962,24.20173726632597,0.8000209693411684,2.4299999999999997,,0.20053522829578813,-156.29715693373726,-7.700552766558264,24.796719,59.472285,6.896601552771039,44.06689625149946,80.06583451956908,1.7460236596559275,0.0012228352520281664,0.3865484486514751
2025-10-01T17:35:15+03:00,,,39.998183678082775,9.097919999999998,21.995849755072307,23.600131581438607,0.5000202678106694,2.7799199999999997,,0.0,-156.49769216203305,-7.797955591730505,24.796773,59.472349,7.193765525888643,54.380208020833095,76.3760577759054,1.6190359968438501,0.001546713608938105,0.3880951622604132
2025-10-01T17:35:17+03:00,,,39.998183678082775,8.80632,36.64065099861614,23.30219352797058,0.0,2.64384,,0.09740282517223994,-156.8013597934524,-8.399561276617868,24.796799,59.472376,6.9906617658939245,54.06719929880967,90.70785029742581,1.5515004729237516,0.0018066540028183677,0.38990181626323156
2025-10-01T17:35:19+03:00,,,37.998560973076195,9.195120000000001,28.997394011570965,23.399596353142822,0.09998113525032865,2.5272,,0.0,-156.29715693373726,-6.89841185337511,24.796824,59.472403,7.3697226127460365,50.186188882627164,79.18358289419812,1.6181532086655253,0.0017934479522339905,0.3916952642154656
2025-10-01T17:35:21+03:00,,,35.99893826806962,8.80632,32.996639421584106,24.499675319793997,0.3999818367808277,2.7021599999999997,,0.09740282517223994,-155.30021037020964,-6.801009028202872,24.796849,59.472421,6.8080501506597555,49.4897774677776,82.4864168893617,1.755279110318067,0.0013240902775213546,0.3930193544929869
2025-10-01T17:35:23+03:00,,,35.99893826806962,9.00072,35.99893826806962,25.301816232977153,0.0,2.7215999999999996,,-0.20053522829578813,-154.49806945702647,-6.199403343315507,24.796875,59.47244,6.984525116046291,49.23899099354517,85.2379292616148,1.7769470686483548,0.0013908397190124885,0.3944101942119994
2025-10-01T17:35:29+03:00,,,39.00123711455514,9.097919999999998,31.999692858056477,23.502728756266368,-0.2000195662801704,2.50776,,-0.20053522829578813,-157.0018950217482,-8.697499330085895,24.796954,59.472495,7.321190946112132,51.450186778579905,83.44987963663638,1.562823002964962,0.0012666810209345995,0.395676875232934
