time,dpt,mtw,awa,aws,cog,hdg,rot,sog,stw,pitch,yaw,roll,lng,lat,tws,twa,twd,vmg,dist,cum_dist
2025-09-05T17:03:37+03:00,,287.15,41.99780638308934,17.496,359.3705882619549,340.60049089346916,-0.6999825383113268,6.62904,6.492959999999999,-0.29793805346802804,160.89800802863775,-17.200193009827313,24.78253,59.479882,13.329136077267796,61.434651741553694,60.80524000350857,3.169746922165075,0.0036127874022655946,0.0036127874022655946
2025-09-05T17:03:39+03:00,,287.15,43.000482524568284,17.107200000000002,0.9969465635276323,338.49773578533905,0.6999825383113268,6.78456,6.5124,-0.8021409131831525,158.6978500953354,-19.297218540006124,24.782533,59.479943,12.996884278537323,63.85621666886337,64.853163232391,2.9894486567458585,0.0036677141050566542,0.007280501507322248
2025-09-05T17:03:41+03:00,,287.15,43.000482524568284,17.496,0.2119943841984046,338.19979773187106,-0.2000195662801704,7.03728,6.62904,0.6990085100596044,157.09929784692042,-19.19981571483389,24.782533,59.480008,13.249150420465257,64.23870061163268,64.45069499583109,3.0585628800883984,0.003907001566108088,0.011187503073430336
2025-09-05T17:03:43+03:00,,287.15,43.99742908809592,17.398799999999998,358.9981656951199,337.2028511683434,2.199986045963822,6.78456,6.7068,0.20053522829578813,157.50036830351198,-18.90187766136586,24.782533,59.480072,13.375903323964351,64.62732555343833,63.625491248558205,2.9072128973532743,0.0038468938509887743,0.015034396924419111
2025-09-05T17:03:45+03:00,,287.15,43.000482524568284,17.496,1.9996227050065731,340.19942043687763,1.2999839413723246,6.82344,6.6679200000000005,-0.6016056848873644,161.00114043176134,-19.19981571483389,24.782542,59.480133,13.343480056752142,63.41171959893269,65.41134230393926,3.0540092312805465,0.00367684842124634,0.01871124534566545
2025-09-05T17:03:47+03:00,,287.15,41.99780638308934,18.00144,6.858304807715954,342.60011359847573,-0.2000195662801704,6.940079999999999,6.78456,0.49847328176381617,162.19862222358475,-19.698288996597704,24.782555,59.480193,13.657446853746206,61.87508437743192,68.73338918514787,3.271522051714456,0.0036282288128557413,0.02233947415852119
2025-09-05T17:03:49+03:00,,287.15,41.99780638308934,17.496,5.998868115019719,341.7005698601203,-0.3999818367808277,6.804,6.804,0.29793805346802804,161.6027461166487,-18.90187766136586,24.782568,59.480257,13.246368367209278,62.09931781465967,68.09818592967939,3.183866050750932,0.0038673066567707936,0.026206780815291986
2025-09-05T17:03:51+03:00,,287.15,41.00085981956171,17.3016,6.995814678547352,341.5974374569968,0.600001403060998,6.454079999999999,6.7068,-0.29793805346802804,162.39915745188054,-20.09935945318928,24.782575,59.480317,13.132099796596481,59.811485026629356,66.8072997051767,3.245412773512515,0.0036127872387460933,0.029819568054038077
2025-09-05T17:03:53+03:00,,287.15,41.00085981956171,17.496,7.608879519337332,339.50041192681795,1.200002806121996,6.9984,6.648479999999999,-0.09740282517223994,159.5973938336908,-22.2021145613194,24.782583,59.480379,13.048781561027107,61.602445118046504,69.21132463738384,3.3283457465496054,0.0037346706185847106,0.03355423867262279
2025-09-05T17:03:55+03:00,,287.15,39.998183678082775,17.80704,8.995437383553925,339.9988852085818,-2.400005612243992,6.7068,6.648479999999999,-0.49847328176381617,159.90106146511013,-23.30219352797058,24.782592,59.480438,13.382535978609928,58.789829641356306,67.78526702491023,3.4753218019172727,0.0035569801700551826,0.03711121884267797
2025-09-05T17:03:57+03:00,,287.15,46.00278137105379,16.893359999999998,3.9992454100131463,333.39841140867475,-3.9999902551468165,6.82344,6.59016,-0.29793805346802804,151.5015001884923,-22.797990668255455,24.782672,59.480424,13.107452253486455,67.9955401372984,71.99478554731155,2.556598062783171,0.0025828988569286636,0.03969411769960664
2025-09-05T17:03:59+03:00,,287.15,54.00127219108009,16.50456,351.9966214386213,327.697481347123,-3.30000771683549,7.29,6.5124,0.20053522829578813,146.49957863700018,-21.801044104727822,24.782661,59.48049,13.568579385373697,79.76545055832416,71.76207199694545,1.295273928761552,0.003981293536653907,0.04367541123626054
2025-09-05T17:04:01+03:00,,287.15,60.0001403060998,16.50456,347.9973760286081,322.90182460187805,0.2000195662801704,6.9984,6.47352,-0.09740282517223994,142.99880650875087,-21.10203559466822,24.782637,59.480553,14.348277965004156,84.98673112812045,72.98410715672856,0.6115652942945738,0.0038569984589139554,0.0475324096951745
2025-09-05T17:04:09+03:00,,287.15,58.99746416462087,17.107200000000002,344.9950771821226,321.40067517863525,0.0,7.63992,6.940079999999999,-1.501149423242757,141.19971903204006,-21.697911701604276,24.782503,59.480821,14.710072460511062,85.43182131386567,70.42689849598827,0.6084838293003244,0.003918470194911066,0.051450879890085566
2025-09-05T17:04:13+03:00,,287.15,61.99976301110639,17.3016,339.9988852085818,321.10273712516727,-1.8000042091829944,7.23168,6.97896,0.20053522829578813,140.59811334715272,-18.79874525824231,24.782428,59.480954,15.302333920850506,86.66201295423218,66.66089816281396,0.42107117708459346,0.004066964042310326,0.055517843932395894
2025-09-05T17:04:15+03:00,,287.15,65.0020618575919,16.50456,342.99545447711597,319.2979200705052,1.5999846429028237,6.97896,6.92064,-0.8995437383553924,139.80170201192087,-18.79874525824231,24.782387,59.481017,14.958462886604483,90.01673789289445,73.01219237001044,-0.0020387729135702194,0.003988229886155058,0.05950607381855095
2025-09-05T17:04:21+03:00,,287.15,67.00168456259847,16.19352,338.9962090671029,320.19746380886056,0.8000209693411684,7.5816,6.88176,-0.20053522829578813,140.3001752936847,-18.397674801650734,24.782246,59.481208,14.959113993972787,94.81145230171478,73.80766136881766,-0.6359220225856348,0.0012572428585231217,0.06076331667707407
2025-09-05T17:04:25+03:00,,287.15,67.00168456259847,16.19352,335.00842281299236,320.19746380886056,-2.7000063137744914,7.36776,6.95952,0.09740282517223994,139.10269350186127,-18.197139573354946,24.782153,59.481337,14.942697141053703,93.99437302249532,69.00279583548769,-0.5132271346889169,0.0012798554836775285,0.0620431721607516
2025-09-05T17:04:27+03:00,,287.15,67.99863112612611,16.407359999999997,335.43814115934043,319.80212293022026,0.2000195662801704,7.056719999999999,6.84288,-0.40107045659157625,140.20277246851245,-17.89920151988692,24.782104,59.481397,15.23968896129598,93.42350418673303,68.86164534607349,-0.42139818793107475,0.003904304618111223,0.06594747677886283
2025-09-05T17:04:29+03:00,,287.15,69.99825383113267,15.99912,333.12912124496324,317.6019649969179,-2.000023775463165,7.056719999999999,6.804,-0.8021409131831525,137.20047362202695,-15.097437901697193,24.782055,59.481459,15.117328693193704,96.01543212679908,69.1445533717623,-0.7395183254871079,0.004015612436646763,0.06996308921550959
2025-09-05T17:04:31+03:00,,287.15,71.00092997261162,15.610319999999998,330.99771824707665,317.69936782209015,0.6999825383113268,7.13448,6.78456,-0.29793805346802804,138.00261453521009,-16.701719728063498,24.782001,59.481518,14.901955443334392,97.9167071090347,68.91442535611134,-0.9826559512437529,0.003910685689214632,0.07387377490472422
2025-09-05T17:04:33+03:00,,287.15,69.99825383113267,14.79384,333.9942875156107,318.197841103854,0.9000021045914972,7.1928,6.84288,-0.20053522829578813,138.59849064214615,-17.801798694714677,24.781945,59.481578,14.064133305645555,98.72156627230108,72.71585378791178,-1.0906649868376102,0.0039910355872754,0.07786481049199961
2025-09-05T17:04:37+03:00,,287.15,69.99825383113267,15.007679999999999,337.99926250357527,317.0003593120306,1.200002806121996,7.270560000000001,6.72624,-0.8995437383553924,138.19742018555456,-14.197894163341799,24.781748,59.481751,14.263474942494712,98.61750109361454,76.61676359718979,-1.0894014709482531,0.003965269818489138,0.08183008031048875
2025-09-05T17:04:39+03:00,,287.15,71.00092997261162,14.502239999999999,336.99658636209637,317.29829736549857,2.499986747494321,7.07616,6.72624,-0.8995437383553924,137.89948213208652,-14.197894163341799,24.78169,59.481813,13.912959284390777,99.74482829128414,76.7414146533805,-1.1977146880069682,0.004125809550265285,0.08595588986075403
2025-09-05T17:04:41+03:00,,287.15,67.99863112612611,14.40504,339.9988852085818,320.7016666685756,1.2999839413723246,7.1928,6.7068,-1.3980170201192088,140.90178097857205,-16.99965778153153,24.781642,59.481874,13.47624034479083,97.65979281435966,77.65867802294144,-0.9587335787965706,0.003948458460756089,0.08990434832151012
2025-09-05T17:04:42+03:00,,287.15,69.99825383113267,13.8996,342.99545447711597,317.9973058755582,-2.499986747494321,6.97896,6.7068,-1.1000789666511805,137.20047362202695,-13.498885653282196,24.781591,59.481932,13.24930368331881,99.66600913302256,82.66146361013853,-1.1717993396701825,0.003818010607992577,0.0937223589295027
2025-09-05T17:04:44+03:00,,287.15,73.99749924114583,14.59944,337.99926250357527,315.4992098887878,-2.7000063137744914,6.84288,6.648479999999999,-0.09740282517223994,133.9002367220734,-9.900710699860626,24.781654,59.481947,14.313864146995371,101.3545806199277,79.353843123503,-1.347227583109881,0.0021238444961513185,0.09584620342565402
2025-09-05T17:04:48+03:00,,287.15,82.99866620265107,13.00536,321.9965512855714,313.4995871837812,-1.200002806121996,6.6679200000000005,6.76512,-0.09740282517223994,133.40176344030957,-10.101245928156414,24.781505,59.482052,13.87298945461708,111.49199763255697,73.48854891812834,-2.442934344700964,0.001986714536843702,0.09783291796249771
2025-09-05T17:04:55+03:00,,287.15,86.00096504913657,11.80008,319.68180179324287,310.1019474586555,0.300000701530499,6.804,6.648479999999999,-0.40107045659157625,129.90099131206026,-6.89841185337511,24.781128,59.482233,13.2037048657226,116.93529244374818,76.61709423699108,-3.0821027507968446,0.003876161536288651,0.10170907949878637
2025-09-05T17:04:57+03:00,,287.15,86.00096504913657,11.10024,319.99692858056477,311.5973673039469,0.9000021045914972,6.88176,6.57072,0.0,131.99801684223905,-7.700552766558264,24.781043,59.48228,12.645917722987543,118.87973379401708,78.87666237458188,-3.323702143963935,0.0038356459540160523,0.10554472545280241
2025-09-05T17:04:59+03:00,,287.15,86.00096504913657,11.00304,319.99692858056477,312.6000434454258,0.8000209693411684,6.6095999999999995,6.5124,-0.40107045659157625,132.80015775542222,-7.9984908200262925,24.780963,59.482326,12.43422572982198,118.02472012320584,78.02164870377061,-3.105536850329988,0.0036888406909791126,0.10923356614378152
2025-09-05T17:05:01+03:00,,287.15,82.99866620265107,11.29464,320.9996047220437,314.3017280969644,1.2999839413723246,6.47352,6.39576,-1.1974817918234204,135.00031568872456,-8.800631733209444,24.781001,59.482346,12.314656240342414,114.44879811768138,75.44840283972508,-2.6792597978670627,0.0016704721484051383,0.11090403829218666
2025-09-05T17:05:03+03:00,,287.15,80.00209693411685,11.39184,321.9965512855714,314.5022633252602,0.5000202678106694,6.59016,6.35688,-0.6016056848873644,134.7997804604288,-7.597420363434716,24.780931,59.482393,12.12999158171566,112.3490109497486,74.34556223532002,-2.5058915170283345,0.003542040877543441,0.1144460791697301
2025-09-05T17:05:05+03:00,,287.15,80.00209693411685,11.89728,324.9988501320569,314.702798553556,-0.300000701530499,6.53184,6.337439999999999,-0.8021409131831525,134.50184240696075,-5.099324376664327,24.780863,59.482439,12.539019697899146,110.86666034160724,75.86551047366413,-2.3266044227236713,0.0034572971692687316,0.11790337633899883
2025-09-05T17:05:07+03:00,,287.15,80.99904349764448,11.80008,320.9996047220437,314.1011928686686,-0.3999818367808277,6.492959999999999,6.27912,-0.8995437383553924,133.80283389690115,-5.202456779787875,24.780788,59.482487,12.54697860602257,111.73746340441764,72.7370681264614,-2.404695010248253,0.003683028417864581,0.12158640475686341
2025-09-05T17:05:09+03:00,,287.15,76.0028515241037,11.39184,319.99692858056477,312.8979814988939,0.0,6.6095999999999995,6.2208000000000006,-0.6990085100596044,132.89756058059447,-3.2028340747813018,24.780707,59.482534,11.706273528845255,109.22286609111349,69.21979467167824,-2.176167906080397,0.0037541270123663062,0.1253405317692297
2025-09-05T17:05:11+03:00,,287.15,78.9994207926379,10.692,316.9946297340793,314.5022633252602,1.8000042091829944,6.35688,6.14304,-0.6016056848873644,135.4987889704884,-6.102000518143266,24.780629,59.48258,11.348555768349076,112.35657023507353,69.35119996915284,-2.4179630642865866,0.0036487064160162686,0.128989238185246
2025-09-05T17:05:15+03:00,,287.15,80.99904349764448,11.00304,323.9961739905779,318.5015087352734,4.599991658207815,5.851439999999999,6.08472,-0.20053522829578813,139.40063155532928,-11.201324894807593,24.78038,59.482704,11.6258539128612,110.80834159427276,74.80451558485066,-2.0786834411243253,0.0034173997903102753,0.13240663797555627
2025-09-05T17:05:17+03:00,,287.15,76.0028515241037,11.197439999999999,336.56113843779684,321.6012104069311,0.6999825383113268,6.27912,6.14304,-0.29793805346802804,141.80132471692744,-12.301403861458775,24.780441,59.48271,11.43668267347941,108.19303610786662,84.75417454566343,-1.9604634173618156,0.0018964857318064419,0.13430312370736272
2025-09-05T17:05:21+03:00,,287.15,73.00055267761819,13.10256,333.9942875156107,325.89839387041224,1.200002806121996,6.006959999999999,6.1236,-0.09740282517223994,147.30171955018335,-9.001166961505232,24.780358,59.48281,12.71766332463073,99.85302011177502,73.84730762738576,-1.027918795271955,0.0025511328923667233,0.13685425659972944
2025-09-05T17:05:23+03:00,,287.15,67.99863112612611,13.19976,328.99809554207,326.7005347835954,1.899985344433323,6.337439999999999,6.1236,-0.8021409131831525,146.90064909359177,-8.898034558381685,24.780315,59.48286,12.317443221258593,96.4909003676769,65.4889959097469,-0.7164185329658815,0.0032794684514721065,0.14013372505120156
2025-09-05T17:05:27+03:00,,287.15,56.00089489608667,13.296959999999999,335.9996397985687,336.69864830862826,10.900006390348295,6.39576,6.1624799999999995,0.29793805346802804,158.1993768135716,-18.197139573354946,24.78022,59.482972,11.072709996554591,84.6124770060748,60.612116804643506,0.600507581266826,0.002301768846791081,0.14243549389799265
2025-09-05T17:05:31+03:00,,287.15,35.00199170454199,16.79616,36.99588483159726,16.39805209664416,10.500024553567467,5.773680000000001,5.890319999999999,0.29793805346802804,-156.6008245651566,-5.500394833255903,24.780252,59.483071,12.512978453460553,50.3493424575058,87.34522728910306,3.6842139770860522,0.0024232166700296704,0.14485871056802233
2025-09-05T17:05:33+03:00,,287.15,18.999280486538098,16.31016,39.998183678082775,43.20101775286407,9.19998331641563,4.97664,5.598719999999999,-0.40107045659157625,-132.19855207053484,-5.998868115019719,24.780316,59.483104,11.717188397776255,26.947232727503206,66.94541640558597,4.436297602193882,0.002783946186911523,0.14764265675493385
2025-09-05T17:05:35+03:00,,287.15,7.0015442564986605,15.70752,65.99900842111953,67.79809589783031,9.799984719476626,4.101839999999999,5.22936,0.20053522829578813,-107.09727106585349,-3.002298846485514,24.780379,59.483122,11.64700521597058,9.4619705333387,75.46097895445823,4.046034191464046,0.0022063860274387655,0.14984904278237263
2025-09-05T17:05:37+03:00,,287.15,-7.997631383333596,14.91048,84.99828890765764,92.4983064459201,10.000004285756797,3.9074399999999994,4.87944,-0.40107045659157625,-82.59759574605948,-2.8017636181897254,24.780455,59.483142,11.054420776784669,10.81654467084249,74.18174423681515,3.8380169110620934,0.0026126863667254394,0.15246172914909806
2025-09-05T17:05:39+03:00,,287.15,-20.00109719132434,14.30784,105.9971920992023,111.698122160754,8.100018941323475,3.12984,4.60728,-1.701684651538545,-65.79847319282375,5.2998596049601145,24.780517,59.483128,11.417072753282365,25.381353631865096,80.6158384673372,2.827731686639826,0.00207104509149407,0.15453277424059214
2025-09-05T17:05:40+03:00,,287.15,-31.99883342136378,12.908159999999999,139.9506710386549,120.20081584049541,4.999973494988642,4.0629599999999995,4.41288,-1.598552248414997,-59.19799939291665,11.60239535139917,24.780552,59.483102,9.70436856162413,44.816890915625635,95.13378012302925,2.8821134053671655,0.0018930303844955278,0.15642580462508768
2025-09-05T17:05:43+03:00,,287.15,-46.0019219343611,13.00536,150.0576465447626,125.30014021715974,4.599991658207815,4.6655999999999995,4.45176,-0.8021409131831525,-53.302263681020484,13.602018056405743,24.780594,59.483068,10.325185057692872,64.9708728754271,85.0867736693355,1.9739171097774006,0.0024124495878149388,0.15883825421290262
2025-09-05T17:05:45+03:00,,287.15,-57.00271160087291,13.10256,153.99959617526267,130.59999982211983,3.8000279846461584,4.41288,4.60728,-2.1027551081301215,-48.397744954700634,14.799499848229162,24.780628,59.483031,11.32135562565944,76.08405402956974,77.91554214569292,1.0612896657925481,0.0024541909234428428,0.16129244513634547
2025-09-05T17:05:47+03:00,,287.15,-65.0012024208992,13.19976,162.8517941100339,133.000692983718,1.899985344433323,5.2488,4.7628,-0.8995437383553924,-46.30071942452182,12.89727996839483,24.780665,59.482988,11.967696656011858,88.42274540219111,74.42904870784278,0.14447221828376935,0.0028205848943681534,0.16411303003071362
2025-09-05T17:05:49+03:00,,287.15,-67.9977716894334,13.608,163.9977097002955,133.49916626548182,0.600001403060998,5.07384,4.957199999999999,-1.3980170201192088,-46.39812224969406,11.900333404867197,24.780707,59.482944,12.616943024353262,89.88966195706362,74.10804774323188,0.00977100293421605,0.002939050169874836,0.16705208020058845
2025-09-05T17:05:51+03:00,,287.15,-69.00044783091235,13.802399999999999,161.99808699528896,136.39833270884378,1.5000035076524951,5.326560000000001,5.151599999999999,-0.6016056848873644,-42.59941206797671,7.700552766558264,24.780742,59.4829,12.89130056005948,91.69060219420095,70.30748480108801,-0.157145735006089,0.002852346125435588,0.16990442632602404
2025-09-05T17:05:53+03:00,,287.15,-69.99739439443997,14.21064,167.41826773722656,140.50071052198047,1.5999846429028237,5.42376,5.307119999999999,-1.1000789666511805,-38.898104711431586,7.700552766558264,24.780772,59.482852,13.36526843439136,92.41350818705692,75.00475955016964,-0.22840108604283846,0.003026989607677616,0.17293141593370165
2025-09-05T17:05:55+03:00,,287.15,-71.00007053591892,13.7052,170.9992539567942,142.3972008238635,1.1000216708716675,5.22936,5.48208,-0.6990085100596044,-37.70062291960817,10.599719209920229,24.780766,59.482809,12.981229342976512,93.3890773326286,77.6101766241656,-0.3091392198881716,0.002591111726555812,0.17552252766025747
2025-09-05T17:05:57+03:00,,287.15,-71.00007053591892,12.79152,163.40756317131078,137.4010088503227,-1.200002806121996,5.42376,5.5598399999999994,-1.1974817918234204,-43.99742908809592,12.79987714322259,24.780791,59.482757,12.160003928228045,95.94408196619882,67.46348120511196,-0.5616726870462437,0.0032173978377819964,0.17873992549803946
2025-09-05T17:05:59+03:00,,287.15,-69.00044783091235,13.39416,166.99427896882975,132.5022197019542,-1.8000042091829944,5.7348,5.57928,-1.902219879834333,-47.60133361946879,13.602018056405743,24.780823,59.482707,12.539460206163294,94.27556532779111,72.71871364103863,-0.42754915363432466,0.0031601156396318312,0.1819000411376713
2025-09-05T17:06:01+03:00,,287.15,-67.9977716894334,13.608,164.99465626382317,130.59999982211983,-1.5000035076524951,5.5598399999999994,5.6181600000000005,-1.7990874767107847,-50.29996483453497,14.799499848229162,24.780857,59.482653,12.625364564465272,92.09574309735073,72.89891316647244,-0.20332035502979431,0.003407681187489213,0.18530772232516052
2025-09-05T17:06:03+03:00,,287.15,-65.99814898442683,13.9968,159.99846429028239,129.7978589089367,0.2000195662801704,5.598719999999999,5.6376,-1.902219879834333,-50.597902888003,14.598964619933378,24.780894,59.482605,12.786879848485691,89.57564161098372,70.42282267929866,0.04146626677328721,0.003098324462970297,0.1884060467881308
2025-09-05T17:06:05+03:00,,287.15,-65.99814898442683,14.696639999999999,158.99578814880346,129.00144757370484,-2.199986045963822,6.10416,5.65704,-1.902219879834333,-51.60057902948194,15.097437901697193,24.780935,59.482556,13.426447428580603,90.53797216300323,68.45781598580022,-0.0573134694276115,0.0032001161824095395,0.19160616297054034
2025-09-05T17:06:07+03:00,,287.15,-61.99890357441368,14.40504,153.99959617526267,127.59770097563433,-0.6999825383113268,5.79312,5.81256,-2.200157933302361,-52.70065799613312,15.802175989708104,24.780989,59.482504,12.755691876681112,85.63930223754384,68.36029393771882,0.4404803331332616,0.003533559468425356,0.19513972243896568
2025-09-05T17:06:09+03:00,,287.15,-63.001579715892625,14.79384,158.02748947503235,129.99839413723248,1.5000035076524951,5.7153599999999996,5.90976,-1.902219879834333,-49.801491552771154,13.401482828109954,24.781072,59.482457,13.219511203710974,85.65932833096093,72.36816114407142,0.4325759619519613,0.003794609199382748,0.19893433163834842
2025-09-05T17:06:11+03:00,,287.15,-63.99852627942025,14.91048,156.69822739032887,131.09847310388366,-0.5000202678106694,6.08472,5.9292,-1.598552248414997,-48.79881541129222,11.401860123103383,24.781084,59.482411,13.408901189998604,88.06847179029644,68.62975560003242,0.20508635088445265,0.002789109657643097,0.2017234412959915
2025-09-05T17:06:13+03:00,,287.15,-63.99852627942025,15.29928,157.9988415852758,131.00107027871144,-0.5000202678106694,5.890319999999999,5.96808,-1.902219879834333,-49.40042109617958,13.401482828109954,24.781129,59.482361,13.77496686143625,86.60061135960309,71.39823022567272,0.34927077789462896,0.0033043802729949222,0.20502782156898644
2025-09-05T17:06:15+03:00,,287.15,-63.99852627942025,14.502239999999999,157.9988415852758,128.8983151705813,-1.2999839413723246,5.96808,5.96808,-2.2975607584746007,-51.60057902948194,13.899956109873772,24.78117,59.48231,13.040185324203083,88.28784350173879,69.71099808353702,0.1783162097016731,0.003311095561847193,0.20833891713083363
2025-09-05T17:06:17+03:00,,287.15,-61.99890357441368,14.79384,152.99692003378374,130.80053505041565,0.9999832398418258,5.98752,6.0264,-1.701684651538545,-48.50087735782419,13.802553284701533,24.781215,59.482262,13.097137571725229,85.80523565642996,67.19168437735378,0.4379695013386114,0.003195434930984846,0.21153435206181848
2025-09-05T17:06:19+03:00,,287.15,-63.001579715892625,14.696639999999999,157.9988415852758,131.70007878877104,1.1000216708716675,5.9292,6.10416,-1.9996227050065731,-48.00240407606037,16.100114043176134,24.781257,59.482211,13.116023649196622,86.75441936688419,71.24442221839162,0.3356862765284131,0.0033227534338288026,0.21485710549564727
2025-09-05T17:06:21+03:00,,287.15,-65.0012024208992,14.696639999999999,158.99578814880346,131.09847310388366,0.600001403060998,6.39576,6.1624799999999995,-1.902219879834333,-49.60095632447536,16.197516868348373,24.781299,59.482159,13.321093896127426,90.79561055062992,68.20017759817354,-0.0888088206529073,0.0033782877268578823,0.21823539322250515
2025-09-05T17:06:23+03:00,,287.15,-65.99814898442683,15.20208,158.99578814880346,130.19892936552827,0.09998113525032865,6.84288,6.27912,-1.902219879834333,-50.002026781066945,15.699043586584558,24.781341,59.482102,13.90322707950836,92.71756154467916,66.2782266041243,-0.3244388349835379,0.0036581257836793175,0.22189351900618448
2025-09-05T17:06:25+03:00,,287.15,-65.0012024208992,14.59944,158.96714025904691,130.3020617686518,0.8000209693411684,6.492959999999999,6.337439999999999,-1.701684651538545,-48.90194781441576,15.699043586584558,24.781384,59.482041,13.235663484470166,91.39944417178232,67.5676960872646,-0.15857418583746036,0.0038944047016783987,0.22578792370786288
2025-09-05T17:06:27+03:00,,287.15,-67.00082512590576,14.30784,162.99503355881663,134.3987100038372,0.9999832398418258,6.337439999999999,6.35688,-1.598552248414997,-45.899648967930254,14.301026566465348,24.781423,59.481983,13.191689979986982,93.24668298664344,69.7483505721732,-0.35892083692290666,0.0036838822426561715,0.22947180595051905
2025-09-05T17:06:29+03:00,,287.15,-67.9977716894334,14.094,163.67112375707097,133.40176344030957,-0.8000209693411684,6.648479999999999,6.39576,-1.701684651538545,-47.10286033770498,14.598964619933378,24.781461,59.481925,13.138962440268342,95.977510527258,67.69361322981297,-0.6923600093954849,0.003674133176716549,0.2331459391272356
2025-09-05T17:06:33+03:00,,287.15,-67.00082512590576,14.79384,155.99921888026924,130.19892936552827,-0.6999825383113268,6.901199999999999,6.492959999999999,-1.701684651538545,-49.801491552771154,14.301026566465348,24.78157,59.481798,13.663944774799658,94.70580221364156,61.29341666662768,-0.5661705517029847,0.003607478496030238,0.23675341762326585
2025-09-05T17:06:35+03:00,,287.15,-65.0012024208992,14.502239999999999,158.22802470332815,130.3020617686518,0.9000021045914972,6.68736,6.55128,-1.3006141949469687,-49.29728869305603,15.20057030482074,24.781582,59.48175,13.155491754285123,92.43413023184337,65.79389447148478,-0.28401758705180136,0.0029083277304643627,0.23966174535373022
2025-09-05T17:06:39+03:00,,287.15,-65.0012024208992,14.696639999999999,157.9988415852758,130.19892936552827,0.2000195662801704,6.82344,6.6679200000000005,-2.200157933302361,-50.002026781066945,15.802175989708104,24.781714,59.481621,13.333891766299164,92.63349099099028,65.36535059428553,-0.3135159609031844,0.004007599131433992,0.24366934448516422
2025-09-05T17:06:40+03:00,,287.15,-65.0012024208992,14.696639999999999,160.99541085381,128.80091234540907,-0.600001403060998,6.72624,6.68736,-1.7990874767107847,-51.89851708294997,14.902632251352712,24.78177,59.48156,13.329779371966513,92.21613094774163,68.77927990606837,-0.26009790409160527,0.004045432381583422,0.24771477686674764
2025-09-05T17:06:42+03:00,,287.15,-63.001579715892625,14.91048,155.99921888026924,126.10228113034287,-1.4000223724021665,7.07616,6.7068,-1.3006141949469687,-53.8007369627843,16.100114043176134,24.781767,59.481515,13.289075338697007,91.32508371932816,64.67413516094108,-0.16363628626969,0.0027063968347902883,0.25042117370153794
2025-09-05T17:06:44+03:00,,287.15,-59.999280869407116,15.007679999999999,154.9965427387903,125.39754304233199,0.09998113525032865,6.804,6.68736,-1.902219879834333,-54.40234264767167,17.498131063295343,24.781826,59.481456,13.015775060305174,86.91708067236857,68.07946206642174,0.36592682793776216,0.003977420224281499,0.2543985939258194
2025-09-05T17:06:48+03:00,,287.15,-61.99890357441368,15.99912,153.99959617526267,127.79823620393013,0.09998113525032865,7.01784,6.76512,-1.7990874767107847,-52.40271994266509,12.79987714322259,24.781948,59.481343,14.134860504897235,87.9989345892594,66.00066158600326,0.24504950061219674,0.003314705772690357,0.25771329969850976
2025-09-05T17:06:50+03:00,,287.15,-63.001579715892625,15.901919999999999,152.99692003378374,127.90136860705366,-0.8000209693411684,6.88176,6.7068,-1.902219879834333,-52.90119322442891,14.799499848229162,24.781998,59.481288,14.172924664965697,88.63682065775049,64.36009937603325,0.16371516605455003,0.0036412087506222054,0.26135450844913194
2025-09-05T17:06:52+03:00,,287.15,-59.999280869407116,15.007679999999999,155.99921888026924,125.70121067375132,0.0,6.804,6.7068,-2.6986312150661775,-55.101351157731266,18.500807204774283,24.782061,59.481235,13.015775060305174,86.91708067236857,69.08213820790067,0.36592682793776216,0.0037211146980038424,0.2650756231471358
2025-09-05T17:06:54+03:00,,287.15,-59.00233430587948,15.007679999999999,151.9999734702561,122.40097377379776,-0.8000209693411684,6.95952,6.7068,-2.498095986770389,-57.89738519796968,22.402649789615186,24.78213,59.481182,12.887400145995747,86.57694042697939,65.4230330432767,0.4155398958538811,0.0038189818056617785,0.26889460495279754
2025-09-05T17:06:56+03:00,,287.15,-57.00271160087291,15.007679999999999,147.99499848229166,119.70234255873159,0.300000701530499,7.056719999999999,6.78456,-2.4006931615981495,-60.401210762691385,24.299140091498213,24.7822,59.481125,12.636303812605197,84.93114874296151,63.06384973933015,0.6234808854398193,0.004037801058033667,0.2729324060108312
2025-09-05T17:06:58+03:00,,287.15,-57.99965816440055,15.29928,147.99499848229166,123.90212319704052,2.7999874490248207,6.74568,6.78456,-2.498095986770389,-55.101351157731266,20.299894681485068,24.782246,59.481068,13.045746334403358,84.0082633864164,63.98673509587526,0.704148002094415,0.0037026949160138224,0.276635100926845
2025-09-05T17:07:02+03:00,,287.15,-61.99890357441368,16.60176,152.65887493465655,125.0022021636917,-0.6999825383113268,6.97896,6.82344,-2.6012283898939375,-55.19875398290351,15.401105533116528,24.782362,59.480955,14.680995106544028,86.81618439899464,65.84269053566192,0.38760775461866376,0.0032082141224718443,0.27984331504931687
2025-09-05T17:07:06+03:00,,287.15,-56.00003545939396,16.09632,148.99767462377056,120.29821866566765,-0.2000195662801704,6.95952,6.92064,-1.501149423242757,-59.799605077804024,19.497753768301912,24.782523,59.480831,13.499703590996946,81.30238974384217,67.6952848799284,1.0524157688237694,0.003907267139560839,0.2837505821888777
2025-09-05T17:07:08+03:00,,287.15,-56.00003545939396,15.901919999999999,145.99537577728506,120.49875389396342,0.2000195662801704,6.97896,6.8623199999999995,-2.2975607584746007,-59.3011317960402,17.69866629159113,24.78259,59.480776,13.321406469483758,81.74239826823123,64.25297750905384,1.0023456134595032,0.0038873758773109016,0.28763795806618864
2025-09-05T17:07:10+03:00,,287.15,-54.99735931791503,16.19352,147.99499848229166,119.30127210214,-0.9000021045914972,7.095599999999999,6.84288,-2.1027551081301215,-61.19762209792323,19.698288996597704,24.782614,59.480725,13.444625121355264,80.61133227384548,67.38366620844619,1.1575111130166453,0.003151813959875973,0.2907897720260646
2025-09-05T17:07:12+03:00,,287.15,-54.99735931791503,15.804720000000001,146.99805191876402,120.49875389396342,2.499986747494321,6.82344,6.82344,-2.1027551081301215,-58.20105282938902,21.89844692990006,24.782683,59.480674,13.138815168074633,80.17335593660849,66.82469598215553,1.1645409586980422,0.003719309710031755,0.29450908173609636
2025-09-05T17:07:14+03:00,,287.15,-57.00271160087291,15.29928,145.99537577728506,118.49913118895687,-0.300000701530499,6.804,6.92064,-1.902219879834333,-61.50128972934256,20.700965138076644,24.782747,59.480623,12.922106255721214,83.20915753672506,62.786218240560004,0.8045407622710394,0.0036350610926025187,0.2981441428286989
2025-09-05T17:07:20+03:00,,287.15,-61.99890357441368,15.20208,152.99692003378374,135.20085091702038,3.6999895536163168,6.454079999999999,6.95952,-1.9996227050065731,-43.99742908809592,8.10162322314984,24.782943,59.480502,13.439875410801637,87.08651844189207,65.91040159189167,0.32804755820290726,0.004078643826106988,0.3022227866548059
2025-09-05T17:07:22+03:00,,287.15,-65.0012024208992,14.21064,158.23948385923077,135.99726225225223,-0.3999818367808277,6.84288,6.88176,-2.200157933302361,-44.59903477298328,9.602772646392598,24.782995,59.480444,12.906539232373092,93.72039928140671,64.51908457782406,-0.4440180374936336,0.0038305849050661056,0.306053371559872
2025-09-05T17:07:24+03:00,,287.15,-65.0012024208992,14.30784,157.72955142156434,136.30092988367153,1.1000216708716675,6.74568,6.82344,-1.501149423242757,-43.80262343775143,6.697876625079324,24.783045,59.480386,12.986270219882016,93.08637163114673,64.6431797904176,-0.36319617799698767,0.003805694576317717,0.30985906613618974
2025-09-05T17:07:26+03:00,,287.15,-65.0012024208992,14.30784,160.99541085381,137.09734121890338,-0.600001403060998,6.6095999999999995,6.72624,-1.7990874767107847,-44.197964316391705,11.401860123103383,24.783082,59.48033,12.979654785604577,92.48653729097994,68.50887356283006,-0.2867551244938999,0.0035504577257574215,0.31340952386194715
2025-09-05T17:07:28+03:00,,287.15,-63.99852627942025,13.9968,158.01030074117844,132.70275493024997,-0.6999825383113268,6.6679200000000005,6.68736,-1.902219879834333,-48.3003421295284,13.602018056405743,24.783121,59.480275,12.59131823510287,92.42064746861163,65.5896532725668,-0.28162427680774516,0.0035137367574286124,0.31692326061937576
2025-09-05T17:07:30+03:00,,287.15,-65.0012024208992,15.007679999999999,157.9988415852758,131.99801684223905,0.0,6.901199999999999,6.62904,-1.1000789666511805,-47.80186884776458,11.900333404867197,24.783107,59.480235,13.613190929129777,92.35326076151698,65.64558082375883,-0.28336742541502297,0.0024419922108739286,0.3193652528302497
2025-09-05T17:07:34+03:00,,287.15,-61.99890357441368,15.49368,154.18867224765586,128.8983151705813,-0.9999832398418258,6.648479999999999,6.7068,-1.7990874767107847,-51.697981854654174,13.802553284701533,24.783223,59.480118,13.694266575071579,87.38152515579864,66.80714709185722,0.3037364782288044,0.0028190192699283456,0.322184272100178
2025-09-05T17:07:36+03:00,,287.15,-59.999280869407116,14.59944,149.99462118729824,126.10228113034287,0.2000195662801704,6.39576,6.72624,-1.501149423242757,-53.60020173448851,13.99735893504601,24.783263,59.480072,12.675679470017446,85.90978846855363,64.08483271874461,0.456190626180385,0.00302255078465409,0.3252068228848321
2025-09-05T17:07:38+03:00,,287.15,-61.99890357441368,15.49368,152.99692003378374,127.90136860705366,0.5000202678106694,6.59016,6.74568,-2.1027551081301215,-52.2021847143693,15.097437901697193,24.78331,59.480017,13.697054830464133,87.13782232428802,65.85909770949571,0.3290707454864479,0.003603807656720406,0.3288106305415525
2025-09-05T17:07:40+03:00,,287.15,-57.99965816440055,14.91048,155.99921888026924,126.89869246557473,-0.600001403060998,6.8623199999999995,6.74568,-1.598552248414997,-54.00127219108009,14.902632251352712,24.783363,59.479958,12.687380416815698,85.30217043399175,70.69704844627749,0.5620291872110839,0.003897948647798749,0.33270857918935126
2025-09-05T17:07:43+03:00,,287.15,-65.99814898442683,15.007679999999999,155.99921888026924,133.9002367220734,0.3999818367808277,6.68736,6.78456,-1.0026761414789407,-46.30071942452182,13.097815196690618,24.783467,59.47984,13.722379857262691,92.43389254109856,63.56532633917068,-0.28398986966112205,0.0033901793366273476,0.3360987585259786
2025-09-05T17:07:45+03:00,,287.15,-72.00274667739787,15.804720000000001,155.2085371229887,130.5025969969476,-0.3999818367808277,6.47352,6.76512,-1.3980170201192088,-49.801491552771154,10.50231638474799,24.783524,59.479781,15.115308984034277,96.03938709060712,59.16915003238158,-0.6810926795004827,0.003950192181975655,0.34004895070795427
2025-09-05T17:07:47+03:00,,287.15,-74.00236938240442,16.19352,152.99692003378374,134.1007719503692,0.5000202678106694,6.4152,6.7068,-1.598552248414997,-46.197587021398284,7.299482309966689,24.783583,59.479724,15.68834436804763,97.1485910623097,55.84832897147403,-0.7983267536843693,0.003870659240446899,0.34391960994840115
2025-09-05T17:07:49+03:00,,287.15,-69.00044783091235,15.20208,156.99616544379688,132.30168447365838,-0.600001403060998,6.7068,6.648479999999999,-1.9996227050065731,-48.999350639587995,11.79720100174365,24.783633,59.479665,14.248137638817202,95.06929536810831,61.92687007568857,-0.5926162603269642,0.0038608450214973654,0.3477804549698985
2025-09-05T17:07:51+03:00,,287.15,-65.99814898442683,14.696639999999999,153.71884685564856,131.2016055070072,0.9999832398418258,6.43464,6.7068,-2.2975607584746007,-48.90194781441576,11.60239535139917,24.783655,59.479599,13.433615708443838,91.94758407831645,61.77126277733211,-0.21868258589740794,0.004023549020745661,0.35180400399064415
2025-09-05T17:07:53+03:00,,287.15,-63.99852627942025,14.91048,155.99921888026924,138.59849064214615,2.1000049107134933,6.4152,6.6095999999999995,-2.1027551081301215,-40.19871890637856,4.898789148368539,24.783724,59.479557,13.401833008859132,89.4806865915443,66.51853228872494,0.05814483705413932,0.003287785053756704,0.35509178904440086
2025-09-05T17:07:55+03:00,,287.15,-67.00082512590576,14.40504,161.99808699528896,141.49765708550808,1.1000216708716675,6.492959999999999,6.62904,-0.6016056848873644,-37.70062291960817,5.798332886723932,24.783749,59.479494,13.288151414936381,93.73084388506113,68.26724311022782,-0.42249368763418427,0.0038629169294252235,0.35895470597382606
2025-09-05T17:07:57+03:00,,287.15,-65.99814898442683,13.608,164.97173795201795,140.20277246851245,0.2000195662801704,6.940079999999999,6.6095999999999995,-0.40107045659157625,-39.79764844978698,7.901087994854052,24.783786,59.479438,12.510471121588578,96.44736557150327,68.52437238051468,-0.7793045482057652,0.0035504672138855645,0.36250517318771164
2025-09-05T17:07:59+03:00,,287.15,-69.00044783091235,13.802399999999999,159.99846429028239,140.50071052198047,1.200002806121996,6.27912,6.74568,-1.1974817918234204,-39.90078085291053,7.700552766558264,24.783821,59.479377,12.954441767295274,95.90561584602231,64.09284844426007,-0.6460588583177203,0.0038190587217665217,0.36632423190947816
2025-09-05T17:08:01+03:00,,287.15,-67.9977716894334,13.7052,159.55728678803166,137.29787644719917,-1.1000216708716675,6.4152,6.7068,-1.902219879834333,-43.4989558063321,8.399561276617868,24.783859,59.47932,12.771410881922934,95.75498067620482,63.80230611182684,-0.643281312723123,0.0036171776772523393,0.3699414095867305
2025-09-05T17:08:03+03:00,,287.15,-67.9977716894334,13.7052,169.29756930525565,144.70049116028943,3.9000091198964877,6.43464,6.72624,-1.3006141949469687,-33.39770987817568,6.497341396783535,24.783904,59.479265,12.77337486351979,95.84174055518535,73.4558287500703,-0.654924421790155,0.003579953467847152,0.37352136305457767
2025-09-05T17:08:05+03:00,,287.15,-72.00274667739787,14.696639999999999,166.99427896882975,148.99767462377056,0.0,6.27912,6.648479999999999,-1.0026761414789407,-31.100149119701083,1.7990874767107847,24.783928,59.47921,14.085226245507517,97.08902967712258,69.90524929170716,-0.7749154572116433,0.003386128297453716,0.3769074913520314
2025-09-05T17:08:07+03:00,,287.15,-72.9996932409255,13.802399999999999,168.99963125178763,147.8975956571194,-0.2000195662801704,6.10416,6.53184,-1.1974817918234204,-31.501219576292662,6.399938571611295,24.783956,59.479148,13.360401067505556,98.90722872434394,70.0924025274437,-0.9451378032216081,0.0038234384983707585,0.38073092985040213
2025-09-05T17:08:09+03:00,,287.15,-72.9996932409255,13.39416,168.99963125178763,145.50263207347254,-1.2999839413723246,6.10416,6.47352,-1.7990874767107847,-34.60092124795042,6.697876625079324,24.783975,59.4791,12.99441330213968,99.6937259026783,69.30590534910934,-1.0278272533638062,0.002942889342473924,0.3836738191928761
2025-09-05T17:08:13+03:00,,287.15,-74.00236938240442,13.00536,166.99427896882975,147.30171955018335,0.8000209693411684,6.18192,6.37632,-1.3006141949469687,-31.799157629760693,5.500394833255903,24.784014,59.47897,12.768730511126806,101.73820898140804,65.25606998742171,-1.257651455428296,0.003712160109899588,0.3873859793027757
2025-09-05T17:08:15+03:00,,287.15,-74.00236938240442,12.79152,168.99963125178763,150.8024916784327,1.899985344433323,5.9292,6.29856,-1.1974817918234204,-28.401517904634908,5.397262430132355,24.784031,59.478921,12.528919889650533,101.06176709331983,67.9378641584678,-1.1376185090954338,0.002990646073387637,0.3903766253761633
2025-09-05T17:08:17+03:00,,287.15,-74.99931594593207,12.402719999999999,176.99812207181392,152.2005086985519,0.5000202678106694,5.94864,6.25968,-0.8021409131831525,-28.20098267633912,6.697876625079324,24.784041,59.478863,12.28906404860806,102.8756164347831,74.12250563703083,-1.3255667605411061,0.003499586541915682,0.393876211918079
2025-09-05T17:08:19+03:00,,287.15,-76.99893865093864,12.091679999999998,173.9958232253284,150.6019564501369,0.6999825383113268,6.201359999999999,6.25968,-1.501149423242757,-28.802588361226483,6.697876625079324,24.78405,59.478801,12.285236558270986,106.4606529453905,67.53517027993789,-1.7571976622139376,0.0037367915802110196,0.39761300349829
2025-09-05T17:08:21+03:00,,287.15,-80.00123749742416,11.89728,174.99849936680735,151.5015001884923,0.8000209693411684,6.14304,6.25968,-1.1974817918234204,-28.20098267633912,6.801009028202872,24.784074,59.478748,12.405764976372174,109.18782181282614,65.81067755398121,-2.019007847867181,0.00326886601858321,0.4008818695168732
2025-09-05T17:08:23+03:00,,287.15,-80.99818406095179,11.80008,175.99544593033497,151.5989030136645,-0.3999818367808277,6.25968,6.318,-1.0026761414789407,-28.602053132930696,6.102000518143266,24.784068,59.478688,12.462378577158484,110.74047412465616,65.2549718056788,-2.216775279066218,0.003611110886295937,0.40449298040316917
2025-09-05T17:08:25+03:00,,287.15,-80.99818406095179,12.30552,175.99544593033497,151.90257064508384,0.600001403060998,6.201359999999999,6.25968,-1.1000789666511805,-27.501974166279513,5.397262430132355,24.784076,59.478623,12.88419894347379,109.38273225866482,66.61271367167015,-2.0580878185319462,0.003914626396012137,0.4084076067991813
2025-09-05T17:08:27+03:00,,287.15,-80.99818406095179,12.30552,175.99544593033497,150.8998945036049,-0.8000209693411684,6.29856,6.25968,-1.501149423242757,-30.0000701530499,5.798332886723932,24.78408,59.478561,12.91678281570964,109.78945502491116,66.2059909054238,-2.1324703951982227,0.0037286782817987146,0.41213628508098005
2025-09-05T17:08:29+03:00,,287.15,-80.00123749742416,11.702879999999999,176.99812207181392,148.40179851683453,-0.9999832398418258,6.39576,6.25968,-1.3980170201192088,-32.40076331464805,8.800631733209444,24.784129,59.478502,12.323620038468752,110.73845106446994,66.25967100734398,-2.264754851314143,0.0038488999210715647,0.4159851850020516
2025-09-05T17:08:31+03:00,,287.15,-82.00086020243072,11.702879999999999,173.9958232253284,148.79713939547477,1.2999839413723246,6.24024,6.24024,-1.501149423242757,-30.60167583793727,8.19902604832208,24.784138,59.478443,12.472885933728014,111.69940060263251,62.296422622695886,-2.307247848845967,0.00355698138548774,0.4195421663875394
2025-09-05T17:08:33+03:00,,287.15,-82.00086020243072,12.402719999999999,174.99849936680735,152.4984467520199,2.3000244769936637,6.43464,6.318,-0.8021409131831525,-26.602430427924123,7.2020794847944485,24.78414,59.478384,13.153723517640302,110.97586349429633,64.02263587251102,-2.303437913548087,0.003546880764130074,0.42308904715166945
2025-09-05T17:08:35+03:00,,287.15,-84.0004829074373,12.30552,175.99544593033497,156.6008245651566,1.8000042091829944,6.29856,6.37632,-1.1000789666511805,-22.998525896551243,6.89841185337511,24.784121,59.478333,13.22480975189424,112.272611591936,63.72283433839897,-2.3872414712035073,0.003119880668833547,0.426208927820503
2025-09-05T17:08:37+03:00,,287.15,-84.99742947096492,11.89728,184.9966128918402,157.9988415852758,1.1000216708716675,6.201359999999999,6.39576,-0.8021409131831525,-22.402649789615186,8.19902604832208,24.784122,59.478276,12.928068692960549,113.54280857991394,71.45380431192625,-2.477034896015852,0.0034262758269819056,0.4296352036474849
2025-09-05T17:08:39+03:00,,287.15,-84.99742947096492,11.508479999999999,182.99699018683364,153.3979904903753,0.9000021045914972,6.59016,6.337439999999999,-1.1000789666511805,-25.59975428644518,8.898034558381685,24.784116,59.478208,12.753363611934624,115.97955247355767,67.01743771327597,-2.886821962188545,0.004091426506153877,0.43372663015363877
2025-09-05T17:08:40+03:00,,287.15,-89.99935102245702,11.702879999999999,181.9943140453547,172.50040338003691,8.59998191335463,6.0652800000000004,6.29856,-1.1974817918234204,-1.902219879834333,3.5981749534215695,24.784094,59.478152,13.181176495018011,117.39595034449385,64.59836370086086,-2.7908599435195867,0.0034323755132349763,0.43715900566687377
2025-09-05T17:08:42+03:00,,287.15,-101.00014068896883,12.091679999999998,197.9970252633586,202.5978763582591,10.800025255097966,5.9292,6.2208000000000006,-0.6016056848873644,28.401517904634908,-4.297183463481174,24.784032,59.478104,14.447290387240216,124.75734517407261,73.239680089286,-3.3802493177926998,0.0034505596743689953,0.44060956534124274
2025-09-05T17:08:44+03:00,,287.15,-119.99942117550692,11.29464,220.99555115990984,225.9974727114019,10.300004987287297,5.98752,6.18192,-0.09740282517223994,49.801491552771154,-3.3976397251257815,24.784033,59.478064,15.20016407950044,139.9457281143944,81.04982304551544,-4.583058785938926,0.0024045024428456336,0.44301406778408836
2025-09-05T17:08:46+03:00,,287.15,-153.99873673856996,7.892639999999999,235.9955862364348,247.79851681612976,12.299971466970948,5.598719999999999,6.0264,-0.09740282517223994,72.30154416755859,-6.801009028202872,24.783954,59.478031,13.155668935864625,164.7513069578619,71.24427927857289,-5.401607676194261,0.0031225616846346413,0.446136629468723
2025-09-05T17:08:50+03:00,,287.15,135.00031568872456,6.201359999999999,279.998744902482,291.8990783073492,10.099985421007126,5.404319999999999,5.5598399999999994,0.40107045659157625,115.39942951729911,-11.499262948275621,24.783671,59.478078,10.72659984861958,155.87072680652545,75.86947170900743,-4.932119899057406,0.002803444594480909,0.4489400740632039
2025-09-05T17:08:52+03:00,,287.15,103.00062283066809,8.10648,301.99459465755433,309.2024037203001,10.300004987287297,5.20992,5.326560000000001,0.8021409131831525,132.30168447365838,-12.501939089754565,24.783596,59.478111,10.576407482855002,131.68418314046448,73.67877779801881,-3.4647229590102624,0.003029246592941529,0.4519693206561454
2025-09-05T17:08:54+03:00,,287.15,82.00171963912342,10.4004,323.9961739905779,323.6008331119376,9.1000021811653,4.957199999999999,5.19048,0.8021409131831525,146.79751669046823,-12.599341914926804,24.783619,59.47809,10.880926417932788,108.81949134296036,72.81566533353828,-1.599131822779072,0.0014443932218402176,0.4534137138779856
2025-09-05T17:08:57+03:00,,287.15,65.0020618575919,12.69432,0.08021409131831525,336.69864830862826,7.099978405702136,5.0544,5.151599999999999,0.40107045659157625,158.6978500953354,-10.3017811564522,24.78359,59.478134,11.509330759856518,88.45638415997038,88.5365982512887,0.13615502186939,0.0027889712317941124,0.45620268510977974
2025-09-05T17:08:59+03:00,,287.15,52.99859604960115,14.59944,357.99548955364094,350.5012015933298,4.800011224487984,4.957199999999999,5.19048,0.49847328176381617,172.20246532656893,-9.29910501497326,24.78358,59.478189,12.272127765394286,71.81850758185563,69.81399713549655,1.5467854193342838,0.003319988578025558,0.4595226736878053
2025-09-05T17:09:01+03:00,,287.15,43.99742908809592,15.20208,7.9984908200262925,0.6990085100596044,3.0000070153049903,5.1127199999999995,5.1710400000000005,-0.6990085100596044,-177.30178970323325,-5.901465289847479,24.783605,59.478231,12.058954956583209,61.12531722714803,69.12380804717432,2.468909457638806,0.0026373557244742927,0.46216002941227957
2025-09-05T17:09:05+03:00,,287.15,35.99893826806962,15.396479999999999,13.99735893504601,9.998113525032863,0.9000021045914972,4.74336,5.0544,-0.40107045659157625,-169.89917499014302,-7.2020794847944485,24.783596,59.478361,11.890447960303039,49.55958220179491,63.55694113684092,3.0768134156259537,0.002779775776109187,0.46493980518838873
2025-09-05T17:09:07+03:00,,287.15,28.997394011570965,14.502239999999999,12.272755971702233,6.302535746439056,-0.2000195662801704,4.68504,5.03496,0.0,-174.59742891021577,-13.699420881577984,24.783677,59.478351,10.649506566041374,41.31114743992441,53.58390341162664,3.5191008452377166,0.00254465875045188,0.46748446393884063
2025-09-05T17:09:09+03:00,,287.15,31.002746294528848,14.79384,12.129516522919529,358.9981656951199,0.09998113525032865,5.01552,5.07384,-0.29793805346802804,177.7028601598248,-15.802175989708104,24.783702,59.478396,10.808109710434863,44.83164700392285,56.961163526842384,3.556913633480783,0.002810447701175487,0.47029491164001613
2025-09-05T17:09:13+03:00,,287.15,33.00236899953541,15.49368,12.99468279356707,356.79800776181753,2.1000049107134933,5.38488,5.22936,-0.20053522829578813,177.5997277567013,-15.49850835828877,24.783684,59.478535,11.362726032749281,47.96119865429884,60.95588144786591,3.605897220284142,0.0029185151812639917,0.47321342682128015
2025-09-05T17:09:15+03:00,,287.15,33.00236899953541,15.804720000000001,19.996227050065727,358.7002276416519,-2.3000244769936637,5.5598399999999994,5.326560000000001,-0.40107045659157625,179.30141240823983,-11.900333404867197,24.78371,59.47858,11.546173023778541,48.207599018401794,68.20382606846752,3.705264150362082,0.002818888913508054,0.4760323157347882
2025-09-05T17:09:17+03:00,,287.15,37.998560973076195,15.610319999999998,18.999280486538098,359.3018333265392,-1.200002806121996,5.20992,5.404319999999999,0.09740282517223994,-179.79988569000366,-9.29910501497326,24.783723,59.478628,11.943506508032062,53.576638519927116,72.57591900646521,3.093374476704283,0.0029123344181455776,0.4789446501529338
2025-09-05T17:09:19+03:00,,287.15,31.999692858056477,14.91048,8.995437383553925,354.90151745993455,-0.300000701530499,5.346,5.46264,-0.49847328176381617,172.99887666180075,-18.79874525824231,24.783828,59.478621,10.756552919075112,47.26965170781679,56.26508909137072,3.6275221121789825,0.0032327588087131646,0.48217740896164696
2025-09-05T17:09:21+03:00,,287.15,31.999692858056477,14.696639999999999,6.7609019825437136,347.2983675185485,0.2000195662801704,5.5598399999999994,5.52096,0.0,166.30100003672143,-22.597455439959663,24.78384,59.478672,10.407349518035296,48.44454579395892,55.20544777650264,3.688089957025987,0.003087302625041195,0.48526471158668816
2025-09-05T17:09:25+03:00,,287.15,37.001614409548566,15.49368,5.488935677353287,339.79834998028605,-1.4000223724021665,5.6181600000000005,5.69592,-0.29793805346802804,159.90106146511013,-23.101658299674792,24.783757,59.478825,11.514546601609409,54.07807647683718,59.56701215419047,3.296074840912786,0.0033199880495458347,0.48858469963623397
2025-09-05T17:09:27+03:00,,287.15,39.998183678082775,15.610319999999998,7.282293576112763,337.99926250357527,0.300000701530499,6.0264,5.79312,-0.29793805346802804,157.39723590038847,-20.500429909780856,24.783768,59.478878,11.656156058800493,59.407704700075,66.68999827618777,3.0669896282534106,0.003203356757879457,0.49178805639411344
2025-09-05T17:09:29+03:00,,287.15,37.998560973076195,15.804720000000001,6.995814678547352,338.8014034167584,-2.199986045963822,5.67648,5.890319999999999,-0.49847328176381617,159.20205295505053,-20.597832734953094,24.78389,59.478887,11.858152325052146,55.138515497416876,62.13433017596423,3.2446442925720347,0.003763264282419152,0.49555132067653257
2025-09-05T17:09:31+03:00,,287.15,41.00085981956171,15.901919999999999,0.0,337.39765681868784,1.8000042091829944,6.0652800000000004,5.81256,-0.49847328176381617,157.9988415852758,-20.500429909780856,24.783894,59.478943,12.003237483575289,60.36160091968637,60.36160091968637,2.999429454737636,0.003368246077461332,0.4989195667539939
2025-09-05T17:09:33+03:00,,287.15,37.998560973076195,15.901919999999999,3.9992454100131463,339.0993414702265,5.1000119260184835,6.006959999999999,5.851439999999999,-0.49847328176381617,159.70052623681437,-24.299140091498213,24.783894,59.478997,11.764634997850965,56.319738946850705,60.31898435686385,3.331206392142975,0.0032458166867956753,0.5021653834407895
2025-09-05T17:09:37+03:00,,287.15,31.999692858056477,16.69896,17.996604345059158,346.70249141161247,0.6999825383113268,5.890319999999999,5.98752,-0.29793805346802804,167.80214945996423,-19.698288996597704,24.783869,59.479143,12.11275329638131,46.93288780832981,64.92949215338896,4.02223179883116,0.0035035260663922488,0.5056689095071818
2025-09-05T17:09:39+03:00,,287.15,33.00236899953541,17.009999999999998,19.996227050065727,350.5986044185021,-2.1000049107134933,5.96808,5.94864,-0.20053522829578813,170.90185113162195,-17.60126346641889,24.783903,59.479199,12.437199952152046,48.15347670282736,68.14970375289309,3.98153036233257,0.0035224084294069096,0.5091913179365887
2025-09-05T17:09:41+03:00,,287.15,31.999692858056477,16.407359999999997,13.99735893504601,348.7995169417913,1.1000216708716675,5.90976,5.87088,-0.6016056848873644,168.10008751343221,-20.597832734953094,24.783933,59.479257,11.818064558669079,47.366050838379635,61.363409773425644,4.002751403559115,0.0036045195313378704,0.5127958374679266
2025-09-05T17:09:42+03:00,,287.15,31.002746294528848,16.09632,13.99735893504601,347.4989027468443,-0.8000209693411684,6.045839999999999,5.851439999999999,-0.09740282517223994,167.6016142316684,-20.597832734953094,24.784028,59.479267,11.349744621998061,46.92751805074255,60.92487698578856,4.12884326359965,0.0029615811559506986,0.5157574186238773
2025-09-05T17:09:44+03:00,,287.15,31.999692858056477,16.31016,12.99468279356707,345.90035049842925,-0.5000202678106694,5.96808,5.87088,-0.09740282517223994,165.0003858417745,-22.2021145613194,24.784059,59.479317,11.68504024693578,47.70273020459305,60.697412998160125,4.016382176830981,0.0031508444400268204,0.518908263063904
2025-09-05T17:09:48+03:00,,287.15,33.00236899953541,16.09632,9.998113525032863,343.2017192833631,-0.5000202678106694,6.0652800000000004,5.9292,0.09740282517223994,163.49923641853172,-22.500052614787425,24.784045,59.479481,11.494647543223703,49.70492250059689,59.70303602562976,3.9225636793979883,0.003615184997209351,0.5225234480611134
2025-09-05T17:09:50+03:00,,287.15,33.99931556306306,16.407359999999997,11.997736230039438,342.19904314188415,0.5000202678106694,6.454079999999999,5.98752,-0.29793805346802804,162.39915745188054,-23.502728756266368,24.784127,59.479486,11.63074804924651,52.07657816292462,64.07431439296406,3.966727374174623,0.002521070059060508,0.5250445181201739
2025-09-05T17:09:52+03:00,,287.15,33.99931556306306,16.60176,11.997736230039438,341.5974374569968,-1.1000216708716675,6.2208000000000006,6.0264,-0.09740282517223994,161.09854325693357,-22.001579333023614,24.784151,59.479542,11.961423839012417,50.90609143182738,62.90382766186681,3.922794788653421,0.003444835573970962,0.528489353694145
2025-09-05T17:09:54+03:00,,287.15,35.00199170454199,16.50456,10.995060088560496,340.8984289469372,1.5999846429028237,6.35688,6.10416,-0.40107045659157625,161.09854325693357,-23.19906112484703,24.784171,59.4796,11.871302655800736,52.88989130159929,63.884951390159785,3.8354152595495474,0.003539299774472754,0.5320286534686177
2025-09-05T17:09:56+03:00,,287.15,33.00236899953541,16.69896,10.995060088560496,342.50271077330353,-0.300000701530499,6.2208000000000006,6.08472,-0.29793805346802804,162.50228985500408,-22.402649789615186,24.784192,59.479661,11.971407846718973,49.443690035137195,60.43875012369769,4.044733411854195,0.0037221853864506413,0.5357508388550684
2025-09-05T17:09:58+03:00,,287.15,33.99931556306306,17.2044,14.994305498573642,343.79759539029914,0.3999818367808277,5.890319999999999,5.98752,-0.6016056848873644,164.70244778830644,-20.299894681485068,24.784218,59.47971,12.753725704113341,48.966108954703515,63.96041445327715,3.867026491326605,0.003050337221259411,0.5388011760763277
2025-09-05T17:10:00+03:00,,287.15,33.99931556306306,17.3016,15.996981640052585,345.49928004183766,-1.1000216708716675,5.96808,6.1236,-0.29793805346802804,164.70244778830644,-19.497753768301912,24.784242,59.479768,12.796622393236985,49.116340872520055,65.11332251257264,3.906258851997616,0.003562391717779642,0.5423635677941073
2025-09-05T17:10:02+03:00,,287.15,33.99931556306306,17.3016,8.995437383553925,344.1986658468907,2.6000251785241626,6.29856,6.1236,-0.20053522829578813,164.59931538518288,-22.001579333023614,24.784261,59.479822,12.58279583705118,50.254136029812145,59.24957341336607,4.027195335676626,0.0032972264269815386,0.5456607942210888
2025-09-05T17:10:04+03:00,,287.15,30.0000701530499,17.3016,13.99735893504601,344.8002715317781,-1.200002806121996,6.35688,6.1624799999999995,-0.20053522829578813,164.19824492859135,-23.399596353142822,24.78429,59.479878,12.217086673014927,45.07986662771876,59.07722556276477,4.488722859431703,0.0034804891863405396,0.5491412834074294
2025-09-05T17:10:06+03:00,,287.15,31.999692858056477,16.893359999999998,11.997736230039438,342.30217554500774,0.600001403060998,6.10416,6.1236,-0.09740282517223994,162.70282508329987,-22.500052614787425,24.784317,59.479933,12.155029504287526,47.43314707251466,59.43088330255409,4.129159065327316,0.0034071111728181222,0.5525483945802475
2025-09-05T17:10:08+03:00,,287.15,33.00236899953541,17.107200000000002,12.99468279356707,341.7005698601203,0.5000202678106694,6.29856,6.1624799999999995,-0.20053522829578813,161.79755176699317,-23.800666809734395,24.784339,59.47999,12.31252526669695,49.18092723751482,62.175610031081895,4.117195828120641,0.0034913344200212734,0.5560397290002688
2025-09-05T17:10:12+03:00,,287.15,31.002746294528848,17.009999999999998,15.996981640052585,343.2017192833631,-0.300000701530499,6.0652800000000004,6.1624799999999995,-0.40107045659157625,164.1008421034191,-24.098604863202425,24.784389,59.480105,12.217373165314054,45.81838128960004,61.81536292965262,4.227106353528856,0.002999713362530273,0.559039442362799
2025-09-05T17:10:14+03:00,,287.15,33.00236899953541,17.107200000000002,15.996981640052585,343.2017192833631,0.600001403060998,6.18192,6.10416,-0.6990085100596044,164.19824492859135,-24.499675319793997,24.784419,59.480157,12.389084095587037,48.772699199980906,64.76968084003349,4.074181410312281,0.003256989010611179,0.5622964313734102
2025-09-05T17:10:18+03:00,,287.15,31.002746294528848,17.2044,12.99468279356707,341.5974374569968,1.200002806121996,6.29856,6.10416,-1.0026761414789407,162.30175462670832,-27.19830653486018,24.784472,59.480274,12.243293700705623,46.36865157768483,59.3633343712519,4.3461050288505545,0.002566899910631555,0.5648633312840418
2025-09-05T17:10:20+03:00,,287.15,31.002746294528848,17.3016,16.99965778153153,341.09896417523294,-0.2000195662801704,6.1236,6.08472,-0.8021409131831525,161.6027461166487,-27.799912219747544,24.784505,59.480328,12.458676298009276,45.66780668991473,62.66746447144625,4.279277667662801,0.0033985312637403917,0.5682618625477821
2025-09-05T17:10:24+03:00,,287.15,31.999692858056477,17.398799999999998,14.994305498573642,339.9988852085818,-0.3999818367808277,6.27912,6.14304,-0.29793805346802804,159.5973938336908,-26.797236078268604,24.784564,59.480433,12.523893013598022,47.40729353925781,62.401599037831446,4.249597035601407,0.002544510657745597,0.5708063732055277
2025-09-05T17:10:26+03:00,,287.15,33.00236899953541,17.70984,13.99735893504601,341.09896417523294,1.8000042091829944,6.1236,6.0652800000000004,-0.6990085100596044,161.9006841701167,-26.499298024800574,24.784588,59.480488,13.009133046401741,47.85811651454188,61.855475449587885,4.1087447128610455,0.003386122559121618,0.5741924957646494
2025-09-05T17:10:28+03:00,,287.15,31.002746294528848,17.70984,12.99468279356707,342.697516423648,1.8000042091829944,6.27912,6.0652800000000004,-0.40107045659157625,163.60236882165526,-27.702509394575305,24.784616,59.480549,12.744939159418939,45.7032774805954,58.697960274162476,4.385176314917999,0.0037648682171155597,0.5779573639817649
2025-09-05T17:10:30+03:00,,287.15,28.000447448043335,18.00144,16.99965778153153,345.9977533236015,1.5000035076524951,6.318,6.10416,-0.20053522829578813,167.00000854678103,-27.599376991451756,24.78465,59.480606,12.772199104609097,41.42919984465681,58.42885762618833,4.737071788293504,0.003579878961556478,0.5815372429433213
2025-09-05T17:10:32+03:00,,287.15,26.997771306564392,18.195839999999997,26.997771306564392,348.70211411661904,-0.9999832398418258,6.045839999999999,6.1236,-0.49847328176381617,169.49810453355144,-23.800666809734395,24.784693,59.480656,13.099586682898098,39.09163340194095,66.08940470850534,4.692409146684641,0.003279502730124501,0.5848167456734458
2025-09-05T17:10:34+03:00,,287.15,28.997394011570965,18.00144,25.99509516508545,350.90227204992135,-0.6999825383113268,6.045839999999999,6.1624799999999995,-0.49847328176381617,171.10238635991774,-21.39997364813625,24.784739,59.480708,13.046946225214905,41.97899060635865,67.9740857714441,4.494417810111684,0.003426506538222164,0.588243252211668
2025-09-05T17:10:36+03:00,,287.15,26.00082474303676,17.496,21.995849755072307,352.7013595266322,2.7000063137744914,6.25968,6.10416,-0.49847328176381617,172.79834143350496,-23.898069634906637,24.784774,59.480759,12.182950879761806,39.01808758428646,61.01393733935877,4.8634411863124845,0.0032463255865059545,0.5914895777981739
2025-09-05T17:10:38+03:00,,287.15,24.001202038030186,17.398799999999998,28.017636181897256,356.0989992517579,0.0,5.98752,6.1236,-0.40107045659157625,177.5997277567013,-21.39997364813625,24.784825,59.480817,12.175056784511428,35.5403089160003,63.55794509789756,4.8720856125470196,0.0038180315616877718,0.5953076093598617
