time,dpt,mtw,awa,aws,cog,hdg,rot,sog,stw,pitch,yaw,roll,lng,lat,tws,twa,twd,vmg,dist,cum_dist
2025-09-06T12:03:03+03:00,,287.15,76.99979808763133,10.206,338.1596906862119,329.8976392804254,0.5000202678106694,5.01552,4.548959999999999,-1.1000789666511805,149.89721836212598,-6.199403343315507,24.791844,59.487441,10.309595410742052,105.29544891599296,83.45513960220484,-1.3230762855722,0.002598521927205838,0.002598521927205838
2025-09-06T12:03:05+03:00,,287.15,76.0028515241037,10.303199999999999,338.9962090671029,331.3987887036681,1.1000216708716675,5.1127199999999995,4.64616,-0.29793805346802804,151.9999734702561,-7.0015442564986605,24.791817,59.487485,10.33505210493201,104.6888027400175,83.68501180712036,-1.296426824847434,0.0027701288023525526,0.00536865072955839
2025-09-06T12:03:07+03:00,,287.15,73.00055267761819,10.1088,344.07261513196204,332.6994028986152,1.8000042091829944,4.996079999999999,4.704479999999999,-0.20053522829578813,153.00264961173502,-7.500017538262475,24.791787,59.48753,9.880156122965424,101.91965644021415,85.99227157217621,-1.0318897134214082,0.002855595655266011,0.0082242463848244
2025-09-06T12:03:10+03:00,,287.15,69.99825383113267,9.992159999999998,343.831972858007,335.50116651680486,2.000023775463165,5.07384,4.74336,-0.40107045659157625,155.99921888026924,-7.597420363434716,24.79176,59.487575,9.534375210876505,100.00248335312968,83.83445621113668,-0.8812796418272861,0.0028275716478103645,0.011051818032634764
2025-09-06T12:03:12+03:00,,287.15,69.99825383113267,10.303199999999999,345.92899838818585,339.20247387334996,0.6999825383113268,5.28768,4.7628,-0.29793805346802804,160.19899951857818,-7.299482309966689,24.791742,59.48762,9.841028298183707,100.32299228134315,86.251990669529,-0.9475365247905316,0.0027600650429870466,0.013811883075621811
2025-09-06T12:03:14+03:00,,287.15,67.00168456259847,10.4976,347.9973760286081,338.1023949066988,-1.1000216708716675,5.28768,4.87944,-0.49847328176381617,157.59777112868423,-8.600096504913656,24.791721,59.487665,9.735748689044476,96.99843296997405,84.9958089985821,-0.6442625502827365,0.0027797350594978977,0.01659161813511971
2025-09-06T12:03:16+03:00,,287.15,63.999385716112954,10.808639999999999,345.9977533236015,336.20017502686443,1.5999846429028237,5.326560000000001,4.97664,-0.8021409131831525,156.4002893368608,-8.10162322314984,24.791719,59.487667,9.732484825682116,93.46523713624661,79.46299045984813,-0.32195291225092887,0.0001348227460410806,0.01672644088116079
2025-09-06T12:03:20+03:00,,287.15,61.99976301110639,11.60568,350.99967487509366,341.79797268529256,0.2000195662801704,5.20992,5.0544,-0.6990085100596044,161.7001489418209,-8.600096504913656,24.791667,59.487805,10.24996351692975,88.66581030572557,79.66548518081925,0.12130724921614311,0.0027932729778584946,0.019519713859019284
2025-09-06T12:03:22+03:00,,287.15,61.99976301110639,11.702879999999999,0.18907607239317165,341.4026318066523,0.0,5.69592,5.13216,-0.20053522829578813,161.00114043176134,-9.20170218980102,24.79167,59.487814,10.334975555995229,91.11831372882222,91.3073898012154,-0.1111673696066917,0.0005486620752887387,0.020068375934308023
2025-09-06T12:03:24+03:00,,287.15,61.002816447578745,11.508479999999999,350.99967487509366,340.801026121765,1.4000223724021665,5.5598399999999994,5.22936,0.09740282517223994,160.69747280034198,-10.198648753328653,24.791657,59.487865,10.06583575530496,89.8913546007886,80.89102947588225,0.010542673116454635,0.0030910593836724507,0.023159435317980474
2025-09-06T12:03:26+03:00,,287.15,60.0001403060998,11.80008,351.9966214386213,341.5000346318246,1.5000035076524951,5.754239999999999,5.26824,-0.6016056848873644,161.9006841701167,-10.3017811564522,24.791646,59.487918,10.22022316985674,89.18274053986242,81.17936197848371,0.08207493903222605,0.003203347338649836,0.02636278265663031
2025-09-06T12:03:28+03:00,,287.15,56.99784145961429,11.80008,359.0497318966817,343.4022545116589,1.5999846429028237,5.851439999999999,5.346,0.20053522829578813,163.69977164682751,-10.800254438216017,24.791643,59.487969,9.912869958958792,86.67051750041372,85.72024939709542,0.3398383685787812,0.003066860395848095,0.029429643052478405
2025-09-06T12:03:30+03:00,,287.15,52.99859604960115,11.99448,357.99548955364094,345.0982095852462,0.3999818367808277,5.832,5.38488,-0.49847328176381617,165.49885912353832,-9.098569786677473,24.791637,59.488023,9.678891441306938,81.7628992079347,79.75838876157565,0.8355495583289263,0.0032509774080595674,0.032680620460537976
2025-09-06T12:03:32+03:00,,287.15,50.998973344594575,12.091679999999998,357.6517148765625,346.70249141161247,0.8000209693411684,5.9292,5.48208,0.09740282517223994,166.90260572160878,-7.597420363434716,24.791635,59.488074,9.54595006788354,79.860570049916,77.51228492647851,1.0438012844274447,0.003066101101188191,0.03574672156172617
2025-09-06T12:03:34+03:00,,287.15,48.999350639587995,11.60568,0.9969465635276323,349.8021930832702,-0.6999825383113268,5.87088,5.48208,-0.6990085100596044,170.09971021843882,-6.199403343315507,24.791636,59.488127,8.93062053111092,78.74376743803084,79.74071400155847,1.1459782187584426,0.003185855140172974,0.03893257670189914
2025-09-06T12:03:36+03:00,,287.15,54.00127219108009,11.60568,0.9969465635276323,350.10013113673824,-0.9000021045914972,5.90976,5.52096,-0.49847328176381617,170.09971021843882,-5.597797658428142,24.791639,59.488186,9.433500730066285,84.45412477752434,85.45107134105197,0.5711352174010563,0.00354753684235884,0.04248011354425798
2025-09-06T12:03:38+03:00,,287.15,50.998973344594575,11.00304,355.9958668486344,348.30104366002746,1.2999839413723246,5.69592,5.57928,-0.20053522829578813,167.6016142316684,-8.502693679741416,24.791632,59.488235,8.638666857778407,81.82313909755688,77.81900594619128,0.8101261309155565,0.002953015080768804,0.045433128625026784
2025-09-06T12:03:40+03:00,,287.15,46.99972793458143,10.808639999999999,357.99548955364094,349.00005217008703,1.5000035076524951,5.754239999999999,5.5598399999999994,-0.6016056848873644,169.29756930525565,-7.9984908200262925,24.791624,59.488292,8.06864764764733,78.43736374731671,76.43285330095762,1.1533745568591174,0.003434827335272835,0.04886795596029962
2025-09-06T12:03:44+03:00,,287.15,46.99972793458143,11.80008,358.9981656951199,351.89921861344897,1.2999839413723246,5.57928,5.50152,-0.8021409131831525,172.09933292344536,-10.702851613043778,24.791621,59.488399,8.976066829295137,74.03813316230993,73.03629885742981,1.5342882070648796,0.0009098417471582157,0.04977779770745784
2025-09-06T12:03:48+03:00,,287.15,50.002026781066945,12.49992,5.998868115019719,352.30028907004055,0.9000021045914972,5.754239999999999,5.5404,-0.6016056848873644,172.50040338003691,-9.001166961505232,24.791636,59.488506,9.843521405309216,76.6059863486548,82.60485446367451,1.3329482047890633,0.0007955824771855765,0.05057338018464342
2025-09-06T12:03:50+03:00,,287.15,48.999350639587995,12.59712,6.995814678547352,354.2025089498749,0.6999825383113268,5.67648,5.5404,-0.6990085100596044,174.70056131333934,-9.40223741809681,24.791649,59.488556,9.853051048005126,74.77156396295901,81.76737864150635,1.491030139103659,0.0030314575661086352,0.05360483775075205
2025-09-06T12:03:54+03:00,,287.15,48.999350639587995,13.00536,5.998868115019719,354.2999117750472,0.5000202678106694,5.832,5.6181600000000005,0.29793805346802804,174.50002608504352,-11.201324894807593,24.791675,59.488666,10.179870154123309,74.61711441921462,80.61598253423433,1.547043719513044,0.0005486616898237242,0.05415349944057578
2025-09-06T12:03:56+03:00,,287.15,46.00278137105379,12.79152,5.998868115019719,354.09937654675133,0.09998113525032865,5.90976,5.65704,-0.29793805346802804,173.69788517186038,-11.201324894807593,24.791695,59.488726,9.671007560358163,72.08081350277293,78.07968161779264,1.8182869365367744,0.003657744495436811,0.05781124393601259
2025-09-06T12:03:58+03:00,,287.15,46.00278137105379,13.00536,8.995437383553925,353.40036803669176,-0.5000202678106694,5.57928,5.6376,-0.29793805346802804,172.59780620520917,-11.000789666511807,24.791708,59.488776,9.973125986066947,69.73359417859086,78.72903156214478,1.9325826993005863,0.003031457227067323,0.06084270116307992
2025-09-06T12:04:00+03:00,,287.15,46.99972793458143,12.79152,4.961814505832929,352.9992975801002,-0.5000202678106694,5.7348,5.6376,-0.49847328176381617,172.99887666180075,-9.29910501497326,24.791726,59.48883,9.820995810678808,72.28081481588603,77.24262932171897,1.745398064407672,0.003291969756248947,0.06413467091932887
2025-09-06T12:04:04+03:00,,287.15,46.99972793458143,12.091679999999998,4.961814505832929,351.29761292856165,0.8000209693411684,5.598719999999999,5.69592,-0.6016056848873644,171.29719201026222,-12.198271458335228,24.791757,59.488937,9.231151894293587,73.33136554847933,78.29318005431226,1.6059152003991994,0.0008951337087477374,0.0650298046280766
2025-09-06T12:04:08+03:00,,287.15,48.999350639587995,12.908159999999999,2.9965692685342056,350.300666365034,-0.8000209693411684,6.24024,5.67648,-0.40107045659157625,170.59818350020262,-9.001166961505232,24.791776,59.489055,9.99343188544052,77.11558334288087,80.11215261141507,1.3914798638683457,0.001546670703455774,0.06657647533153238
2025-09-06T12:04:10+03:00,,287.15,48.999350639587995,12.402719999999999,0.9969465635276323,348.59898171349545,-0.300000701530499,5.98752,5.7153599999999996,-0.09740282517223994,167.89955228513642,-12.198271458335228,24.791775,59.48911,9.603993383965092,77.06688767639493,78.06383423992256,1.3400872793046197,0.0033060652487045907,0.06988254058023698
2025-09-06T12:04:14+03:00,,287.15,50.002026781066945,12.20832,1.9996227050065731,344.8002715317781,0.3999818367808277,6.1624799999999995,5.754239999999999,-0.09740282517223994,164.59931538518288,-12.79987714322259,24.79178,59.489218,9.502891946637517,79.78940867245791,81.78903137746448,1.0924023044310314,0.001092725578086347,0.07097526615832332
2025-09-06T12:04:16+03:00,,287.15,50.998973344594575,12.402719999999999,3.9992454100131463,345.0982095852462,-0.6999825383113268,6.045839999999999,5.79312,-0.6016056848873644,165.0977886669467,-11.60239535139917,24.791786,59.489272,9.797885110949085,79.65403071514346,83.65327612515661,1.0857817378193984,0.0032509770265724265,0.07422624318489575
2025-09-06T12:04:18+03:00,,287.15,52.00164948607352,12.30552,2.0511889065683473,345.49928004183766,0.600001403060998,6.14304,5.87088,-0.40107045659157625,166.10046480842567,-11.098192491684046,24.791792,59.489327,9.802368367888386,81.59553450328002,83.64672340984836,0.8978675228470885,0.0033109910474091596,0.07753723423230491
2025-09-06T12:04:22+03:00,,287.15,50.998973344594575,12.091679999999998,358.9981656951199,344.3992010751865,0.6999825383113268,6.24024,5.9292,-0.20053522829578813,163.79717447199974,-14.301026566465348,24.7918,59.489442,9.496130656150251,81.70826916748867,80.70643486260855,0.8999261459747189,0.0010113130897219224,0.07854854732202683
2025-09-06T12:04:24+03:00,,287.15,50.998973344594575,12.20832,3.5580679077624127,343.2991221085353,0.8000209693411684,6.4152,5.94864,-0.09740282517223994,163.09816596194014,-13.899956109873772,24.791798,59.489506,9.571856306989805,82.38806963131978,85.94613753908219,0.8497752420739942,0.0038473779796868402,0.08239592530171368
2025-09-06T12:04:26+03:00,,287.15,50.002026781066945,12.79152,0.9969465635276323,344.1012630217185,0.8000209693411684,6.648479999999999,5.96808,-0.40107045659157625,164.30137733171486,-12.398806686631014,24.791802,59.489566,9.924676741251176,80.87815482857137,81.875101392099,1.0540136332455712,0.0036085281353165377,0.08600445343703021
2025-09-06T12:04:30+03:00,,287.15,46.99972793458143,12.49992,7.9984908200262925,349.8995959084425,2.9000258800546614,6.337439999999999,6.08472,-0.29793805346802804,170.7987187284984,-11.499262948275621,24.791828,59.489732,9.399903984358094,76.54284586561998,84.54133668564627,1.4748373698171466,0.0035385886670995107,0.08954304210412972
2025-09-06T12:04:32+03:00,,287.15,43.99742908809592,12.59712,13.99735893504601,357.10167539323686,1.4000223724021665,5.890319999999999,6.08472,-0.6990085100596044,178.29873626676087,-7.098947081670899,24.791862,59.489788,9.30736878579884,70.07613855437732,84.07349748942333,2.0072509071601443,0.003522312569634842,0.09306535467376456
2025-09-06T12:04:34+03:00,,287.15,41.99780638308934,13.00536,14.994305498573642,4.199780638308934,-0.600001403060998,6.27912,6.045839999999999,-0.6016056848873644,-175.50270222652244,-5.998868115019719,24.791897,59.489841,9.337496777632115,68.73804910723857,83.7323546058122,2.2770125492719724,0.0033599861807249083,0.09642534085448946
2025-09-06T12:04:36+03:00,,287.15,37.998560973076195,11.89728,11.997736230039438,3.9992454100131463,2.000023775463165,5.98752,5.9292,-0.6990085100596044,-176.4996487900501,-10.198648753328653,24.791923,59.489896,8.070021924086987,65.1776214685998,77.17535769863923,2.513600469390627,0.0033998015309421826,0.09982514238543165
2025-09-06T12:04:38+03:00,,287.15,37.001614409548566,12.402719999999999,16.99965778153153,4.898789148368539,2.000023775463165,5.7153599999999996,5.851439999999999,-0.40107045659157625,-174.50002608504352,-9.602772646392598,24.791955,59.48995,8.55985036544441,60.695074254657825,77.69473203618935,2.7974253722550206,0.0033895289742680973,0.10321467135969975
2025-09-06T12:04:40+03:00,,287.15,37.001614409548566,12.908159999999999,20.941607412031587,9.20170218980102,0.9999832398418258,5.404319999999999,5.773680000000001,-0.40107045659157625,-169.89917499014302,-7.299482309966689,24.791995,59.489996,9.187180455373351,57.73552196029037,78.67712937232196,2.8849784469293778,0.0030224065470004385,0.10623707790670019
2025-09-06T12:04:42+03:00,,287.15,35.99893826806962,12.69432,22.998525896551243,12.89727996839483,0.9999832398418258,5.443199999999999,5.69592,-0.6990085100596044,-166.50153526501725,-7.797955591730505,24.792035,59.49004,8.886518864804637,57.10054612189052,80.09907201844176,2.9565636042244825,0.002912835149196483,0.10914991305589666
2025-09-06T12:04:44+03:00,,287.15,31.002746294528848,12.69432,25.851855716302744,13.498885653282196,1.200002806121996,5.50152,5.5598399999999994,-0.6016056848873644,-166.3984028618937,-9.29910501497326,24.792032,59.490047,8.467002778393999,50.55569576282082,76.40755147912355,3.495268836671806,0.00043059837562793796,0.1095805114315246
2025-09-06T12:04:48+03:00,,287.15,28.000447448043335,12.908159999999999,26.848802279830377,15.802175989708104,0.300000701530499,5.09328,5.326560000000001,-0.8021409131831525,-163.79717447199974,-7.797955591730505,24.792112,59.490138,8.744370922053744,43.87036513510279,70.71916741493317,3.6717947567152773,0.00048086173089565706,0.11006137316242026
2025-09-06T12:04:52+03:00,,287.15,28.000447448043335,12.59712,25.99509516508545,19.497753768301912,2.7999874490248207,4.859999999999999,5.151599999999999,-0.29793805346802804,-159.40258818334632,-7.2020794847944485,24.792191,59.490222,8.613700743849313,43.36074076883932,69.35583593392477,3.5334401321798867,0.0004207540150116396,0.1104821271774319
2025-09-06T12:04:54+03:00,,287.15,28.000447448043335,12.69432,30.99701671657754,25.80028951474097,3.0000070153049903,4.74336,5.07384,-0.29793805346802804,-152.89951720861148,-7.500017538262475,24.792239,59.49026,8.792868158999278,42.67111247941503,73.66812919599258,3.4875858822291748,0.0027134107724153546,0.11319553794984726
2025-09-06T12:04:56+03:00,,287.15,28.997394011570965,12.402719999999999,39.998183678082775,31.902290032884235,1.200002806121996,4.58784,4.84056,-0.6990085100596044,-147.80019283194716,-5.500394833255903,24.792292,59.490294,8.679777786806303,43.84405903035025,83.84224270843302,3.3088776300112483,0.0026062097566377953,0.11580174770648505
2025-09-06T12:05:00+03:00,,287.15,24.001202038030186,11.80008,41.99780638308934,39.998183678082775,1.200002806121996,4.41288,4.64616,-0.6016056848873644,-139.40063155532928,-3.3976397251257815,24.79239,59.490358,7.973417879235862,37.011053688073645,79.00886007116299,3.5237702504855526,0.0002423596676628759,0.11604410737414793
2025-09-06T12:05:02+03:00,,287.15,20.99890319154467,12.402719999999999,42.99475294661698,43.4989558063321,1.4000223724021665,4.1212800000000005,4.49064,-0.29793805346802804,-135.60192137361193,-3.0997016716577535,24.792486,59.490406,8.681683652789667,30.793250567818347,73.78800351443533,3.5402628091114745,0.004111715110617184,0.12015582248476511
2025-09-06T12:05:04+03:00,,287.15,18.002333923010465,12.59712,46.99972793458143,45.29804328304288,1.200002806121996,3.7908,4.257359999999999,-0.40107045659157625,-134.30130717866496,-3.5981749534215695,24.792533,59.490429,9.06790419464893,25.42566954455316,72.42539747913459,3.4236346038872214,0.0019920525450559602,0.12214787502982108
2025-09-06T12:05:06+03:00,,287.15,18.002333923010465,12.402719999999999,52.99859604960115,45.40117568616643,-2.400005612243992,3.5964,4.101839999999999,-0.49847328176381617,-135.4987889704884,-4.297183463481174,24.79254,59.490432,9.050892611581489,25.056305314031363,78.05490136363251,3.2579501217678675,0.00027954497490539475,0.12242742000472648
2025-09-06T12:05:08+03:00,,287.15,18.999280486538098,12.091679999999998,39.45960335065979,38.600166657963555,-0.6999825383113268,3.6352800000000003,4.02408,-0.8021409131831525,-142.29979799869125,-7.2020794847944485,24.79259,59.490458,8.734986120492756,26.786136120382906,66.2457394710427,3.2451958845013413,0.0021841134812263753,0.12461153348595286
2025-09-06T12:05:10+03:00,,287.15,20.00195662801704,11.60568,38.995507536603824,34.60092124795042,-0.09998113525032865,3.71304,3.9463199999999996,-0.09740282517223994,-145.69743772381705,-6.399938571611295,24.792628,59.49048,8.21537258542366,28.895251554991262,67.89075909159509,3.250783512742832,0.001758782557375207,0.12637031604332807
2025-09-06T12:05:12+03:00,,287.15,24.001202038030186,11.89728,40.427902024430885,35.20252693283778,2.6000251785241626,3.61584,3.86856,-0.49847328176381617,-144.29942070369782,-5.700930061551691,24.792677,59.490504,8.719019437065215,33.71254721628577,74.14044924071666,3.007773576344574,0.002077706111084452,0.12844802215441253
2025-09-06T12:05:14+03:00,,287.15,22.998525896551243,11.89728,60.32099667137307,42.30147401450868,6.0000140306099805,3.3242399999999996,3.8296799999999998,-0.6016056848873644,-135.20085091702038,-3.798710181717358,24.79272,59.490526,8.932199765010788,31.359380404043378,91.68037707541644,2.8386348555136696,0.0018629137962375725,0.1303109359506501
2025-09-06T12:05:16+03:00,,287.15,18.999280486538098,12.20832,76.59872763103975,59.70220225263178,8.500000778104303,3.12984,3.73248,-0.20053522829578813,-116.60264088707383,-1.7990874767107847,24.79281,59.490567,9.304943135081126,25.28607014828947,101.88479777932922,2.8299588339852573,0.0036899921178681354,0.13400092806851824
2025-09-06T12:05:18+03:00,,287.15,7.0015442564986605,11.89728,61.99976301110639,80.09949975928909,8.800001479634801,2.6244,3.5964,-0.49847328176381617,-95.99907857416943,-0.6990085100596044,24.792809,59.490558,9.297955417793693,8.973243706171985,70.97300671727837,2.5922807176978093,0.0005418294372376998,0.13454275750575595
2025-09-06T12:05:20+03:00,,287.15,-3.99838597332045,11.29464,85.99523547118525,98.1992365074718,8.899982614885129,2.2356,3.42144,-1.0026761414789407,-78.3004122825783,3.5007721282493303,24.792852,59.490564,9.065821717602653,4.9836224651476755,81.01161300603758,2.2271484710446394,0.0013608258840363183,0.13590358338979228
2025-09-06T12:05:22+03:00,,287.15,-20.998043754851974,10.303199999999999,135.5618143279528,114.29935055064793,9.000021045914972,2.6632800000000003,3.09096,-1.3006141949469687,-62.89930674946178,6.497341396783535,24.792955,59.490553,7.874824000606115,27.95882502891348,107.60298929903931,2.3524345965208995,0.003211888054120503,0.13911547144391279
2025-09-06T12:05:24+03:00,,287.15,-42.002676524347955,9.408959999999999,131.99801684223905,127.20236009699407,9.19998331641563,2.41056,2.7021599999999997,-1.0026761414789407,-49.89889437794339,9.001166961505232,24.79292,59.490552,7.786553432674067,53.95865484299722,78.03936199924183,1.4182985193056352,0.0010697329413062906,0.1401852043852191
2025-09-06T12:05:26+03:00,,287.15,-54.99735931791503,8.90352,173.81820630883786,141.49765708550808,9.1000021811653,3.26592,2.83824,-1.501149423242757,-35.901535442897384,9.20170218980102,24.793005,59.490505,7.521940169211706,75.83081453025714,97.98739177858072,0.7994513891526864,0.003835216144457906,0.14402042052967698
2025-09-06T12:05:28+03:00,,287.15,-69.99739439443997,9.50616,157.9988415852758,148.40179851683453,3.9000091198964877,3.4992,3.09096,-0.8995437383553924,-31.100149119701083,9.797578296737077,24.792971,59.490507,8.936148513418317,91.5870668118616,66.41177477341421,-0.09691384077086355,0.0010444700998568407,0.14506489062953382
2025-09-06T12:05:30+03:00,,287.15,-72.9996932409255,9.50616,176.99812207181392,150.29828881871757,1.899985344433323,4.0629599999999995,3.34368,-1.0026761414789407,-28.997394011570965,8.30215845144563,24.792979,59.490471,9.180941959173628,98.0367991566906,78.96132291512332,-0.5680387328498985,0.0021776050804808407,0.14724249571001466
2025-09-06T12:05:34+03:00,,287.15,-74.99931594593207,9.79776,176.5684037254658,158.8983853236312,0.9999832398418258,4.101839999999999,3.86856,-0.49847328176381617,-19.89882422489349,4.898789148368539,24.79302,59.490363,9.592548622843031,99.39496223593903,77.17344148952677,-0.6695811485915838,0.002405083146202704,0.14964757885621735
2025-09-06T12:05:36+03:00,,287.15,-78.00161479241758,9.60336,180.401491374891,159.5973938336908,0.6999825383113268,4.45176,4.0629599999999995,-0.40107045659157625,-19.400350943129673,5.099324376664327,24.793015,59.490322,9.709162016263058,104.6487396877268,75.7527516871642,-1.1258165652930128,0.002469135123513529,0.15211671397973087
2025-09-06T12:05:38+03:00,,287.15,-78.00161479241758,9.70056,181.42135625022388,159.99846429028239,0.8000209693411684,4.4712,4.14072,-0.8995437383553924,-19.297218540006124,5.001921551492087,24.792983,59.490304,9.80098555187063,104.5038451200571,76.91751113016679,-1.119789576171114,0.0014574465501406982,0.15357416052987158
2025-09-06T12:05:40+03:00,,287.15,-74.99931594593207,9.50616,180.14938994503345,159.098920551927,-0.9000021045914972,4.23792,4.33512,-1.1000789666511805,-21.199438419840458,5.001921551492087,24.793,59.490238,9.35266634191881,100.95545805982397,79.19393188520948,-0.8053989703737348,0.004000884442667646,0.1575750449725392
2025-09-06T12:05:42+03:00,,287.15,-74.99931594593207,9.408959999999999,181.0202857936323,158.10197398839935,-0.300000701530499,4.33512,4.43232,-1.501149423242757,-22.402649789615186,5.2998596049601145,24.792995,59.490198,9.284768604758426,101.80690270664162,79.21338308699067,-0.8870261542256451,0.0024091451780814455,0.15998419015062065
2025-09-06T12:05:44+03:00,,287.15,-74.99931594593207,9.408959999999999,183.07720427815195,159.20205295505053,0.5000202678106694,4.35456,4.49064,-1.902219879834333,-21.199438419840458,5.500394833255903,24.792987,59.490155,9.288765791369165,101.9242773026264,81.15292697552556,-0.8997338728489086,0.0025961354871020907,0.16258032563772273
2025-09-06T12:05:46+03:00,,287.15,-76.001992087411,9.70056,180.99736748182707,160.80060520346555,0.2000195662801704,4.64616,4.58784,-1.501149423242757,-20.09935945318928,5.397262430132355,24.79297,59.490137,9.689359997235345,103.72982136172342,77.26754612010365,-1.1027372083461608,0.0011998808371094436,0.16378020647483219
2025-09-06T12:05:48+03:00,,287.15,-76.001992087411,10.206,184.9966128918402,161.40221088835293,0.09998113525032865,4.704479999999999,4.62672,-1.701684651538545,-19.19981571483389,5.001921551492087,24.792965,59.490068,10.152170663240062,102.72229296939702,82.27431992244317,-1.0360476563954075,0.004150238102668995,0.16793044457750117
2025-09-06T12:05:50+03:00,,287.15,-76.001992087411,10.303199999999999,180.99736748182707,162.30175462670832,0.8000209693411684,4.74336,4.64616,-0.8995437383553924,-17.400728238123104,4.801386323196299,24.792962,59.490023,10.247554889247397,102.68998096649186,78.30738651533521,-1.042000520541085,0.002706396054376398,0.17063684063187756
2025-09-06T12:05:52+03:00,,287.15,-74.00236938240442,10.808639999999999,183.83923814567595,162.19862222358475,0.0,4.704479999999999,4.68504,-0.6990085100596044,-17.29759583499955,4.60085109490051,24.792962,59.490006,10.532382857665969,99.42995970396322,84.40927844171273,-0.7707905371783119,0.0010218311792047385,0.1716586718110823
2025-09-06T12:05:54+03:00,,287.15,-71.00007053591892,10.90584,182.99699018683364,157.79830635698005,-2.199986045963822,4.510079999999999,4.74336,-1.0026761414789407,-22.29951738649164,3.9018425848409057,24.792963,59.489967,10.356222980664045,95.31604717925741,87.68094300757623,-0.41785648793934865,0.0023443995553950954,0.17400307136647739
2025-09-06T12:05:56+03:00,,287.15,-67.00082512590576,10.5948,177.99506863534154,153.3979904903753,-1.200002806121996,4.704479999999999,4.74336,-0.8021409131831525,-26.499298024800574,5.001921551492087,24.792955,59.489918,9.768971184669075,93.31504533901736,84.68002329632418,-0.2720421084687005,0.0029553784584065283,0.1769584498248839
2025-09-06T12:05:58+03:00,,287.15,-65.99814898442683,11.10024,173.9958232253284,153.00264961173502,-0.2000195662801704,4.41288,4.704479999999999,-0.8995437383553924,-26.499298024800574,3.9018425848409057,24.792964,59.489877,10.140944193048954,89.42187673389645,84.57394649143194,0.04452588533549415,0.002479672941977857,0.17943812276686175
2025-09-06T12:06:00+03:00,,287.15,-65.99814898442683,10.90584,175.14746839354137,154.80173708844583,0.0,4.45176,4.74336,-1.1974817918234204,-24.900745776385577,3.300236899953542,24.792973,59.489813,9.962849549775987,90.08990673425284,85.05756165928854,-0.006985558839173211,0.003856685411976676,0.18329480817883842
2025-09-06T12:06:02+03:00,,287.15,-67.00082512590576,10.206,174.99849936680735,154.40066663185422,-0.300000701530499,4.60728,4.74336,-1.598552248414997,-26.29876279650479,5.001921551492087,24.792965,59.489796,9.4151405633452,93.77338058718594,81.22511877962141,-0.30320656327618484,0.0010505894398340574,0.18434539761867247
2025-09-06T12:06:04+03:00,,287.15,-69.99739439443997,10.1088,173.9958232253284,152.89951720861148,-0.300000701530499,4.704479999999999,4.74336,-1.3980170201192088,-27.799912219747544,5.2998596049601145,24.792973,59.489756,9.580461484303294,97.47667836410692,76.51914486122148,-0.6121592838631338,0.002416671145659983,0.18676206876433246
2025-09-06T12:06:06+03:00,,287.15,-71.00007053591892,10.303199999999999,174.99849936680735,150.8998945036049,-0.6999825383113268,4.704479999999999,4.74336,-1.501149423242757,-29.799534924754116,6.497341396783535,24.792982,59.489713,9.83497930752573,97.89020099874091,77.10829836806644,-0.6458081614945005,0.00259918297511756,0.18936125173945
2025-09-06T12:06:08+03:00,,287.15,-69.00044783091235,10.692,168.99963125178763,149.79981553695373,-0.2000195662801704,4.859999999999999,4.7628,-1.3980170201192088,-30.802211066233056,6.801009028202872,24.79299,59.489667,10.034709204362146,95.88229007700967,73.11734117477796,-0.49807745359302474,0.0027757117142276676,0.19213696345367767
2025-09-06T12:06:10+03:00,,287.15,-67.9977716894334,10.4976,173.9958232253284,147.59965760365137,-0.600001403060998,4.58784,4.82112,-1.3006141949469687,-33.09977182470766,7.700552766558264,24.793003,59.489622,9.75506639535145,93.84994733422667,80.14587589110172,-0.30804457087955206,0.0027337847839674014,0.19487074823764508
2025-09-06T12:06:14+03:00,,287.15,-69.00044783091235,11.10024,169.99657781531528,147.39912237535557,0.6999825383113268,4.859999999999999,4.859999999999999,-1.0026761414789407,-32.10282526118002,7.500017538262475,24.793035,59.489537,10.400473284832152,94.86535692506618,75.1312208902491,-0.4121983805973344,0.0011747865601411133,0.1960455347977862
2025-09-06T12:06:18+03:00,,287.15,-67.00082512590576,10.5948,168.32927063148455,145.89797295211284,0.2000195662801704,4.74336,4.859999999999999,-0.8021409131831525,-33.598245106471474,7.700552766558264,24.793062,59.489452,9.771296559989153,93.54264442215643,74.78662620932812,-0.2930989494429091,0.0010564334708115318,0.19710196826859772
2025-09-06T12:06:22+03:00,,287.15,-65.99814898442683,10.4976,169.10276365491114,148.2012632885387,-0.2000195662801704,4.68504,4.87944,-0.6990085100596044,-31.5986224014649,6.697876625079324,24.793138,59.48933,9.598870925292827,92.47774282141856,76.62502083349258,-0.20254033585274794,0.002619704001947856,0.19972167227054557
2025-09-06T12:06:24+03:00,,287.15,-65.0012024208992,10.4004,169.56112989101584,146.2990434087044,-0.09998113525032865,4.84056,4.84056,-0.8995437383553924,-33.598245106471474,6.697876625079324,24.793155,59.489288,9.436570960091851,92.70507842205936,76.85605146895648,-0.22845016779309535,0.0025772771425844033,0.20229894941312998
2025-09-06T12:06:26+03:00,,287.15,-63.99852627942025,9.992159999999998,166.66196344765385,146.00110535523638,0.09998113525032865,4.82112,4.78224,-0.6016056848873644,-33.70137750959502,7.098947081670899,24.793172,59.489244,8.991583445063108,92.808788693347,73.85317475430685,-0.23624923598221448,0.0026951407043394496,0.20499409011746944
2025-09-06T12:06:28+03:00,,287.15,-61.00195701088606,9.89496,169.99657781531528,144.99842921375745,-0.600001403060998,4.43232,4.74336,-1.1000789666511805,-35.20252693283778,7.098947081670899,24.793188,59.4892,8.662165628093558,87.58793546001175,82.40864235530353,0.18653877040826025,0.0026894334380217714,0.20768352355549122
2025-09-06T12:06:30+03:00,,287.15,-61.00195701088606,9.992159999999998,164.99465626382317,143.800947421934,-0.09998113525032865,4.257359999999999,4.7628,-1.3006141949469687,-35.7010002146016,6.302535746439056,24.793212,59.489155,8.759172295219363,86.15979803203872,78.83485823178445,0.285132420639091,0.0028022511337000857,0.2104857746891913
2025-09-06T12:06:32+03:00,,287.15,-63.001579715892625,9.992159999999998,165.99733240530213,146.79751669046823,1.200002806121996,4.21848,4.68504,-1.1000789666511805,-32.2976309115245,5.700930061551691,24.793235,59.489109,8.908868541247713,87.95684977681302,78.04048262848912,0.1503978455602795,0.0028526514443701924,0.2133384261335615
2025-09-06T12:06:34+03:00,,287.15,-63.001579715892625,10.1088,169.99657781531528,148.29866611371096,0.300000701530499,4.35456,4.74336,-1.1974817918234204,-31.398087173169117,6.600473799907084,24.793252,59.489068,9.010185119603994,88.50870412990305,81.48787368541223,0.1133277912583288,0.0025184295037498773,0.21585685563731136
2025-09-06T12:06:36+03:00,,287.15,-63.001579715892625,10.303199999999999,172.99887666180075,148.29866611371096,0.3999818367808277,4.49064,4.74336,-1.501149423242757,-31.5986224014649,6.199403343315507,24.793271,59.489025,9.182244861333558,88.8351791374342,84.16369752436655,0.09128823954439631,0.0026488702259479476,0.2185057258632593
2025-09-06T12:06:38+03:00,,287.15,-65.0012024208992,9.992159999999998,170.9992539567942,148.99767462377056,0.600001403060998,4.43232,4.74336,-1.3006141949469687,-31.002746294528848,6.102000518143266,24.793282,59.488986,9.058487222508914,91.32611583158905,79.67313812520516,-0.10257727540529554,0.002368113836260598,0.2208738396995199
2025-09-06T12:06:40+03:00,,287.15,-67.00082512590576,10.5948,173.9958232253284,151.9999734702561,1.200002806121996,4.52952,4.78224,-1.3980170201192088,-28.097850273215574,5.2998596049601145,24.793285,59.488949,9.760416917307872,92.28965578641584,81.70616743891256,-0.18096065055405736,0.0022258690645993733,0.22309970876411928
2025-09-06T12:06:42+03:00,,287.15,-67.9977716894334,10.4976,174.99849936680735,150.2008859935453,-0.6999825383113268,4.7628,4.80168,-1.1000789666511805,-30.298008206517935,6.199403343315507,24.793297,59.488907,9.76837376084909,94.87390282464192,80.12459654216543,-0.40466223985668837,0.0025509463082505654,0.22565065507236984
2025-09-06T12:06:44+03:00,,287.15,-67.00082512590576,10.1088,173.9958232253284,147.59965760365137,-0.3999818367808277,4.393439999999999,4.78224,-1.1974817918234204,-32.899236596411875,7.098947081670899,24.793305,59.488866,9.31583118814705,92.73026568527797,81.26555754005042,-0.2092775320260393,0.0024764794582775446,0.22812713453064737
2025-09-06T12:06:46+03:00,,287.15,-65.99814898442683,10.808639999999999,168.99963125178763,144.70049116028943,-0.09998113525032865,4.6655999999999995,4.74336,-0.8995437383553924,-34.698324073122656,7.299482309966689,24.793318,59.488826,9.877705767859094,91.56059558368952,77.43903566809811,-0.1270637132645076,0.0024368192839553694,0.23056395381460273
2025-09-06T12:06:48+03:00,,287.15,-65.99814898442683,11.00304,166.99427896882975,145.89797295211284,0.9999832398418258,4.548959999999999,4.74336,-0.8995437383553924,-33.70137750959502,7.0015442564986605,24.793332,59.488784,10.051899855010321,90.41778890551672,76.57649006331303,-0.033169776100790235,0.002560420916899732,0.23312437473150247
2025-09-06T12:06:50+03:00,,287.15,-65.99814898442683,11.10024,166.86822825390095,145.1989644420532,-0.5000202678106694,4.93776,4.80168,-1.501149423242757,-34.29725361653108,6.801009028202872,24.793349,59.488739,10.14922827820815,92.38617083752719,74.48205741637376,-0.20558116778888436,0.0027541501237377075,0.23587852485524016
2025-09-06T12:06:52+03:00,,287.15,-63.99852627942025,11.508479999999999,167.99695511030868,141.30285143516363,-0.9000021045914972,4.64616,4.859999999999999,-1.3980170201192088,-38.898104711431586,8.399561276617868,24.793373,59.488694,10.351319821434108,87.79043299809335,80.20652211221532,0.17913112449227292,0.002802253747281776,0.23868077860252193
2025-09-06T12:06:54+03:00,,287.15,-63.99852627942025,11.508479999999999,163.9977097002955,140.90178097857205,0.5000202678106694,4.859999999999999,4.89888,-1.0026761414789407,-38.600166657963555,8.30215845144563,24.793403,59.488649,10.345282310485155,88.97395706963545,75.02375263066006,0.08702738952507434,0.002855585536520535,0.24153636413904248
2025-09-06T12:06:56+03:00,,287.15,-63.99852627942025,11.39184,163.14973216350194,142.50033322698704,1.200002806121996,4.91832,4.97664,-1.0026761414789407,-36.69794677812923,8.10162322314984,24.793428,59.488605,10.239070075028783,89.57584954110817,73.57388262239377,0.03640911510452694,0.0027525826593187727,0.24428894679836125
2025-09-06T12:06:58+03:00,,287.15,-65.0012024208992,11.60568,164.93163090635878,143.4972797905147,0.2000195662801704,5.0544,5.01552,-0.8995437383553924,-36.60054395295699,8.10162322314984,24.79345,59.48856,10.519488425734707,90.8161968341374,74.11543407222138,-0.07199912084416223,0.0027869248738789823,0.24707587167224024
2025-09-06T12:07:00+03:00,,287.15,-65.0012024208992,11.508479999999999,165.99733240530213,141.60078948863168,-0.3999818367808277,5.1710400000000005,5.07384,-1.1000789666511805,-38.39963142966778,8.800631733209444,24.793394,59.488559,10.434860798364177,91.68902430724968,74.30830809805245,-0.15241519335534273,0.0017100262320733956,0.24878589790431363
2025-09-06T12:07:04+03:00,,287.15,-61.00195701088606,11.99448,162.34759125031874,141.49765708550808,0.0,5.22936,5.07384,-0.8995437383553924,-38.30222860449553,5.998868115019719,24.793522,59.488419,10.507123123040119,86.80656725941434,75.5410239909044,0.2913122872164637,0.002969321915061994,0.2517552198193756
2025-09-06T12:07:06+03:00,,287.15,-61.00195701088606,11.89728,164.54774918362114,145.30209684517678,1.1000216708716675,4.996079999999999,5.0544,-1.1000789666511805,-33.798780334767265,3.002298846485514,24.793467,59.48842,10.434351951553287,85.75987637842452,78.78787280519661,0.369393107444905,0.0016795350752000493,0.2534347548945756
2025-09-06T12:07:08+03:00,,287.15,-63.99852627942025,10.90584,171.99620052032182,148.69973657030255,-0.2000195662801704,4.510079999999999,5.0544,-1.1000789666511805,-31.70175480458845,5.397262430132355,24.793484,59.488377,9.805725991057315,88.41645015862005,83.57975036170177,0.12463443755883896,0.0026361850617963143,0.2560709399563719
2025-09-06T12:07:11+03:00,,287.15,-63.001579715892625,9.992159999999998,161.99808699528896,140.59811334715272,1.200002806121996,4.84056,5.03496,-1.3980170201192088,-39.00123711455514,9.001166961505232,24.793516,59.488286,8.908409050575495,91.95856037206444,70.03952662322452,-0.16543422308302125,0.0016490440829683227,0.25771998403934027
2025-09-06T12:07:13+03:00,,287.15,-65.99814898442683,10.4976,166.99427896882975,146.00110535523638,2.1000049107134933,4.87944,5.0544,-1.1000789666511805,-32.899236596411875,5.500394833255903,24.793541,59.488244,9.609238021726418,93.63586212205406,73.35841684677568,-0.3094305863975362,0.0026372899939909418,0.2603572740333312
2025-09-06T12:07:17+03:00,,287.15,-61.99890357441368,9.89496,167.99695511030868,143.69781501881047,-0.300000701530499,4.93776,5.09328,-1.3980170201192088,-36.60054395295699,8.19902604832208,24.79364,59.488123,8.741526897016577,91.91550061843968,76.081454491869,-0.16504741913275442,0.0024805708728765138,0.2628378449062077
2025-09-06T12:07:19+03:00,,287.15,-63.99852627942025,10.206,164.99465626382317,145.8005701269406,1.7000230739326654,5.1127199999999995,5.07384,-1.1974817918234204,-33.39770987817568,6.497341396783535,24.793598,59.488115,9.195169807829378,93.98154562374727,71.01311064007591,-0.35500255730231756,0.001368976006305668,0.26420682091251335
2025-09-06T12:07:23+03:00,,287.15,-65.0012024208992,10.1088,167.99695511030868,146.49957863700018,0.3999818367808277,4.91832,5.13216,-1.1974817918234204,-33.00236899953541,6.89841185337511,24.793696,59.48799,9.184544960761109,94.03544141592518,73.9615136943835,-0.34611950541942826,0.00267902764198289,0.26688584855449626
2025-09-06T12:07:25+03:00,,287.15,-65.99814898442683,10.1088,167.99695511030868,147.5022547784791,1.5999846429028237,4.93776,5.07384,-0.8021409131831525,-31.902290032884235,6.697876625079324,24.793712,59.487947,9.271568668904159,95.1102539326413,72.88670117766738,-0.4398188834624229,0.0026303506133549524,0.2695161991678512
2025-09-06T12:07:27+03:00,,287.15,-67.00082512590576,10.1088,168.99963125178763,148.69973657030255,0.9000021045914972,5.0544,5.1710400000000005,-1.0026761414789407,-30.899613891405295,6.697876625079324,24.793719,59.487903,9.370602029761347,96.77041120057443,72.2292200512132,-0.5958690959609505,0.0026533531362355335,0.27216955230408674
2025-09-06T12:07:29+03:00,,287.15,-65.99814898442683,10.303199999999999,171.99620052032182,146.2990434087044,-0.5000202678106694,4.957199999999999,5.1710400000000005,-1.1000789666511805,-33.70137750959502,7.797955591730505,24.79373,59.487861,9.443441135798311,94.65388976888593,77.34231075143589,-0.4022094264182403,0.0025467458590363503,0.2747162981631231
2025-09-06T12:07:31+03:00,,287.15,-67.9977716894334,10.808639999999999,171.99620052032182,146.2990434087044,0.5000202678106694,5.03496,5.19048,-1.1974817918234204,-33.598245106471474,6.302535746439056,24.793681,59.487854,10.069787126321629,95.61682818708154,76.37937233324028,-0.4927977223813574,0.0015534456909948018,0.2762697438541179
2025-09-06T12:07:35+03:00,,287.15,-61.99890357441368,10.1088,166.99427896882975,148.0981308854152,1.200002806121996,4.957199999999999,5.1127199999999995,-1.1000789666511805,-31.501219576292662,6.199403343315507,24.79377,59.487728,8.927949066588683,91.35574331044378,75.63853565838596,-0.11728723584676068,0.0025555078184420817,0.27882525167256
2025-09-06T12:07:37+03:00,,287.15,-59.999280869407116,10.692,169.99657781531528,148.6023337451303,-0.2000195662801704,4.49064,5.13216,-1.1974817918234204,-31.902290032884235,5.397262430132355,24.793781,59.487687,9.29891095472036,84.72146986627429,85.27510794904099,0.4131274879388678,0.002487175469394811,0.2813124271419548
2025-09-06T12:07:39+03:00,,287.15,-54.99735931791503,10.4976,171.99620052032182,146.90064909359177,0.09998113525032865,4.49064,5.0544,-1.1000789666511805,-33.500842281299235,7.700552766558264,24.793747,59.487679,8.734072725824275,79.90488699073333,92.09131352958849,0.787131742661034,0.001143623217173298,0.28245605035912813
2025-09-06T12:07:43+03:00,,287.15,-57.00271160087291,10.4976,169.99657781531528,147.10118432188756,0.09998113525032865,4.996079999999999,4.957199999999999,-1.1974817918234204,-33.1971746498799,5.700930061551691,24.793835,59.487548,8.833763730584042,85.3189985969485,84.67757921836677,0.4077202518377562,0.0028077400688795336,0.28526379042800765
2025-09-06T12:07:45+03:00,,287.15,-56.00003545939396,10.4004,170.9992539567942,145.50263207347254,-0.09998113525032865,5.13216,4.957199999999999,-0.40107045659157625,-34.497788844826864,6.697876625079324,24.793796,59.487539,8.649387395273155,85.46650026843734,85.53275368835686,0.4056559881180024,0.0013073829505820488,0.28657117337858967
2025-09-06T12:07:47+03:00,,287.15,-57.99965816440055,10.4976,170.9992539567942,142.29979799869125,-1.4000223724021665,4.91832,4.957199999999999,-0.8995437383553924,-38.30222860449553,6.102000518143266,24.793811,59.487498,8.925743800706444,85.85851670549569,85.14073725129852,0.3551990670653497,0.002506572343258928,0.2890777457218486
2025-09-06T12:07:51+03:00,,287.15,-57.00271160087291,9.79776,168.99963125178763,152.60157915514347,-0.3999818367808277,4.723920000000001,4.93776,-0.8995437383553924,-28.602053132930696,7.500017538262475,24.793849,59.487416,8.240098878967729,85.74112837364142,83.25850287814622,0.350812010932996,0.0014089816856358414,0.29048672740748444
2025-09-06T12:07:55+03:00,,287.15,-52.00079004938082,10.4004,170.9992539567942,143.3024741401702,1.5000035076524951,4.89888,5.0544,-1.3980170201192088,-36.801079181252774,12.702474318050351,24.793908,59.487295,8.332596516125555,79.60042366988216,91.39883028691204,0.8843060009285463,0.0025911100065789854,0.2930778374140634
2025-09-06T12:07:57+03:00,,287.15,-59.00233430587948,11.508479999999999,171.80139486997734,140.7986485754485,0.09998113525032865,5.326560000000001,5.151599999999999,-1.0026761414789407,-39.00123711455514,12.702474318050351,24.793878,59.487281,9.883184676817656,86.51748528824889,85.28390958172845,0.3235561881039323,0.0012435331217512673,0.2943213705358147
2025-09-06T12:08:01+03:00,,287.15,-69.00044783091235,12.59712,168.99963125178763,146.90064909359177,1.4000223724021665,5.13216,5.38488,-1.1974817918234204,-32.20022808635227,6.302535746439056,24.793913,59.487188,11.77667840009278,93.00732795085227,75.99230330093536,-0.2692519866366515,0.0010072338876692688,0.29532860442348396
2025-09-06T12:08:03+03:00,,287.15,-63.99852627942025,11.197439999999999,168.7016931983196,142.29979799869125,-1.8000042091829944,5.48208,5.42376,-1.0026761414789407,-38.80070188625935,12.89727996839483,24.793917,59.487136,10.080375498189957,93.25968925941737,75.44200393890222,-0.3117199730524381,0.0031279842281077635,0.29845658865159175
2025-09-06T12:08:07+03:00,,287.15,-65.0012024208992,11.80008,165.94003662578905,137.09734121890338,-0.5000202678106694,5.50152,5.5598399999999994,-1.3980170201192088,-42.89735012144474,10.702851613043778,24.794021,59.486995,10.706992914708357,92.75596634654426,73.18407027924479,-0.2645248588814088,0.00321729626909431,0.30167388492068603
2025-09-06T12:08:09+03:00,,287.15,-65.0012024208992,12.091679999999998,164.99465626382317,138.39795541385035,0.0,5.307119999999999,5.57928,-1.501149423242757,-41.60246550444908,8.697499330085895,24.794048,59.486947,10.96066483287897,91.0308215333233,73.96383473049987,-0.09547646436699209,0.003000532351300567,0.3046744172719866
2025-09-06T12:08:11+03:00,,287.15,-63.001579715892625,12.091679999999998,162.99503355881663,141.6981923138039,0.600001403060998,5.9292,5.6181600000000005,-1.701684651538545,-38.19909620137198,7.901087994854052,24.794075,59.486897,10.7828975947629,92.3385666953956,70.65646686342103,-0.24193719317513043,0.0031163010330499405,0.3077907183050365
2025-09-06T12:08:13+03:00,,287.15,-63.001579715892625,11.89728,165.99733240530213,142.79827128045508,1.1000216708716675,5.22936,5.65704,-0.8021409131831525,-36.49741154983344,7.2020794847944485,24.7941,59.486848,10.602091817984379,89.07260048659542,76.92473191870671,0.0846396401125454,0.00304249696018576,0.3108332152652223
2025-09-06T12:08:15+03:00,,287.15,-63.99852627942025,11.508479999999999,169.6184256705289,146.40217581182796,0.8000209693411684,5.26824,5.67648,-1.3980170201192088,-33.1971746498799,6.199403343315507,24.794119,59.486801,10.346026857291111,91.23499408358215,78.38343158694674,-0.11354660834527269,0.002883958260896453,0.3137171735261187
2025-09-06T12:08:17+03:00,,287.15,-67.00082512590576,10.808639999999999,169.92782287989957,148.0981308854152,0.5000202678106694,5.42376,5.7153599999999996,-1.1000789666511805,-32.40076331464805,6.89841185337511,24.794132,59.486751,10.02164641348451,96.88077863158868,73.04704424831088,-0.6497869804797147,0.0030314602639906025,0.3167486337901093
2025-09-06T12:08:19+03:00,,287.15,-63.99852627942025,10.808639999999999,170.9992539567942,144.4999559319936,-0.9000021045914972,5.20992,5.67648,-1.3006141949469687,-36.801079181252774,8.30215845144563,24.794151,59.486701,9.726053573629937,92.77852402046506,78.22072993632915,-0.25255288986065977,0.0030608139514577332,0.31980944774156705
2025-09-06T12:08:21+03:00,,287.15,-57.99965816440055,10.4004,160.10159669340592,136.30092988367153,-2.499986747494321,5.307119999999999,5.6376,-1.3006141949469687,-44.90270240440262,9.700175471564837,24.794132,59.486684,8.822372460238038,88.67304886474973,71.42854782865619,0.12290014098854458,0.0011748947776370146,0.32098434251920405
2025-09-06T12:08:25+03:00,,287.15,-52.997736612908454,10.4004,158.99578814880346,132.5022197019542,0.300000701530499,4.859999999999999,5.6181600000000005,-1.598552248414997,-47.60133361946879,13.498885653282196,24.79425,59.486569,8.422951617337905,80.43614859417342,78.55963955463004,0.80747265507171,0.0028523026597326775,0.32383664517893673
2025-09-06T12:08:27+03:00,,287.15,-54.99735931791503,11.39184,156.7326048580367,130.69740264729208,-0.5000202678106694,5.28768,5.6181600000000005,-1.9996227050065731,-49.60095632447536,14.10049133816956,24.794286,59.486524,9.414279880253645,82.38930159991595,74.34330325812074,0.7003081121004533,0.0029194717946459006,0.32675611697358264
2025-09-06T12:08:30+03:00,,287.15,-56.00003545939396,12.091679999999998,157.9988415852758,129.29938562717285,-0.600001403060998,5.50152,5.6181600000000005,-1.7990874767107847,-50.70103529112655,13.200947599814167,24.794326,59.48648,10.103344123095201,82.83560582188417,75.16323576339164,0.686131258789104,0.002912888417517001,0.32966900539109967
2025-09-06T12:08:32+03:00,,287.15,-54.99735931791503,11.99448,154.93924695927723,129.70045608376446,-0.09998113525032865,5.69592,5.69592,-1.7990874767107847,-50.20256200936274,12.79987714322259,24.794366,59.486435,9.896103924114167,83.12684216963417,71.81240478964305,0.6816406259769453,0.0029675704382362026,0.33263657582933587
2025-09-06T12:08:34+03:00,,287.15,-54.00041275438739,11.60568,155.99921888026924,128.49724471398974,-0.9000021045914972,5.48208,5.773680000000001,-2.200157933302361,-52.2021847143693,15.699043586584558,24.794404,59.486387,9.484308927316011,81.88078379604839,74.11843508422085,0.7742520525103762,0.0031095314292634976,0.3357461072585994
2025-09-06T12:08:36+03:00,,287.15,-52.00079004938082,12.30552,149.2211281638716,125.79861349892356,-0.9000021045914972,5.9292,5.81256,-2.2975607584746007,-54.90081592943548,16.39805209664416,24.794383,59.486368,9.835810695100275,80.36221612539543,68.85891203847618,0.9926603106685725,0.0013095914078973623,0.33705569866649676
2025-09-06T12:08:38+03:00,,287.15,-50.00116734437425,12.908159999999999,151.62755090342105,125.0022021636917,-0.2000195662801704,5.94864,5.87088,-1.9996227050065731,-54.7002807011397,14.702097023056925,24.794436,59.486319,10.16342139741137,76.64049216304174,74.98705874037931,1.374494923616806,0.0033602151854875695,0.34041591385198433
2025-09-06T12:08:40+03:00,,287.15,-50.99811390790188,13.10256,146.99805191876402,125.79861349892356,-0.600001403060998,6.006959999999999,5.96808,-1.598552248414997,-54.499745472843905,12.79987714322259,24.794476,59.486272,10.425609889874782,77.5981058299216,69.39994608884243,1.290100474710371,0.0030775427074732934,0.3434934565594576
2025-09-06T12:08:44+03:00,,287.15,-44.999245792882164,13.10256,140.60957250305532,120.49875389396342,-0.8000209693411684,5.5404,6.006959999999999,-1.501149423242757,-59.70220225263178,11.098192491684046,24.794583,59.486177,9.985447180197896,68.09887952916081,72.5106929738945,2.0666020389614617,0.0016581729178805744,0.3451516294773382
2025-09-06T12:08:46+03:00,,287.15,-42.002676524347955,13.10256,140.99918380374427,119.70234255873159,-0.6999825383113268,5.69592,5.98752,-2.200157933302361,-60.80228121928296,10.599719209920229,24.794648,59.486135,9.654106250726484,65.25663623483432,75.74254756890996,2.3840532314122767,0.0032106933020004023,0.3483623227793386
2025-09-06T12:08:48+03:00,,287.15,-42.002676524347955,12.59712,139.99650766226534,118.69966641725263,-1.1000216708716675,5.832,5.94864,-1.1974817918234204,-61.50128972934256,11.900333404867197,24.79472,59.486092,9.138484201481944,67.28304588377443,72.71346177849091,2.252195981637176,0.0033924789300863838,0.35175480170942497
2025-09-06T12:08:50+03:00,,287.15,-39.00037767786244,11.702879999999999,134.99458611077327,118.29859596066107,0.8000209693411684,5.6181600000000005,5.98752,-1.598552248414997,-61.30075450104678,11.499262948275621,24.794793,59.486053,8.144265980403759,64.73017850163215,70.26440760914112,2.398289191636968,0.003234028571905148,0.3549888302813301
2025-09-06T12:08:52+03:00,,287.15,-42.002676524347955,12.30552,135.99726225225223,119.79974538390384,-0.2000195662801704,5.2488,5.90976,-1.7990874767107847,-60.401210762691385,7.597420363434716,24.79486,59.486015,9.109417240103943,64.68178672387107,71.31547552838116,2.244624299129724,0.0030656714685703143,0.35805450174990044
2025-09-06T12:08:54+03:00,,287.15,-39.997324241390075,12.30552,139.99650766226534,114.90095623553529,-5.899975599580139,5.6181600000000005,5.851439999999999,-1.0026761414789407,-67.2996226160665,9.098569786677473,24.794927,59.485973,8.778688859751153,64.28677007636453,75.70973758590081,2.437534993676388,0.003248767686806788,0.3613032694367072
2025-09-06T12:08:58+03:00,,287.15,-18.00147448631777,13.00536,58.080731692411554,71.4020004292032,-16.600019719427777,4.60728,5.598719999999999,-0.6016056848873644,-113.19927158399673,7.500017538262475,24.795088,59.485928,8.740367425259386,27.376968083765377,30.703763608646177,4.091266048837883,0.0017527158132738488,0.36305598524998106
2025-09-06T12:09:00+03:00,,287.15,0.0,12.402719999999999,72.99482309966687,47.60133361946879,-14.59999594396461,4.64616,5.13216,-0.09740282517223994,-135.69932419878415,1.902219879834333,24.795168,59.485942,7.7565599999999995,1.2074182791366184e-06,72.99482430708515,4.646159999999999,0.0025825226288334995,0.3656385078788146
2025-09-06T12:09:04+03:00,,287.15,46.99972793458143,9.50616,352.9992975801002,345.6998152701335,-8.899982614885129,4.704479999999999,4.276800000000001,0.20053522829578813,160.19899951857818,-12.702474318050351,24.795174,59.486065,7.176271042186869,75.6488551565504,68.64815273665056,1.1660707703126343,0.002008728179290937,0.3676472360581055
2025-09-06T12:09:06+03:00,,287.15,67.99863112612611,10.206,337.99926250357527,326.0015262735358,-3.2000265815851607,4.723920000000001,4.276800000000001,0.40107045659157625,143.89835024710626,-12.398806686631014,24.795134,59.486103,9.505493604374188,95.43580178468244,73.4350642882577,-0.4474987403749196,0.0025898630355944796,0.3702370990937
2025-09-06T12:09:08+03:00,,287.15,73.99749924114583,10.303199999999999,330.04087872920815,320.39799903715635,-0.9999832398418258,4.859999999999999,4.374,0.40107045659157625,139.49803438050154,-10.599719209920229,24.795156,59.486097,10.107771544045708,101.52577387667074,71.56665260587886,-0.9710703917810757,0.0007621572697667962,0.3709992563634668
2025-09-06T12:09:10+03:00,,287.15,75.00017538262475,10.692,330.99771824707665,318.5989115604456,-0.8000209693411684,5.20992,4.548959999999999,-0.29793805346802804,138.19742018555456,-9.001166961505232,24.795101,59.486143,10.612620181534508,103.30681202387998,74.30453027095666,-1.1991435238678896,0.0032345919005129786,0.37423384826397976
2025-09-06T12:09:12+03:00,,287.15,76.0028515241037,10.4976,329.99504210559763,318.79944678874136,0.5000202678106694,5.26824,4.68504,-0.09740282517223994,139.10269350186127,-7.098947081670899,24.795055,59.486188,10.545181962166062,104.99917715359838,74.99421925919603,-1.3634477648636907,0.0030474780248236927,0.37728132628880345
2025-09-06T12:09:16+03:00,,287.15,73.99749924114583,9.79776,332.9973409520831,325.89839387041224,2.400005612243992,4.91832,4.74336,-0.40107045659157625,146.70011386529598,-6.497341396783535,24.794923,59.486295,9.675578391244564,103.24777292189108,76.24511387397422,-1.1270947806931695,0.002630913300829375,0.3799122395896328
2025-09-06T12:09:18+03:00,,287.15,69.99825383113267,9.195120000000001,337.99926250357527,328.6027546634297,0.6999825383113268,4.996079999999999,4.74336,-0.29793805346802804,148.0981308854152,-6.302535746439056,24.794892,59.486335,8.836510027217283,102.09074201888136,80.09000452245664,-1.046481753324942,0.002583757830619362,0.3824959974202522
2025-09-06T12:09:20+03:00,,287.15,65.99900842111953,9.70056,339.9988852085818,331.10085065020013,0.600001403060998,4.82112,4.723920000000001,-0.49847328176381617,151.5989030136645,-4.400315866604722,24.794898,59.486351,8.904966015743161,95.64151330831996,75.64039851690177,-0.47393518781644856,0.0009790012510512366,0.3834749986713034
2025-09-06T12:09:24+03:00,,287.15,61.002816447578745,9.60336,338.9962090671029,333.5989466369705,1.2999839413723246,4.6655999999999995,4.74336,0.09740282517223994,153.90219335009044,-4.698253920072751,24.794789,59.486455,8.399522969763114,90.0696563287838,69.0658653958867,-0.005672119138263348,0.0026153878564596942,0.3860903865277631
2025-09-06T12:09:26+03:00,,287.15,61.002816447578745,9.60336,339.9988852085818,334.89956083191754,0.9999832398418258,4.60728,4.723920000000001,-0.49847328176381617,155.0022723167416,-4.102377813136695,24.794799,59.486483,8.39965453245569,89.67184065353499,69.6707258621168,0.026387872553788636,0.0017104634532713024,0.3878008499810344
2025-09-06T12:09:28+03:00,,287.15,60.0001403060998,9.50616,341.9985079135884,335.90223697339644,0.3999818367808277,4.58784,4.68504,-0.6016056848873644,155.7012808268012,-4.199780638308934,24.794774,59.486521,8.234245423733421,88.85028507737708,70.84879299096548,0.09205484556943407,0.0024081568207450607,0.3902090068017795
2025-09-06T12:09:30+03:00,,287.15,60.0001403060998,9.50616,337.99926250357527,336.20017502686443,0.5000202678106694,4.548959999999999,4.64616,-0.49847328176381617,155.59814842367769,-6.102000518143266,24.794747,59.486564,8.235117294090909,88.57983116365172,66.57909366722697,0.11274180744803906,0.002712807591766994,0.3929218143935465
2025-09-06T12:09:32+03:00,,287.15,58.000517601093236,9.195120000000001,346.54779280692713,337.0023159400476,3.099988150555319,4.74336,4.6655999999999995,-0.6990085100596044,157.0018950217482,-6.801009028202872,24.794723,59.486606,7.799018953384947,89.05048439834421,75.59827720527136,0.07860418706959559,0.0026286340723170954,0.3955504484658636
2025-09-06T12:09:34+03:00,,287.15,54.00127219108009,9.992159999999998,347.9973760286081,343.00118405506737,2.9000258800546614,4.723920000000001,4.60728,-0.20053522829578813,163.9977097002955,-7.700552766558264,24.794708,59.486646,8.165225359019576,81.9095366052706,69.90691263387868,0.6648277088660316,0.0024475024096822914,0.3979979508755459
2025-09-06T12:09:36+03:00,,287.15,50.998973344594575,10.1088,347.9973760286081,345.90035049842925,4.899992359738313,4.58784,4.704479999999999,0.09740282517223994,167.29794660024908,-8.30215845144563,24.794696,59.486685,8.053703313855173,77.27521381840194,65.27258984701001,1.0105552608819945,0.0023726359203284295,0.40037058679587434
2025-09-06T12:09:38+03:00,,287.15,45.00010522957485,10.303199999999999,355.9958668486344,352.7013595266322,2.9000258800546614,4.957199999999999,4.68504,-1.0026761414789407,173.4973499435646,-8.697499330085895,24.794695,59.486726,7.648457652236597,72.27746825649162,68.27333510512602,1.5090097240188898,0.0024646053368557615,0.4028351921327301
2025-09-06T12:09:40+03:00,,287.15,41.00085981956171,10.90584,8.995437383553925,357.5027458498285,4.2000098214269865,4.45176,4.68504,-0.20053522829578813,178.90034195164822,-9.998113525032863,24.794702,59.486764,8.091594021981217,62.15946244388128,71.1548998274352,2.0790270186590383,0.002294062068449278,0.4051292542011794
2025-09-06T12:09:42+03:00,,287.15,37.001614409548566,11.508479999999999,13.99735893504601,3.0997016716577535,2.1000049107134933,4.6655999999999995,4.5684000000000005,-0.49847328176381617,-176.60278119317363,-10.800254438216017,24.794713,59.486811,8.273508517652923,56.841233414344586,70.8385923493906,2.551900760640271,0.0028449391898430773,0.4079741933910225
2025-09-06T12:09:46+03:00,,287.15,35.99893826806962,11.702879999999999,17.996604345059158,6.102000518143266,-0.6999825383113268,4.84056,4.62672,-0.20053522829578813,-174.9010965416351,-8.502693679741416,24.794769,59.486896,8.29023525607279,56.07036769935415,74.0669720444133,2.7018761950664696,0.000937955550540851,0.4089121489415633
2025-09-06T12:09:48+03:00,,287.15,33.00236899953541,11.80008,13.99735893504601,7.700552766558264,3.30000771683549,4.82112,4.64616,-0.6016056848873644,-170.90185113162195,-10.599719209920229,24.794789,59.486936,8.189284414994642,51.70492731442158,65.70228624946759,2.98770370172556,0.0024805763295400562,0.4113927252711034
2025-09-06T12:09:50+03:00,,287.15,33.00236899953541,12.20832,22.998525896551243,11.201324894807593,1.899985344433323,4.62672,4.68504,-0.8995437383553924,-168.00268468825996,-9.602772646392598,24.794818,59.486975,8.701058568479212,49.83793526099586,72.8364611575471,2.98401157992496,0.0025057097038042498,0.41389843497490764
2025-09-06T12:09:54+03:00,,287.15,28.997394011570965,12.091679999999998,25.99509516508545,16.902254956359283,0.9999832398418258,4.510079999999999,4.6655999999999995,-0.8021409131831525,-162.80022790847212,-10.800254438216017,24.794884,59.487051,8.435244085008122,44.0195386083264,70.01463377341184,3.243211476214369,0.0005392930118487209,0.4144377279867564
2025-09-06T12:09:56+03:00,,287.15,28.000447448043335,12.402719999999999,31.839264675419845,18.197139573354946,0.600001403060998,4.62672,4.6655999999999995,-0.09740282517223994,-161.29907848522936,-9.797578296737077,24.794926,59.487088,8.596536918897122,42.63641511705447,74.47567979247431,3.4037240224838423,0.0025669205214769457,0.4170046485082333
2025-09-06T12:09:58+03:00,,287.15,28.000447448043335,12.69432,30.99701671657754,20.798367963248886,1.2999839413723246,4.52952,4.62672,-0.29793805346802804,-157.9988415852758,-9.40223741809681,24.794964,59.487121,8.951268885362603,41.743342097123445,72.740358813701,3.3796322593368497,0.002297696959338543,0.4193023454675719
2025-09-06T12:10:02+03:00,,287.15,26.997771306564392,12.49992,30.99701671657754,21.89844692990006,1.4000223724021665,4.41288,4.5684000000000005,0.09740282517223994,-157.2998330752162,-9.700175471564837,24.795051,59.487189,8.799009553194306,40.15758553098334,71.15460224756089,3.3726478324625084,0.0005418296091883075,0.4198441750767602
2025-09-06T12:10:06+03:00,,287.15,24.001202038030186,12.402719999999999,31.999692858056477,19.698288996597704,1.5000035076524951,4.33512,4.41288,-0.09740282517223994,-160.30213192170172,-13.802553284701533,24.795162,59.487279,8.624612366917757,35.79873212065618,67.79842497871266,3.516115097360851,0.0021787816098645892,0.42202295668662476
2025-09-06T12:10:08+03:00,,287.15,24.001202038030186,12.49992,37.362577820480986,19.19981571483389,-0.300000701530499,4.62672,4.41288,-0.09740282517223994,-161.29907848522936,-13.602018056405743,24.795198,59.487312,8.484587513452107,36.81642104245586,74.17899886293685,3.703965376921408,0.0022674991597803422,0.4242904558464051
2025-09-06T12:10:10+03:00,,287.15,24.001202038030186,12.49992,37.998560973076195,17.89920151988692,-0.9000021045914972,4.1212800000000005,4.35456,-0.09740282517223994,-162.80022790847212,-12.702474318050351,24.795232,59.487347,8.89438108306611,34.8649112006498,72.863472173726,3.381518947491482,0.00234574447095814,0.42663620031736327
