time,dpt,mtw,awa,aws,cog,hdg,rot,sog,stw,pitch,yaw,roll,lng,lat,tws,twa,twd,vmg,dist,cum_dist
2025-09-06T13:18:00+03:00,,287.15,-48.00154463936767,13.8996,122.9911203027825,107.29780629414927,-1.4000223724021665,4.4712,4.93776,-0.6990085100596044,-73.20108790591398,7.700552766558264,24.78677,59.488596,11.402757875064285,64.94368270833519,58.04743759444732,1.8935929375951945,0.003297199766345955,0.003297199766345955
2025-09-06T13:18:04+03:00,,287.15,-42.002676524347955,14.094,119.9945510342483,101.49947340742534,-1.4000223724021665,4.52952,4.87944,-0.20053522829578813,-78.90201796746567,7.901087994854052,24.787031,59.488584,11.148006632826553,57.77925977419794,62.215291260050364,2.4150610264932446,0.0028902100585732615,0.006187409824919216
2025-09-06T13:18:06+03:00,,287.15,-39.997324241390075,14.40504,117.99492832924174,100.5025268438977,-1.200002806121996,4.45176,4.91832,-0.6016056848873644,-79.80156170582106,6.801009028202872,24.787097,59.488566,11.360899355738418,54.58503734076565,63.40989098847609,2.579768304310117,0.0022863417496919117,0.008473751574611128
2025-09-06T13:18:08+03:00,,287.15,-37.9977015363835,14.40504,114.99835906070751,99.29931547412298,-0.9000021045914972,4.58784,4.957199999999999,-0.20053522829578813,-80.90164067247224,5.397262430132355,24.787162,59.48856,11.153208060536098,52.66687952070728,62.33147954000023,2.7822869957027168,0.0020161434351212,0.010489895009732329
2025-09-06T13:18:12+03:00,,287.15,-35.00113226784929,14.094,104.99451595772337,97.00175471564837,-1.4000223724021665,4.276800000000001,4.93776,-0.29793805346802804,-83.39973665924262,6.302535746439056,24.787192,59.488473,10.871099579563808,48.0426539762895,56.951861981433865,2.8593709052245684,0.0022653704736740263,0.012755265483406355
2025-09-06T13:18:16+03:00,,287.15,-35.99807883137692,14.502239999999999,104.99451595772337,96.19961380246522,-0.8000209693411684,4.58784,4.93776,-0.09740282517223994,-84.00134234412998,4.60085109490051,24.787453,59.488495,11.122338552676519,50.02888976622077,54.965626191502594,2.947234251193915,0.0030748738597662665,0.015830139343172622
2025-09-06T13:18:18+03:00,,287.15,-33.00150956284272,14.40504,103.99756939419571,95.7011405207014,0.2000195662801704,4.548959999999999,4.89888,-0.29793805346802804,-84.20187757242579,7.098947081670899,24.787437,59.488442,10.875999620850557,46.169574074506045,57.82799531968966,3.150274685367246,0.0032229113171644234,0.019053050660337044
2025-09-06T13:18:20+03:00,,287.15,-33.99845612637036,14.094,105.9971920992023,97.59763082258443,1.8000042091829944,4.31568,4.84056,-0.49847328176381617,-82.00171963912342,7.098947081670899,24.787522,59.488428,10.789409374759993,46.922778378338876,59.07441372086342,2.947537963951621,0.0027270632388973677,0.021780113899234413
2025-09-06T13:18:22+03:00,,287.15,-33.99845612637036,13.9968,101.99794668918915,99.40244787724653,0.9000021045914972,4.41288,4.82112,-0.29793805346802804,-80.39743781275712,9.900710699860626,24.787597,59.488415,10.628690408253165,47.42270644604591,54.57524024314324,2.9856848827690228,0.002418517645547412,0.024198631544781826
2025-09-06T13:18:26+03:00,,287.15,-37.00075497285587,14.094,109.99643750921543,100.59992966906994,0.3999818367808277,5.404319999999999,5.01552,-0.8995437383553924,-79.29735884610592,9.29910501497326,24.78785,59.488358,10.304707819294785,55.39950532258655,54.59693218662888,3.0688477153199525,0.0033531049134822317,0.02755173645826406
2025-09-06T13:18:28+03:00,,287.15,-37.9977015363835,14.40504,96.99602513769707,100.69733249424219,0.300000701530499,4.64616,5.1127199999999995,-0.40107045659157625,-79.10255319576146,9.700175471564837,24.787855,59.488381,11.117936711058961,52.90585401576081,44.090171121936265,2.8022221912321235,0.001390872710674319,0.028942609168938378
2025-09-06T13:18:32+03:00,,287.15,-41.00000038286902,13.8996,105.9971920992023,104.5991750790831,0.9999832398418258,4.16016,5.3654399999999995,-0.8021409131831525,-75.00017538262475,7.500017538262475,24.787982,59.488365,11.100644719153728,55.23322778204762,50.763964317154674,2.372278236355431,0.0011095886872085035,0.030052197856146882
2025-09-06T13:18:40+03:00,,287.15,-41.00000038286902,13.10256,121.9999033172062,105.20078076397046,-0.2000195662801704,5.326560000000001,5.5598399999999994,-0.49847328176381617,-74.79964015432897,10.89765726338826,24.788127,59.488321,9.731628054666803,62.04436796145863,59.95553535574757,2.4970257932492466,0.0011541937529326023,0.031206391609079485
2025-09-06T13:18:42+03:00,,287.15,-39.997324241390075,13.10256,121.9999033172062,106.39826255579388,0.9000021045914972,5.404319999999999,5.57928,-0.8995437383553924,-73.20108790591398,9.700175471564837,24.788211,59.488292,9.612056685956322,61.18249667357291,60.81740664363329,2.604997649999812,0.0030999801164824647,0.034306371725561946
2025-09-06T13:18:44+03:00,,287.15,-41.00000038286902,13.10256,120.99722717572726,107.49834152244506,1.5000035076524951,5.20992,5.69592,-1.3006141949469687,-71.900473710967,10.3017811564522,24.788299,59.488258,9.786849778676409,61.44118534225959,59.556041833467674,2.490657599702872,0.0033747168622226863,0.037681088587784635
2025-09-06T13:18:46+03:00,,287.15,-42.002676524347955,13.296959999999999,126.99609529074696,114.90095623553529,4.800011224487984,5.52096,5.851439999999999,-0.8995437383553924,-63.50091243434914,9.499640243269049,24.78838,59.48823,9.90874672165086,63.89391140056543,63.102183890181536,2.42941341012257,0.002990477944966192,0.04067156653275083
2025-09-06T13:18:48+03:00,,287.15,-48.99849120289531,13.19976,125.99914872721935,122.29784137067423,3.50002728311566,5.151599999999999,5.87088,-0.6990085100596044,-56.60250058097403,9.20170218980102,24.788454,59.488193,10.56153722422339,70.59797603162706,55.401172695592294,1.7113329334310883,0.0031695504949738116,0.04384111702772464
2025-09-06T13:18:50+03:00,,287.15,-54.00041275438739,12.59712,139.99650766226534,123.50105274044896,0.300000701530499,5.346,6.0264,-0.6990085100596044,-56.79730623131851,9.499640243269049,24.788523,59.488153,10.397118541238603,78.58166642912025,61.4148412331451,1.0583529583962346,0.0031960524485617086,0.04703716947628635
2025-09-06T13:18:54+03:00,,287.15,-54.99735931791503,11.89728,140.99918380374427,120.99722717572726,-1.5000035076524951,5.46264,6.14304,-1.0026761414789407,-59.19799939291665,8.502693679741416,24.788737,59.488012,9.840055646432553,82.04505211630791,58.95413168743636,0.7559987991178085,0.0017441598581516549,0.048781329334438
2025-09-06T13:18:56+03:00,,287.15,-50.99811390790188,11.80008,143.9957530722785,119.19813969901647,-0.5000202678106694,5.81256,6.18192,-1.501149423242757,-61.10021927275099,8.697499330085895,24.788713,59.488013,9.31105426009275,80.01921199830934,63.976541073969145,1.0074209801791978,0.0007348896429951608,0.04951621897743316
2025-09-06T13:18:58+03:00,,287.15,-52.00079004938082,13.00536,137.02285670553638,118.8027988203762,-0.6999825383113268,5.9292,6.14304,-0.49847328176381617,-61.10021927275099,5.798332886723932,24.78879,59.487962,10.4569338029534,78.54036459279034,58.482492112746044,1.1779988280738842,0.0038625319642913575,0.05337875094172452
2025-09-06T13:19:02+03:00,,287.15,-46.99886849788874,13.00536,136.99993839373113,117.59958745060148,-0.5000202678106694,5.67648,6.08472,-1.1974817918234204,-62.60136869599375,7.597420363434716,24.788953,59.487883,10.033099183700878,71.44101808634022,65.5589203073909,1.8067141391423935,0.0017497897217859824,0.0551285406635105
2025-09-06T13:19:06+03:00,,287.15,-48.99849120289531,13.00536,133.99763954724563,117.59958745060148,-0.9999832398418258,5.65704,6.0652800000000004,-0.29793805346802804,-62.498236292870196,6.497341396783535,24.789225,59.487785,10.227591303611625,73.67105999953587,60.326579547709756,1.5904851068305494,0.002141601502302136,0.05727014216581264
2025-09-06T13:19:08+03:00,,287.15,-50.00116734437425,12.59712,131.99801684223905,120.601886297087,1.5000035076524951,6.35688,5.96808,-0.09740282517223994,-58.49899088285704,7.9984908200262925,24.789352,59.487682,9.805767389924586,79.77776986079668,52.22024698144237,1.1281337795869184,0.0033210932652944624,0.0605912354311071
2025-09-06T13:19:14+03:00,,287.15,-59.00233430587948,11.80008,142.91859241743256,125.79861349892356,0.09998113525032865,5.94864,6.045839999999999,-0.40107045659157625,-54.201807419375875,7.901087994854052,24.789555,59.487558,10.115705737757947,89.27250000498924,53.64609241244332,0.07552946000530958,0.001085805702133811,0.06167704113324091
2025-09-06T13:19:16+03:00,,287.15,-57.99965816440055,10.90584,147.99499848229166,124.69853453227238,-0.8000209693411684,6.006959999999999,6.0652800000000004,-1.1974817918234204,-55.80035966779087,9.20170218980102,24.789608,59.487511,9.251444668763513,91.41026621254842,56.58473226974324,-0.14783911557233786,0.003255330631997958,0.06493237176523887
2025-09-06T13:19:20+03:00,,287.15,-57.99965816440055,11.60568,143.9957530722785,121.7993680889104,-1.5999846429028237,5.98752,6.14304,-0.29793805346802804,-58.602123285980596,6.89841185337511,24.789724,59.487424,9.843481385881047,89.05344339079647,54.942309681482016,0.0989125006426312,0.003109086017831315,0.06804145778307019
2025-09-06T13:19:24+03:00,,287.15,-50.99811390790188,11.00304,137.99688495725877,118.69966641725263,-0.2000195662801704,6.55128,6.0264,-1.0026761414789407,-61.50128972934256,4.898789148368539,24.789863,59.487336,8.558890920393932,87.49929416053223,50.49759079672654,0.28584344989952876,0.002487175940391469,0.07052863372346166
2025-09-06T13:19:28+03:00,,287.15,-42.002676524347955,10.5948,136.99993839373113,116.79744653741832,-1.899985344433323,5.46264,5.890319999999999,-1.0026761414789407,-63.598315259521385,6.199403343315507,24.790089,59.487256,7.488255338196812,71.22188792653758,65.77805046719355,1.758445864287832,0.0028526971172360017,0.07338133084069766
2025-09-06T13:19:30+03:00,,287.15,-44.999245792882164,10.4976,135.99726225225223,114.7004210072395,-0.9000021045914972,5.3654399999999995,5.832,-1.1000789666511805,-65.7010703676515,6.399938571611295,24.790138,59.487227,7.702726489675485,74.50681017188197,61.49045208037026,1.4332369207998341,0.0022966762204289387,0.0756780070611266
2025-09-06T13:19:32+03:00,,287.15,-46.99886849788874,10.4004,130.99534070076012,112.90133353052872,-0.6999825383113268,4.91832,5.754239999999999,-0.6990085100596044,-67.40275501919004,8.697499330085895,24.790142,59.487197,7.91106050678011,74.04292498784012,56.95241571292,1.3521303608617858,0.001807358820792139,0.07748536588191873
2025-09-06T13:19:36+03:00,,287.15,-46.0019219343611,12.49992,125.99914872721935,108.50101766392399,-1.2999839413723246,5.79312,5.754239999999999,-0.8021409131831525,-71.79734130784347,5.998868115019719,24.790375,59.487148,9.44491373265426,72.18415607254228,53.81499265467707,1.7724547943176308,0.002398310484460527,0.07988367636637926
2025-09-06T13:19:38+03:00,,287.15,-44.999245792882164,13.296959999999999,127.99877143222591,107.69887675074084,-0.600001403060998,5.851439999999999,5.7348,-0.6016056848873644,-72.30154416755859,5.2998596049601145,24.790462,59.487132,10.05048417833707,69.30937854595672,58.68939288626919,2.0674408422317523,0.0028239268102805536,0.08270760317665982
2025-09-06T13:19:40+03:00,,287.15,-39.997324241390075,13.296959999999999,122.99684988073382,107.09727106585349,-1.4000223724021665,5.28768,5.79312,-0.6016056848873644,-73.29849073108622,8.800631733209444,24.790566,59.487106,9.851051106824874,60.1794508256649,62.81739905506892,2.629484761988118,0.0035378263081633316,0.08624542948482315
2025-09-06T13:19:42+03:00,,287.15,-39.00037767786244,13.296959999999999,128.99571799575352,105.69925404573428,-0.2000195662801704,5.890319999999999,5.773680000000001,-1.0026761414789407,-74.30116687256515,6.89841185337511,24.790545,59.487055,9.474614259942031,62.03258500658265,66.96313298917087,2.762379487353576,0.003131771497728806,0.08937720098255196
2025-09-06T13:19:46+03:00,,287.15,-39.00037767786244,14.30784,119.9945510342483,107.29780629414927,0.09998113525032865,4.957199999999999,5.7153599999999996,-0.49847328176381617,-72.70261462415016,6.399938571611295,24.790696,59.487012,10.910898927346128,55.61449114933755,64.38005988491075,2.7996198402003163,0.0035684787534122184,0.09294567973596418
2025-09-06T13:19:50+03:00,,287.15,-42.002676524347955,13.802399999999999,119.9945510342483,108.90208812051559,0.9000021045914972,4.58784,5.57928,-0.8995437383553924,-70.69726234119229,6.497341396783535,24.790951,59.486999,10.8370595373088,58.459297736307846,61.53525329794046,2.39991809125659,0.0027880900367903637,0.09573376977275455
2025-09-06T13:19:52+03:00,,287.15,-41.00000038286902,14.094,120.99722717572726,107.40093869727282,-0.600001403060998,4.704479999999999,5.5598399999999994,-1.1974817918234204,-73.00055267761819,10.702851613043778,24.791036,59.486971,10.985946481438004,57.316449999646665,63.680777176080596,2.5404130600349353,0.0030922255929292284,0.09882599536568377
2025-09-06T13:19:54+03:00,,287.15,-39.997324241390075,13.5108,122.99684988073382,109.4005614022794,2.400005612243992,5.09328,5.65704,-0.6990085100596044,-69.70031577766464,10.599719209920229,24.791099,59.486943,10.151329051241614,58.81097804803292,64.1858718327009,2.6376218180253073,0.002555239500139074,0.10138123486582284
2025-09-06T13:19:56+03:00,,287.15,-39.00037767786244,13.608,128.09044467944682,111.19964887899017,0.09998113525032865,5.79312,5.7348,-0.8021409131831525,-69.00130726760504,10.50231638474799,24.791098,59.48688,9.808639502606612,60.820165091516,67.27027958793082,2.8244495966428693,0.0037869091114938777,0.10516814397731672
2025-09-06T13:20:00+03:00,,287.15,-41.00000038286902,13.296959999999999,122.99684988073382,105.60185122056203,-1.2999839413723246,6.25968,5.890319999999999,-0.09740282517223994,-74.59910492603319,9.098569786677473,24.791356,59.486827,9.50561237813754,66.59652472426407,56.40032515646975,2.4863671573919084,0.0034974623834631274,0.10866560636077985
2025-09-06T13:20:02+03:00,,287.15,-42.999623087875584,14.094,121.9999033172062,105.29818358914271,-0.9000021045914972,6.74568,5.94864,-0.29793805346802804,-74.59910492603319,8.898034558381685,24.791363,59.486794,10.250819608692312,69.6659820651633,52.3339212520429,2.344072792330593,0.001995025752626603,0.11066063211340645
2025-09-06T13:20:04+03:00,,287.15,-41.00000038286902,14.094,121.9999033172062,103.20115805896388,-2.1000049107134933,6.29856,5.90976,-1.3006141949469687,-77.69880659769095,10.800254438216017,24.791472,59.486764,10.213651701477355,64.86473713451399,57.13516618269222,2.6753554186405144,0.0037838686232282933,0.11444450073663474
2025-09-06T13:20:08+03:00,,287.15,-39.997324241390075,14.094,117.15268037039944,102.39901714578072,1.1000216708716675,5.98752,5.98752,-0.6990085100596044,-76.9023952624591,8.19902604832208,24.791678,59.486707,10.256514260134475,62.035477226826686,55.11720314357275,2.8076963586507517,0.0025934456866947347,0.11703794642332947
2025-09-06T13:20:12+03:00,,287.15,-39.997324241390075,13.5108,124.96782469598384,108.99949094568781,2.7000063137744914,5.754239999999999,6.0264,-1.701684651538545,-70.30192146255202,9.098569786677473,24.79197,59.486678,9.82532532480702,62.110054351192204,62.85777034479163,2.6916880192536894,0.0034318797824327966,0.12046982620576227
2025-09-06T13:20:14+03:00,,287.15,-42.999623087875584,13.802399999999999,120.99722717572726,108.70155289221978,-0.3999818367808277,6.68736,6.08472,-1.0026761414789407,-71.79734130784347,11.900333404867197,24.792014,59.486634,10.010791269185088,70.10201093331631,50.89521624241095,2.276019893426321,0.0029661186022594717,0.12343594480802174
2025-09-06T13:20:16+03:00,,287.15,-42.999623087875584,13.5108,121.9999033172062,106.99986824068124,0.300000701530499,7.01784,6.08472,-1.3980170201192088,-72.70261462415016,13.802553284701533,24.792093,59.486604,9.648935359558692,72.73704357771837,49.26285973948784,2.0825968515606323,0.00301074657723976,0.1264466913852615
2025-09-06T13:20:20+03:00,,287.15,-44.00229922935453,13.39416,131.99801684223905,107.49834152244506,-0.2000195662801704,6.201359999999999,6.201359999999999,-1.7990874767107847,-72.5994822210266,12.599341914926804,24.792289,59.486522,9.917933370710372,69.74721006329995,62.25080677893911,2.1466797728194305,0.0035819827497830655,0.13002867413504454
2025-09-06T13:20:22+03:00,,287.15,-44.00229922935453,13.00536,129.99839413723248,107.69887675074084,0.3999818367808277,5.851439999999999,6.201359999999999,-1.1974817918234204,-72.19841176443504,12.599341914926804,24.792369,59.486486,9.690167365552393,68.80464280642516,61.193751330807316,2.1155824010500033,0.0032624306224988426,0.13329110475754338
2025-09-06T13:20:24+03:00,,287.15,-44.999245792882164,13.39416,131.99801684223905,109.4005614022794,1.2999839413723246,6.59016,6.27912,-1.3980170201192088,-69.99825383113267,12.398806686631014,24.792454,59.486446,9.899491956306363,73.08026713409842,58.91774970814063,1.9179455094579407,0.003536979365831312,0.1368280841233747
2025-09-06T13:20:26+03:00,,287.15,-46.0019219343611,13.00536,127.99877143222591,111.10224605381794,-0.9999832398418258,6.5124,6.39576,-1.3006141949469687,-69.49978054936886,11.997736230039438,24.79253,59.486447,9.689432972061065,74.91575585958812,53.08301557263779,1.694780476021488,0.0023202395997391884,0.13914832372311386
2025-09-06T13:20:30+03:00,,287.15,-46.0019219343611,13.802399999999999,126.99609529074696,110.30010514063478,1.5000035076524951,7.13448,6.318,-1.1974817918234204,-68.80077203930925,8.898034558381685,24.79272,59.486384,10.227496735842909,76.12188239746649,50.87421289328047,1.711257031510445,0.0026581694612110626,0.14180649318432492
2025-09-06T13:20:32+03:00,,287.15,-50.00116734437425,14.40504,130.99534070076012,111.698122160754,-0.5000202678106694,7.348319999999999,6.24024,-1.701684651538545,-67.90122830095386,7.0015442564986605,24.792801,59.486353,11.199307830391746,80.17607636978548,50.81926433097465,1.253777247872282,0.00309566262750689,0.1449021558118318
2025-09-06T13:20:34+03:00,,287.15,-46.99886849788874,13.00536,134.99458611077327,117.39905222230568,1.1000216708716675,7.6788,6.2208000000000006,-1.598552248414997,-63.099841977757556,12.599341914926804,24.792893,59.486314,9.585623578761881,82.8625037104378,52.13208240033546,0.954097547519536,0.003657717118308,0.1485598729301398
2025-09-06T13:20:36+03:00,,287.15,-48.99849120289531,12.59712,135.99726225225223,110.90171082552214,-2.1000049107134933,8.203679999999999,6.18192,-2.4006931615981495,-69.99825383113267,15.49850835828877,24.792992,59.486292,9.507145367347047,89.63222609255158,46.36503615970065,0.052657957643653566,0.0032981230335891337,0.15185799596372895
2025-09-06T13:20:46+03:00,,287.15,-48.00154463936767,13.10256,126.99609529074696,100.59992966906994,-2.7999874490248207,7.29,6.10416,-1.598552248414997,-80.09949975928909,8.30215845144563,24.793433,59.48615,9.848726982343535,81.37453056592088,45.62156472482609,1.093316700699828,0.0034384738740852842,0.15529646983781423
2025-09-06T13:20:48+03:00,,287.15,-46.0019219343611,13.802399999999999,114.12746321210867,99.79778875588678,-0.09998113525032865,5.67648,6.006959999999999,-1.501149423242757,-80.20263216241264,7.9984908200262925,24.793522,59.486126,10.671495147074383,68.49986393924088,45.62759927286778,2.080449425483789,0.0030755467648423316,0.15837201660265657
2025-09-06T13:20:50+03:00,,287.15,-41.00000038286902,13.10256,108.99949094568781,99.79778875588678,-0.8000209693411684,5.6376,5.96808,-1.0026761414789407,-80.30003498758487,8.600096504913656,24.793622,59.486101,9.589752839650078,63.686108293752355,45.313382651935456,2.4990834523829215,0.00340183759440271,0.16177385419705928
2025-09-06T13:20:52+03:00,,287.15,-42.002676524347955,12.30552,104.99451595772337,100.39939444077415,-0.3999818367808277,5.151599999999999,5.90976,-0.6990085100596044,-79.29735884610592,5.798332886723932,24.79372,59.486088,9.151406160387529,64.13167545554681,40.86284050217655,2.2476657945798744,0.0030913037373191937,0.16486515793437848
2025-09-06T13:20:54+03:00,,287.15,-37.00075497285587,12.091679999999998,110.99911365069438,99.70038593071456,-1.4000223724021665,5.26824,5.832,-1.9996227050065731,-80.99904349764448,10.702851613043778,24.793812,59.486073,8.497937030674285,58.90754752926243,52.09156612143195,2.720627287575096,0.0029490075546699875,0.16781416548904846
2025-09-06T13:20:56+03:00,,287.15,-35.00113226784929,11.89728,109.99643750921543,97.40282517223994,0.5000202678106694,4.6655999999999995,5.7153599999999996,-1.3980170201192088,-82.50019292088724,12.100868633162985,24.793895,59.486038,8.507376352605819,53.33590678415371,56.66053072506172,2.785935032661631,0.003292805750155105,0.17110697123920357
2025-09-06T13:20:58+03:00,,287.15,-37.9977015363835,12.20832,107.29207671619795,98.1992365074718,-0.600001403060998,5.443199999999999,5.773680000000001,-1.1974817918234204,-82.00171963912342,8.600096504913656,24.793996,59.48601,8.598716408814742,60.93409020544945,46.3579865107485,2.6443904497513655,0.0035120116971451825,0.17461898293634875
2025-09-06T13:21:00+03:00,,287.15,-35.00113226784929,12.49992,102.99489325271679,96.10221097729297,-2.400005612243992,4.87944,5.754239999999999,-1.0026761414789407,-84.59721845106604,10.50231638474799,24.794093,59.485998,8.951752659459475,53.2204422670319,49.774450985684894,2.9215055200049798,0.0030470069040772177,0.17766598984042598
2025-09-06T13:21:02+03:00,,287.15,-33.00150956284272,12.402719999999999,98.99564784270365,89.50173717738589,-4.899992359738313,4.52952,5.5598399999999994,-1.0026761414789407,-92.09723598932852,9.602772646392598,24.794204,59.486009,8.950717236018335,49.00085333239696,49.99479451030669,2.9715815797856644,0.0034515979656292934,0.18111758780605527
2025-09-06T13:21:04+03:00,,287.15,-29.999210716357208,12.908159999999999,98.99564784270365,76.59872763103975,-11.100025956628462,4.84056,5.50152,-1.0026761414789407,-106.79933301238546,7.901087994854052,24.794211,59.48594,9.045855636366205,45.51776366937932,53.47788417332433,3.391722781388063,0.004152931107475862,0.18527051891353113
2025-09-06T13:21:06+03:00,,287.15,-18.00147448631777,13.296959999999999,98.99564784270365,58.602123285980596,-11.700027359689463,4.02408,5.346,-0.49847328176381617,-124.89906976056815,4.497718691776963,24.794296,59.485943,9.551172359130911,25.482896178087515,73.51275166461613,3.6325923851136395,0.002600432350983844,0.18787095126451497
2025-09-06T13:21:08+03:00,,287.15,-5.001062114799391,12.69432,16.449618298205937,38.10169337619975,-11.80000849493979,3.9463199999999996,5.1127199999999995,0.0,-145.89797295211284,1.598552248414997,24.794371,59.485969,8.769773403560714,7.249215934673174,9.200402363532763,3.914775787839644,0.0027715973745235114,0.19064254863903848
2025-09-06T13:21:10+03:00,,287.15,15.00003507652495,12.30552,29.994340575098594,17.60126346641889,-11.200007091878796,4.04352,4.78224,-0.09740282517223994,-167.6016142316684,-2.899166443361966,24.794417,59.486005,8.464724395152153,22.10201278953079,52.09635336462938,3.7463836052618436,0.0025794014142255925,0.19322195005326406
2025-09-06T13:21:12+03:00,,287.15,26.00082474303676,10.90584,2.9965692685342056,350.90227204992135,-4.800011224487984,4.5684000000000005,4.548959999999999,-0.09740282517223994,166.3984028618937,-11.79720100174365,24.794425,59.486048,7.08860981091091,42.41182408576702,45.408393354301225,3.3729235893795604,0.0025961383096716945,0.19581808836293577
2025-09-06T13:21:16+03:00,,287.15,48.00240407606037,10.692,336.99658636209637,333.10047335520665,0.300000701530499,5.09328,4.4712,0.20053522829578813,153.10005243690728,-11.201324894807593,24.794329,59.48619,8.208873395959392,75.46111435649229,52.457700718588626,1.278601788464833,0.0018791517071391581,0.19769724007007491
2025-09-06T13:21:18+03:00,,287.15,48.999350639587995,11.10024,338.9962090671029,332.60200007344287,-1.200002806121996,5.48208,4.5684000000000005,-0.40107045659157625,151.7994382419603,-10.89765726338826,24.794328,59.486173,8.568660946948134,77.87074815765874,56.86695722476162,1.1518822269701712,0.0010222868464128483,0.19871952691648775
2025-09-06T13:21:22+03:00,,287.15,52.99859604960115,10.692,338.9962090671029,330.9003154219043,-0.5000202678106694,5.22936,4.7628,-0.40107045659157625,150.6019564501369,-8.697499330085895,24.794234,59.486322,8.623522299124112,81.96448465560533,60.96069372270824,0.7309960309483833,0.0030559019391544246,0.20177542885564217
2025-09-06T13:21:24+03:00,,287.15,58.000517601093236,10.90584,336.99658636209637,330.99771824707665,-0.5000202678106694,5.5598399999999994,4.957199999999999,-0.20053522829578813,151.5015001884923,-7.797955591730505,24.794191,59.486379,9.251328433466266,88.64174807107564,65.63833443317202,0.13178904595569307,0.0036688751636164037,0.2054443040192586
2025-09-06T13:21:26+03:00,,287.15,58.000517601093236,10.5948,335.9996397985687,330.9003154219043,0.9000021045914972,5.3654399999999995,5.07384,-0.49847328176381617,151.30096496019647,-9.001166961505232,24.794156,59.486428,8.988396624535662,88.41341256476635,64.41305236333505,0.1485563487010601,0.0031329952299458236,0.2085772992492044
2025-09-06T13:21:28+03:00,,287.15,56.00089489608667,10.808639999999999,334.99696365708974,331.3013858784959,0.9999832398418258,5.443199999999999,5.20992,0.20053522829578813,151.19783255707296,-9.499640243269049,24.79416,59.48641,8.980979753973836,86.16438442982255,61.16134808691231,0.3641181278366731,0.0010888041898851923,0.2096661034390896
2025-09-06T13:21:30+03:00,,287.15,60.0001403060998,10.808639999999999,336.6413525291152,331.89726198543195,-1.5000035076524951,5.7153599999999996,5.2488,-0.40107045659157625,151.5015001884923,-7.597420363434716,24.794134,59.486459,9.365737124530918,91.9033067724006,68.54465930151576,-0.1898234553532142,0.00305029596305921,0.2127163994021488
2025-09-06T13:21:32+03:00,,287.15,58.99746416462087,11.197439999999999,343.13869392589874,331.79985916025976,1.7000230739326654,5.69592,5.404319999999999,-0.6990085100596044,152.2005086985519,-7.597420363434716,24.794109,59.486507,9.598091325759524,89.57250401586435,72.71119794176309,0.04249807497613005,0.002984350220884969,0.21570074962303376
2025-09-06T13:21:36+03:00,,287.15,48.999350639587995,10.303199999999999,342.99545447711597,335.19749888538547,-0.3999818367808277,5.65704,5.38488,-0.8995437383553924,156.19975410856503,-4.497718691776963,24.794009,59.48667,7.853625110334641,81.9296954048214,64.92514988193739,0.7941811029600854,0.0029037531670087604,0.2186045027900425
2025-09-06T13:21:38+03:00,,287.15,46.00278137105379,10.4004,344.9950771821226,335.9996397985687,0.6999825383113268,5.52096,5.404319999999999,-0.6990085100596044,156.89876261862463,-3.2028340747813018,24.79402,59.486651,7.673232384105544,77.17389795630392,62.168975138426504,1.2256129279281855,0.0011903659982666853,0.2197948687883092
2025-09-06T13:21:42+03:00,,287.15,48.00240407606037,10.692,340.99583177210945,335.5985693419771,0.300000701530499,5.6376,5.28768,-0.6016056848873644,155.90181605509702,-9.001166961505232,24.793907,59.486819,8.089406186545704,79.19561973190173,60.191451504011184,1.0568042569993106,0.0031435270554931727,0.22293839584380237
2025-09-06T13:21:44+03:00,,287.15,54.00127219108009,11.197439999999999,340.99583177210945,332.80253530173866,1.7000230739326654,5.6181600000000005,5.28768,0.0,152.29791152372414,-12.100868633162985,24.793874,59.486867,9.110140965846801,83.93005399017594,64.92588576228536,0.5940782031243661,0.003055896582078292,0.22599429242588068
2025-09-06T13:21:46+03:00,,287.15,58.000517601093236,11.197439999999999,345.29874481354193,333.50154381179834,-0.8000209693411684,5.98752,5.38488,-0.49847328176381617,153.3005876652031,-12.702474318050351,24.793847,59.486918,9.49617405712164,90.32500946924127,75.62375428278318,-0.033963937269364614,0.003174309375502396,0.22916860180138307
2025-09-06T13:21:48+03:00,,287.15,63.002439152585325,11.29464,346.9946998871292,330.6023773684363,-3.0000070153049903,5.96808,5.5404,-0.6016056848873644,150.29828881871757,-10.50231638474799,24.79382,59.486973,10.09888231592822,94.77606787650592,81.77076776363509,-0.49691192915170024,0.003407069621668234,0.2325756714230513
2025-09-06T13:21:50+03:00,,287.15,60.0001403060998,11.60568,338.9962090671029,328.4996222603062,6.799977704171636,6.337439999999999,5.7348,0.29793805346802804,148.90027179859837,-15.20057030482074,24.79381,59.486965,10.065036776737767,93.0448131549959,72.04102222209877,-0.3366258344899982,0.0005695326293284781,0.2331452040523798
2025-09-06T13:21:54+03:00,,287.15,41.00085981956171,15.20208,348.9943225921357,355.10205268823034,17.500021824019274,5.13216,5.754239999999999,-0.40107045659157625,-179.1982800051163,-9.797578296737077,24.793784,59.487077,11.818616681273987,57.553397924533925,46.54772051666964,2.753472405321148,0.000134823227901771,0.23328002728028155
2025-09-06T13:21:56+03:00,,287.15,22.998525896551243,15.29928,90.4012809157413,49.10248304271155,19.100006466922096,4.101839999999999,5.50152,0.20053522829578813,-118.49913118895687,-4.801386323196299,24.79381,59.487113,11.634383021986135,30.916111492898978,121.31739240864027,3.5190524790089874,0.0023047743519595456,0.2355848016322411
2025-09-06T13:22:00+03:00,,287.15,-46.0019219343611,9.79776,176.32776145151087,142.5977360521593,13.900013405653285,4.02408,4.31568,-1.1000789666511805,-34.199850791358834,12.89727996839483,24.793926,59.487119,7.577247129347886,68.46172296249831,107.86603848901255,1.4773311949452022,0.0006657759590468336,0.23625057759128792
2025-09-06T13:22:04+03:00,,287.15,-91.00202716393596,10.692,177.88047707631537,152.6989819803157,0.9999832398418258,4.68504,4.16016,-0.6016056848873644,-26.997771306564392,6.302535746439056,24.793969,59.487003,11.748211582346633,114.5006185235493,63.379858552766066,-1.9429004519198916,0.002529131600070928,0.23877970919135885
2025-09-06T13:22:06+03:00,,287.15,-93.99859643247017,9.70056,174.99849936680735,154.40066663185422,0.300000701530499,4.84056,4.41288,-1.1974817918234204,-25.59975428644518,6.697876625079324,24.794,59.486996,11.139146302317975,119.68823581816332,55.31026354864403,-2.3974340445339988,0.0010354236156288274,0.23981513280698769
2025-09-06T13:22:10+03:00,,287.15,-91.00202716393596,9.50616,179.99469134034814,149.39874508036215,-2.400005612243992,5.151599999999999,4.62672,-0.8021409131831525,-31.398087173169117,7.402614713090236,24.793985,59.486897,10.89122956719031,119.22682239255732,60.76786894779082,-2.51536274034187,0.0007867458479334878,0.24060187865492116
2025-09-06T13:22:12+03:00,,287.15,-84.99742947096492,9.00072,179.99469134034814,147.10118432188756,-0.300000701530499,5.598719999999999,4.74336,-1.0026761414789407,-33.09977182470766,7.299482309966689,24.793986,59.486843,10.176941007445334,118.23023355162562,61.764457788722524,-2.648282688756264,0.0032459601597815673,0.24384783881470273
2025-09-06T13:22:14+03:00,,287.15,-86.00010561244387,9.097919999999998,182.99699018683364,149.89721836212598,0.8000209693411684,4.859999999999999,4.7628,-1.0026761414789407,-29.39846446816254,5.597797658428142,24.793975,59.486785,10.01115485981382,114.9651536009086,68.03183658592505,-2.0512455294062693,0.003502373725739843,0.24735021254044257
2025-09-06T13:22:16+03:00,,287.15,-89.00240445892939,9.195120000000001,182.99699018683364,150.8998945036049,-0.09998113525032865,4.374,4.74336,-0.6990085100596044,-29.301061642990298,5.2998596049601145,24.793967,59.48674,10.11343811135312,114.62417067345302,68.37281951338062,-1.8224897513530973,0.0027158439821917003,0.25006605652263425
2025-09-06T13:22:18+03:00,,287.15,-87.00278175392282,9.00072,184.9966128918402,149.70241271178148,-0.5000202678106694,4.52952,4.7628,-1.1000789666511805,-30.802211066233056,6.102000518143266,24.793963,59.486695,9.862357842016012,114.30250667140258,70.6941062204376,-1.8641431240370836,0.0027076006188614067,0.25277365714149563
2025-09-06T13:22:20+03:00,,287.15,-84.99742947096492,8.59248,175.99544593033497,147.80019283194716,-0.9000021045914972,4.33512,4.80168,-1.501149423242757,-32.69870136811608,5.998868115019719,24.793968,59.486654,9.280498076634846,112.72979486725716,63.26565106307781,-1.6750284929586743,0.0024691361478626403,0.2552427932893583
2025-09-06T13:22:22+03:00,,287.15,-84.0004829074373,8.90352,182.99699018683364,144.4999559319936,-1.5999846429028237,3.9463199999999996,4.82112,-1.1000789666511805,-35.901535442897384,6.399938571611295,24.793974,59.486615,9.354210053592253,108.80765044061484,74.1893397462188,-1.2722623686211652,0.0023513419359793477,0.25759413522533764
2025-09-06T13:22:24+03:00,,287.15,-82.00086020243072,8.39808,177.99506863534154,141.80132471692744,-1.5000035076524951,4.723920000000001,4.82112,-1.0026761414789407,-38.600166657963555,7.2020794847944485,24.793981,59.486571,9.04443676850322,113.14677015085898,64.84829848448256,-1.8569154608071707,0.002653353815481256,0.2602474890408189
2025-09-06T13:22:28+03:00,,287.15,-74.99931594593207,9.00072,165.99733240530213,136.30092988367153,-1.4000223724021665,4.74336,4.93776,-1.3980170201192088,-43.99742908809592,7.299482309966689,24.794137,59.486498,9.022836458444333,105.51614739226731,60.48118501303482,-1.2688959526470363,0.0020223553481527215,0.2622698443889716
2025-09-06T13:22:30+03:00,,287.15,-74.99931594593207,9.408959999999999,159.12756844168354,135.80245660190772,-0.9000021045914972,4.957199999999999,4.97664,-0.6990085100596044,-44.30109671951525,6.302535746439056,24.794168,59.486455,9.431731473657454,105.5085286247054,53.61903981697813,-1.3254651184362525,0.0027523476191805064,0.26502219200815214
2025-09-06T13:22:34+03:00,,287.15,-69.00044783091235,9.29232,157.9988415852758,137.8020793069143,0.9999832398418258,5.07384,4.957199999999999,-1.0026761414789407,-41.40193027615329,5.397262430132355,24.79422,59.48637,8.848687476912062,101.36585297269272,56.63298861258309,-0.9999173026187443,0.004021517553205931,0.2690437095613581
2025-09-06T13:22:38+03:00,,287.15,-72.00274667739787,9.29232,156.99616544379688,139.69856960879733,-0.9999832398418258,5.346,4.91832,-0.8995437383553924,-40.50238653779789,5.099324376664327,24.794268,59.486293,9.177665352290445,105.64461693114806,51.35154851264882,-1.4416545668462648,0.00244120361265027,0.27148491317400836
2025-09-06T13:22:40+03:00,,287.15,-69.99739439443997,9.195120000000001,161.99808699528896,137.89948213208652,-0.600001403060998,5.0544,4.859999999999999,-1.1974817918234204,-42.50200924280447,5.500394833255903,24.794317,59.486252,8.84883549037516,102.45923043578803,59.53885655950093,-1.0904608353446068,0.002882658073315136,0.27436757124732347
2025-09-06T13:22:44+03:00,,287.15,-63.99852627942025,9.29232,159.99846429028239,140.09964006538888,1.7000230739326654,5.1127199999999995,4.80168,-1.3980170201192088,-39.09863993972738,4.898789148368539,24.79434,59.486129,8.41615969160998,97.09156475446186,62.90689953582053,-0.6311927981399902,0.002779369622475955,0.2771469408697994
2025-09-06T13:22:46+03:00,,287.15,-63.99852627942025,9.992159999999998,164.99465626382317,142.29979799869125,0.600001403060998,4.80168,4.80168,-0.6016056848873644,-37.59749051648462,4.497718691776963,24.794359,59.486092,8.990651793762678,92.68504986718854,72.30960639663463,-0.2249385876724831,0.0022983389455006036,0.2794452798153
2025-09-06T13:22:48+03:00,,287.15,-65.99814898442683,9.89496,167.45264520493438,141.6981923138039,-0.2000195662801704,4.58784,4.80168,-0.8021409131831525,-38.19909620137198,5.500394833255903,24.794384,59.486049,9.056875571267447,93.56335803042427,73.88928717451012,-0.2851445587817795,0.002694897746813186,0.2821401775621132
2025-09-06T13:22:50+03:00,,287.15,-61.99890357441368,9.79776,164.99465626382317,141.80132471692744,0.300000701530499,5.19048,4.82112,-0.8021409131831525,-38.19909620137198,4.297183463481174,24.794404,59.486004,8.670953804370718,93.90521448248953,71.08944178133365,-0.35350329552216586,0.002772864407932348,0.2849130419700455
2025-09-06T13:22:52+03:00,,287.15,-61.99890357441368,9.70056,161.99808699528896,142.79827128045508,0.3999818367808277,5.19048,4.7628,-0.49847328176381617,-36.89848200642502,4.60085109490051,24.794441,59.486016,8.588593062329913,94.24793540541674,67.75015158987222,-0.3844721166303553,0.0013399305845380697,0.2862529725545836
2025-09-06T13:22:54+03:00,,287.15,-59.00233430587948,9.79776,160.99541085381,144.29942070369782,0.600001403060998,5.26824,4.80168,-0.6016056848873644,-35.59786781147805,3.5981749534215695,24.794476,59.485974,8.401468241258913,91.51663168893423,69.47877916487577,-0.13943516904439487,0.002741212411037942,0.2889941849656215
2025-09-06T13:22:58+03:00,,287.15,-61.00195701088606,9.408959999999999,161.99808699528896,141.10231620686784,-0.09998113525032865,3.18816,4.704479999999999,-1.0026761414789407,-39.09863993972738,4.60085109490051,24.794504,59.485857,8.343186122584699,80.52722131345693,81.47086568183202,0.5247041892191221,0.0018022368865948026,0.2907964218522163
2025-09-06T13:23:00+03:00,,287.15,-61.99890357441368,10.692,165.99733240530213,140.70124575027629,-0.8000209693411684,4.31568,4.74336,-0.6990085100596044,-39.49971039631895,5.001921551492087,24.794519,59.485824,9.466599741492985,85.73461352104994,80.2627188842522,0.32098428358219067,0.002035698086342112,0.29283211993855846
2025-09-06T13:23:02+03:00,,287.15,-52.00079004938082,10.4976,167.99695511030868,140.70124575027629,0.9000021045914972,4.41288,4.723920000000001,-0.8995437383553924,-39.29917516802316,6.600473799907084,24.794537,59.485782,8.522530068610893,76.08183241354976,91.91512269675891,1.0614557502037767,0.0025836049252257777,0.29541572486378426
2025-09-06T13:23:04+03:00,,287.15,-56.00003545939396,9.50616,163.9977097002955,142.70086845528286,1.1000216708716675,5.26824,4.74336,-0.8021409131831525,-36.89848200642502,4.497718691776963,24.794578,59.485735,7.881110439711209,89.6544371948138,74.3432725054817,0.03177366241129293,0.003089783949086897,0.29850550881287113
2025-09-06T13:23:06+03:00,,287.15,-59.999280869407116,11.10024,167.84225650562334,145.399499670349,0.9000021045914972,4.45176,4.74336,-1.1000789666511805,-34.497788844826864,3.9018425848409057,24.794611,59.485694,9.675578353542434,83.48108205663115,84.36117444899219,0.5054139466960276,0.002662275644620251,0.30116778445749137
2025-09-06T13:23:08+03:00,,287.15,-59.999280869407116,11.60568,167.99695511030868,145.10156161688099,0.5000202678106694,3.7519199999999997,4.7628,-1.598552248414997,-35.39733258318226,6.89841185337511,24.794625,59.48566,10.25788391624577,78.46606594325083,89.53088916705785,0.7501899155074042,0.002087851299119479,0.30325563575661085
2025-09-06T13:23:10+03:00,,287.15,-59.00233430587948,11.39184,169.99657781531528,142.90140368357862,-0.300000701530499,5.22936,4.80168,-1.1974817918234204,-37.40268486614014,7.402614713090236,24.794646,59.48561,9.7857373567883,86.26492898653568,83.7316488287796,0.3406568517462306,0.003072966187405941,0.3063286019440168
2025-09-06T13:23:12+03:00,,287.15,-56.00003545939396,11.508479999999999,171.99620052032182,143.19934173704664,0.0,4.78224,4.82112,-0.8995437383553924,-36.60054395295699,5.202456779787875,24.794667,59.485575,9.683137716474645,80.16966040316933,91.82654011715249,0.8164779289301944,0.00219923323354681,0.3085278351775636
2025-09-06T13:23:14+03:00,,287.15,-54.99735931791503,10.692,169.4007017083792,145.89797295211284,0.9000021045914972,4.64616,4.7628,-1.3006141949469687,-33.99931556306306,4.698253920072751,24.794668,59.485528,8.883417008099494,80.36437006300808,89.0363316453711,0.7776829288780982,0.0028252275249076105,0.3113530627024712
2025-09-06T13:23:16+03:00,,287.15,-59.00233430587948,9.992159999999998,170.437755317566,146.79751669046823,0.09998113525032865,4.68504,4.82112,-0.8995437383553924,-33.30030705300345,4.60085109490051,24.794671,59.485491,8.577557155498111,86.91946773403404,83.51828758353196,0.2517718523970758,0.0022258694494931134,0.3135789321519643
2025-09-06T13:23:18+03:00,,287.15,-61.00195701088606,9.50616,172.43737802257255,146.40217581182796,-1.1000216708716675,4.723920000000001,4.859999999999999,-0.6016056848873644,-34.497788844826864,5.700930061551691,24.794685,59.485459,8.31523484506277,90.79605386066615,81.6413241619064,-0.06563090337695994,0.0019703343564213727,0.31554926650838566
2025-09-06T13:23:20+03:00,,287.15,-61.00195701088606,9.00072,170.9992539567942,130.59999982211983,-10.000004285756797,4.4712,4.7628,-1.0026761414789407,-53.60020173448851,8.697499330085895,24.794777,59.485411,7.873094630973614,90.78477183058091,80.2144821262133,-0.06123945126176662,0.004025946369723793,0.31957521287810947
2025-09-06T13:23:22+03:00,,287.15,-48.99849120289531,9.60336,164.99465626382317,110.39750796580702,-12.10000919647029,4.374,4.704479999999999,-0.49847328176381617,-73.40162313420976,8.502693679741416,24.794816,59.485381,7.499272221411403,75.11381072414048,89.8808455396827,1.1236799346107316,0.002160654123900725,0.3217358670020102
2025-09-06T13:23:24+03:00,,287.15,-42.002676524347955,10.1088,141.99613036727192,92.60143884904365,-13.399993137842614,4.5684000000000005,4.58784,-0.8021409131831525,-91.19769225097312,6.102000518143266,24.794862,59.485373,7.377167372469653,66.48350290750807,75.51262745976385,1.8228514469480968,0.0014839958814460415,0.3232198628834562
2025-09-06T13:23:26+03:00,,287.15,-29.999210716357208,11.00304,122.99684988073382,72.5994822210266,-14.59999594396461,4.1796,4.33512,-0.20053522829578813,-111.60071933558174,4.60085109490051,24.794805,59.485346,7.673410543846613,45.80256320056287,77.19428668017095,2.9137372131771535,0.002379121567004417,0.32559898445046065
2025-09-06T13:23:30+03:00,,287.15,11.997736230039438,11.29464,57.99478802314193,29.301061642990298,-9.4000028826958,3.2464799999999996,3.6547199999999997,0.40107045659157625,-155.3976131953819,-2.200157933302361,24.794946,59.485356,8.147075354177401,16.74922504876639,74.74401307190831,3.1087489258695866,0.002825227526586895,0.3284242119770475
2025-09-06T13:23:34+03:00,,287.15,48.00240407606037,9.992159999999998,5.998868115019719,353.1024299832237,-6.60001543367098,3.51864,3.46032,-0.29793805346802804,170.00230739326656,-4.60085109490051,24.794959,59.485499,8.07307900981682,66.90200638941506,72.90087450443478,1.3803797343091266,0.0026104509519328046,0.3310346629289803
2025-09-06T13:23:36+03:00,,287.15,60.0001403060998,10.303199999999999,349.9969987336147,342.50271077330353,-4.299990956677315,3.9851999999999994,3.44088,-0.49847328176381617,160.89800802863775,-3.701307356545118,24.79499,59.485455,8.998756069338949,82.55262665025052,72.54962538386519,0.5165436385263824,0.002808878063429102,0.3338435409924094
2025-09-06T13:23:38+03:00,,287.15,67.00168456259847,9.408959999999999,336.99658636209637,334.2005523218579,-3.600008418365989,3.92688,3.5575200000000002,-0.49847328176381617,152.29791152372414,-4.898789148368539,24.794963,59.485494,8.664730759536608,91.65839639407402,68.6549827561704,-0.11364561939171024,0.0024848187974751954,0.3363283597898846
2025-09-06T13:23:42+03:00,,287.15,76.0028515241037,9.89496,324.9988501320569,320.9996047220437,0.600001403060998,5.48208,3.86856,-0.29793805346802804,140.99918380374427,-4.801386323196299,24.794867,59.485566,10.085761514836324,107.83329849539382,72.83214862745069,-1.678879329495185,0.0014173622275170745,0.3377457220174017
2025-09-06T13:23:44+03:00,,287.15,73.99749924114583,9.992159999999998,321.9965512855714,322.30021891699073,0.8000209693411684,5.48208,3.9463199999999996,-0.20053522829578813,142.70086845528286,-5.597797658428142,24.794814,59.485606,9.984700243004587,105.85255615506816,67.84910744063956,-1.497500068888256,0.0028977923455915894,0.3406435143629933
2025-09-06T13:23:48+03:00,,287.15,80.99904349764448,9.79776,323.9961739905779,318.79944678874136,1.5999846429028237,4.49064,4.16016,-0.20053522829578813,139.10269350186127,-5.202456779787875,24.794731,59.485672,10.119032753997935,106.99557269408729,70.9917466846652,-1.3126042337390202,0.0007045269945187635,0.34134804135751207
2025-09-06T13:23:50+03:00,,287.15,80.00209693411685,9.60336,323.9961739905779,323.4002978836418,3.6999895536163168,4.62672,4.257359999999999,-0.6990085100596044,144.70049116028943,-6.399938571611295,24.794687,59.485703,9.90975137967494,107.37600945740199,71.37218344797992,-1.3817292698148225,0.0022968127628037326,0.3436448541203158
2025-09-06T13:23:52+03:00,,287.15,76.0028515241037,9.79776,337.7471610737177,328.0011489785424,1.5999846429028237,4.87944,4.31568,0.20053522829578813,148.69973657030255,-4.898789148368539,24.794644,59.485736,9.832509917664023,104.78762976204155,82.53479083575922,-1.2454136930471498,0.002378395294367469,0.34602324941468326
2025-09-06T13:23:54+03:00,,287.15,73.99749924114583,10.206,335.1803101515316,331.1982534753724,0.09998113525032865,4.6655999999999995,4.31568,-0.40107045659157625,151.5015001884923,-5.001921551492087,24.794618,59.48577,9.983794529088133,100.69041957694928,75.87072972848091,-0.8654795783657085,0.0021923101059047015,0.34821555952058797
2025-09-06T13:23:58+03:00,,287.15,65.0020618575919,10.303199999999999,333.9942875156107,331.7024563350875,1.200002806121996,5.03496,4.45176,0.20053522829578813,151.7994382419603,-6.199403343315507,24.794564,59.485845,9.362824225592774,94.1709110863525,68.1651986019632,-0.3662019747312304,0.0014243484038274391,0.3496399079244154
2025-09-06T13:24:02+03:00,,287.15,63.002439152585325,11.60568,335.9996397985687,337.5981920469837,4.299990956677315,4.548959999999999,4.60728,-0.09740282517223994,158.49731486703965,-9.001166961505232,24.794445,59.485988,10.36595903371598,86.02008242790669,62.01972222647538,0.31572884239807775,0.0022837032141992974,0.3519236111386147
2025-09-06T13:24:04+03:00,,287.15,56.99784145961429,11.89728,345.9977533236015,342.1016403167119,1.4000223724021665,5.307119999999999,4.74336,0.09740282517223994,162.10121939841252,-9.700175471564837,24.794487,59.485963,10.046365915502836,83.29504960227924,69.29280292588072,0.6196410075314163,0.001975135912614925,0.35389874705122965
2025-09-06T13:24:08+03:00,,287.15,48.999350639587995,11.508479999999999,356.9985429901134,346.3014209550209,1.899985344433323,5.13216,4.957199999999999,-0.29793805346802804,166.50153526501725,-6.89841185337511,24.794428,59.486115,9.015823069715545,74.44191248592769,71.44045547604105,1.3765232429948326,0.002738386624668019,0.35663713367589767
2025-09-06T13:24:10+03:00,,287.15,50.998973344594575,11.80008,354.99892028510675,351.40074533168513,0.0,5.1710400000000005,4.97664,-0.20053522829578813,172.20246532656893,-7.500017538262475,24.794421,59.486157,9.44347589724957,76.1839411728683,71.18286145797504,1.2348735019093597,0.0025335474024630556,0.3591706810783607
2025-09-06T13:24:12+03:00,,287.15,48.999350639587995,12.091679999999998,1.9996227050065731,351.1028072782172,3.399988852085818,5.20992,5.01552,-0.09740282517223994,172.29986815174118,-9.098569786677473,24.79445,59.486163,9.523225575375344,73.38515491848793,75.3847776234945,1.489707097240454,0.0009557226226982723,0.360126403701059
2025-09-06T13:24:14+03:00,,287.15,46.99972793458143,12.402719999999999,358.9981656951199,353.1024299832237,-0.300000701530499,5.773680000000001,5.07384,-0.6016056848873644,172.99887666180075,-10.89765726338826,24.794451,59.48621,9.45978048270161,73.51089662866802,72.50906232378793,1.6387608534782334,0.0028252275194715873,0.36295163122053054
2025-09-06T13:24:18+03:00,,287.15,43.99742908809592,13.19976,6.749442826641098,352.5008242983364,0.300000701530499,5.67648,5.20992,0.0,172.59780620520917,-11.098192491684046,24.794471,59.486302,9.93246109510571,67.38721648988435,74.13665931652545,2.182613908388534,0.0012572243664699606,0.3642088555870005
2025-09-06T13:24:20+03:00,,287.15,45.00010522957485,13.19976,7.9984908200262925,351.69868338515323,1.7000230739326654,5.26824,5.26824,0.20053522829578813,171.80139486997734,-10.702851613043778,24.794487,59.486348,10.180593707155882,66.46390739179544,74.46239821182174,2.1037487774268837,0.0028077432024194654,0.36701659878941995
2025-09-06T13:24:24+03:00,,287.15,41.00085981956171,13.296959999999999,4.996191973540778,356.79800776181753,2.7999874490248207,5.48208,5.2488,-0.8995437383553924,177.89766581016931,-10.702851613043778,24.794531,59.486509,9.840461082726735,62.438851579121376,67.43504355266215,2.536531031161174,0.0034649278238118903,0.37048152661323186
2025-09-06T13:24:26+03:00,,287.15,39.00123711455514,13.7052,13.99735893504601,1.3006141949469687,1.7000230739326654,4.7628,5.2488,-0.29793805346802804,-177.10125447493746,-9.20170218980102,24.794553,59.486567,10.443272612337344,55.6807482811178,69.67810721616381,2.685283743246644,0.003550313824094928,0.3740318404373268
2025-09-06T13:24:28+03:00,,287.15,35.99893826806962,13.802399999999999,20.99890319154467,4.497718691776963,-0.600001403060998,4.548959999999999,5.20992,-0.49847328176381617,-175.69750787686695,-7.700552766558264,24.794564,59.486534,10.469341817123329,50.795510562008104,71.79441375355277,2.87535222587544,0.002011763032157423,0.37604360346948423
2025-09-06T13:24:30+03:00,,287.15,33.99931556306306,13.608,15.996981640052585,7.299482309966689,-1.4000223724021665,5.13216,5.20992,-0.6016056848873644,-172.20246532656893,-5.998868115019719,24.794577,59.486571,9.783579449567526,51.056734909557946,67.05371654961053,3.225821960856575,0.002259097391011985,0.3783027008604962
2025-09-06T13:24:34+03:00,,287.15,35.00199170454199,14.094,14.994305498573642,12.79987714322259,-2.1000049107134933,5.03496,5.0544,-0.8995437383553924,-167.29794660024908,-0.8021409131831525,24.794638,59.486764,10.379593610735041,51.15752501144337,66.151830510017,3.1578331836898386,0.0030400510624381556,0.3813427519229344
2025-09-06T13:24:36+03:00,,287.15,37.001614409548566,13.9968,9.998113525032863,10.50231638474799,-1.899985344433323,5.07384,4.93776,-0.8021409131831525,-170.70131590332616,-3.9992454100131463,24.794652,59.486702,10.403001422815334,54.071222707758196,64.06933623279106,2.9772234364713945,0.0037510915512675713,0.38509384347420195
2025-09-06T13:24:40+03:00,,287.15,43.99742908809592,13.296959999999999,356.3511006816155,357.39961344670496,-0.9000021045914972,4.64616,4.80168,0.09740282517223994,176.4996487900501,-5.099324376664327,24.794619,59.486902,10.46473857548429,61.96036956835957,58.31147024997506,2.1840769701528613,0.0018755456653984928,0.38696938913960044
2025-09-06T13:24:42+03:00,,287.15,45.00010522957485,13.19976,352.9992975801002,352.9018947549279,1.200002806121996,4.41288,4.82112,0.20053522829578813,172.29986815174118,-6.399938571611295,24.794618,59.486926,10.551344008724836,62.2016158164748,55.20091339657495,2.057998191360034,0.0014429079795714014,0.38841229711917186
2025-09-06T13:24:44+03:00,,287.15,46.00278137105379,13.5108,354.99892028510675,353.497770861864,-0.5000202678106694,4.64616,4.80168,0.0,172.99887666180075,-6.399938571611295,24.794659,59.486866,10.812994656394881,64.00793712173002,59.00685740683679,2.0361639792882773,0.00381736237800504,0.3922296594971769
2025-09-06T13:24:48+03:00,,287.15,41.99780638308934,13.19976,357.99548955364094,355.10205268823034,1.2999839413723246,5.13216,4.74336,-0.20053522829578813,176.09857833345853,-10.198648753328653,24.794653,59.48704,9.994154444845696,62.093845958129265,60.08933551177017,2.4019778256144546,0.0029792694273034033,0.39520892892448034
2025-09-06T13:24:50+03:00,,287.15,39.00123711455514,13.19976,3.9992454100131463,352.9992975801002,2.400005612243992,4.68504,4.82112,0.40107045659157625,172.99887666180075,-12.501939089754565,24.794663,59.487084,10.00326698609541,56.143825208528625,60.14307061854177,2.610082982563491,0.002662289622905088,0.39787121854738544
2025-09-06T13:24:52+03:00,,287.15,35.00199170454199,13.8996,3.9992454100131463,353.1024299832237,0.6999825383113268,4.374,4.78224,-0.29793805346802804,172.50040338003691,-16.39805209664416,24.794667,59.487129,10.617412681032018,48.67055323491837,52.66979864493152,2.8885357461069527,0.002707600555461004,0.40057881910284643
2025-09-06T13:24:54+03:00,,287.15,35.00199170454199,13.802399999999999,2.9965692685342056,350.70173682162556,0.3999818367808277,4.64616,4.87944,-0.49847328176381617,169.89917499014302,-17.102790184655074,24.794658,59.487092,10.345732505982193,49.92969100143924,52.92626026997344,2.9908593660854654,0.0022408823772253816,0.4028197014800718
2025-09-06T13:25:00+03:00,,287.15,37.998560973076195,14.094,8.995437383553925,346.19828855189735,1.5000035076524951,4.374,5.01552,0.0,165.80252675495763,-17.498131063295343,24.794728,59.487343,10.982420582014484,52.191822610681726,61.18725999423565,2.6813486935746895,0.003024076766633356,0.40584377824670514
2025-09-06T13:25:02+03:00,,287.15,35.00199170454199,13.9968,7.9984908200262925,348.30104366002746,1.4000223724021665,4.548959999999999,5.07384,-0.40107045659157625,168.19749033860447,-18.300271976478495,24.794747,59.487379,10.596873025342692,49.25673686163145,57.25522768165774,2.9689727853056715,0.002240221542127358,0.40808399978883253
2025-09-06T13:25:04+03:00,,287.15,35.00199170454199,14.40504,18.999280486538098,350.10013113673824,0.0,4.1796,5.13216,0.0,170.59818350020262,-16.501184499767707,24.794771,59.487408,11.240051613261224,47.31746931691114,66.31674980344924,2.833499487567851,0.0018907538230196399,0.40997475361185215
2025-09-06T13:25:06+03:00,,287.15,35.00199170454199,14.30784,19.996227050065727,350.10013113673824,0.2000195662801704,4.58784,5.28768,0.09740282517223994,169.69863976184723,-16.799122553235737,24.794813,59.487454,10.873062580287028,49.008376529861636,69.00460357992736,3.009387614663874,0.0030476072828880705,0.4130223608947402
2025-09-06T13:25:08+03:00,,287.15,33.99931556306306,14.21064,11.997736230039438,351.1028072782172,0.5000202678106694,4.957199999999999,5.28768,-0.20053522829578813,170.9992539567942,-16.799122553235737,24.794801,59.48749,10.474354483472023,49.34515499990141,61.34289122994085,3.2296193350591516,0.0021946489127457366,0.41521700980748594
2025-09-06T13:25:10+03:00,,287.15,31.999692858056477,14.094,13.99735893504601,351.69868338515323,1.200002806121996,5.01552,5.38488,0.20053522829578813,172.29986815174118,-17.801798694714677,24.794794,59.487529,10.193182741743946,47.11382803366445,61.111186968710456,3.4132823126012237,0.0023539148026212697,0.4175709246101072
2025-09-06T13:25:12+03:00,,287.15,31.002746294528848,14.21064,14.994305498573642,352.19715666691707,0.8000209693411684,4.93776,5.3654399999999995,0.29793805346802804,172.70093860833276,-16.59858732493995,24.794824,59.487583,10.29730771926395,45.30224347694215,60.29654897551579,3.473056796825519,0.003372469646096884,0.4209433942562041
2025-09-06T13:25:14+03:00,,287.15,31.999692858056477,14.502239999999999,15.996981640052585,354.90151745993455,0.09998113525032865,5.0544,5.3654399999999995,-0.09740282517223994,175.3021669982267,-15.49850835828877,24.794851,59.487544,10.561129217808405,46.690890160955036,62.68787180100762,3.4669851013123987,0.00248480189262306,0.42342819614882715
2025-09-06T13:25:16+03:00,,287.15,33.00236899953541,14.79384,17.33770288065871,356.4026668831773,0.9999832398418258,5.07384,5.326560000000001,0.49847328176381617,177.3991925284055,-14.598964619933378,24.794878,59.487596,10.895001788278556,47.696355916381094,65.0340587970398,3.4149964855198296,0.003232390034024042,0.4266605861828512
2025-09-06T13:25:18+03:00,,287.15,30.0000701530499,14.696639999999999,15.996981640052585,358.7976304668241,0.9000021045914972,5.13216,5.3654399999999995,-0.20053522829578813,179.10087717994404,-13.899956109873772,24.794898,59.487645,10.56832881601871,44.05245998511481,60.04944162516739,3.6885012009816767,0.0030078574400159157,0.4296684436228671
2025-09-06T13:25:20+03:00,,287.15,28.000447448043335,14.21064,18.999280486538098,2.1027551081301215,-1.5000035076524951,5.01552,5.346,-0.29793805346802804,-177.3991925284055,-12.198271458335228,24.794923,59.487687,10.061624234962725,41.53464519731983,60.53392568385793,3.754392150279436,0.0026372939093968917,0.432305737532264
2025-09-06T13:25:24+03:00,,287.15,24.001202038030186,14.91048,24.052768239591963,1.3006141949469687,2.9000258800546614,5.20992,5.42376,-0.40107045659157625,-178.99774477682047,-16.501184499767707,24.794984,59.48788,10.369869051904969,35.79311891548639,59.84588715507835,4.225943588662914,0.002657229548726612,0.4349629670809906
2025-09-06T13:25:26+03:00,,287.15,24.001202038030186,15.007679999999999,25.08982184877875,3.2028340747813018,0.2000195662801704,5.07384,5.3654399999999995,0.40107045659157625,-176.20171073658207,-16.30064927147192,24.795039,59.487922,10.57586450058717,35.25432341560142,60.344145264380174,4.14328761006509,0.0030315892748733904,0.437994556355864
2025-09-06T13:25:28+03:00,,287.15,24.99814860155782,15.29928,23.995472460078876,3.5007721282493303,-0.300000701530499,4.14072,5.326560000000001,-0.09740282517223994,-177.10125447493746,-15.29797312999298,24.795075,59.487968,11.67829358213906,33.615540614184795,57.61101307426367,3.4482719946580382,0.0029752298889193624,0.44096978624478333
2025-09-06T13:25:30+03:00,,287.15,24.99814860155782,15.10488,40.1586118607194,5.202456779787875,8.29998121182413,4.704479999999999,5.22936,0.20053522829578813,-172.59780620520917,-15.00003507652495,24.795079,59.487904,11.021888687811723,35.38968956089201,75.5483014216114,3.835242756124818,0.0038488301798095042,0.44481861642459286
2025-09-06T13:25:34+03:00,,287.15,16.99965778153153,14.91048,65.99900842111953,52.2021847143693,8.100018941323475,3.73248,4.97664,-1.0026761414789407,-121.70196526373815,2.899166443361966,24.795275,59.48803,11.39346472494871,22.495793051738758,88.49480147285828,3.448466745558082,0.0026577679231687187,0.4474763843477616
2025-09-06T13:25:36+03:00,,287.15,0.0,13.8996,74.99444580467346,77.69880659769095,8.899982614885129,3.8491199999999997,4.78224,-0.6990085100596044,-97.79816605088023,5.798332886723932,24.795339,59.488037,10.05048,0.0,74.99444580467346,3.8491199999999997,0.001997944864972699,0.4494743292127343
2025-09-06T13:25:38+03:00,,287.15,-10.999930229819109,12.69432,86.9979116126642,93.00250930563523,2.499986747494321,3.6741599999999996,4.52952,-0.6990085100596044,-86.00096504913657,14.799499848229162,24.795389,59.488029,9.114664911947271,15.411216675295776,71.58669493736842,3.542049692637718,0.0015998645379693209,0.4510741937507036
2025-09-06T13:25:40+03:00,,287.15,-18.00147448631777,13.00536,120.99722717572726,91.79929793586051,-1.7000230739326654,4.62672,4.43232,-1.701684651538545,-88.99753431767077,20.299894681485068,24.795454,59.488015,8.723109279786827,27.43568417065029,93.56154300507697,4.106346313355349,0.0021547692337815496,0.4532289629844852
2025-09-06T13:25:42+03:00,,287.15,-22.99766645985855,13.608,123.99952602221278,89.39860477426234,0.600001403060998,5.326560000000001,4.52952,-0.8995437383553924,-90.09761328432195,17.498131063295343,24.795532,59.488001,8.950093114034164,36.44299827073391,87.55652775147887,4.284941778775861,0.0025247551988030574,0.45575371818328825
2025-09-06T13:25:44+03:00,,287.15,-33.00150956284272,13.7052,118.99760447072069,96.30274620558878,3.2000265815851607,4.5684000000000005,4.6655999999999995,-0.49847328176381617,-82.59759574605948,12.501939089754565,24.795609,59.487992,10.182575915188515,47.145615322230725,71.85198914848996,3.107139919135642,0.0024113372950014997,0.45816505547828973
2025-09-06T13:25:46+03:00,,287.15,-31.00188685783615,13.296959999999999,118.99760447072069,96.6006842590568,-0.6999825383113268,3.92688,4.859999999999999,-1.3006141949469687,-84.09874516930223,18.999280486538098,24.795683,59.487981,10.134907551877099,42.51358676952671,76.48401770119398,2.894570439926595,0.0023531196782223913,0.4605181751565121
2025-09-06T13:25:48+03:00,,287.15,-29.999210716357208,13.39416,106.99986824068124,95.00213201064179,0.0,5.1127199999999995,5.09328,-1.1000789666511805,-84.99828890765764,20.798367963248886,24.795763,59.487986,9.323659358597032,45.91196854155368,61.08789969912756,3.5572402380232044,0.0024598551918708963,0.46297803034838303
2025-09-06T13:25:50+03:00,,287.15,-29.999210716357208,13.7052,114.99835906070751,95.79854334587364,0.09998113525032865,3.86856,5.307119999999999,-1.3980170201192088,-84.09874516930223,23.399596353142822,24.795855,59.487976,10.53400486327482,40.57978538017716,74.41857368053036,2.938174650113958,0.0028712612176229942,0.465849291566006
