time,dpt,mtw,awa,aws,cog,hdg,rot,sog,stw,pitch,yaw,roll,lng,lat,tws,twa,twd,vmg,dist,cum_dist
2025-09-06T14:47:55+03:00,,287.15,41.00085981956171,12.79152,4.83003421295284,345.90035049842925,2.7999874490248207,4.74336,4.4712,-0.20053522829578813,166.5989380901895,-14.702097023056925,24.787935,59.489592,9.723166189072506,59.667297017857365,64.4973312308102,2.3954933081793213,0.002836599575402027,0.002836599575402027
2025-09-06T14:47:57+03:00,,287.15,37.001614409548566,13.39416,7.660445720899108,349.49852545185087,1.5000035076524951,4.74336,4.60728,-0.09740282517223994,169.60123693667498,-14.398429391637588,24.787945,59.489636,10.021237730284076,53.55258539309925,61.213031113998355,2.8179579154405427,0.0026622869789821204,0.005498886554384148
2025-09-06T14:47:59+03:00,,287.15,33.99931556306306,13.7052,11.522181260080856,351.80181578827677,3.099988150555319,4.84056,4.64616,-0.20053522829578813,172.59780620520917,-15.20057030482074,24.78796,59.489678,10.063028327393296,49.602928024941065,61.12510928502192,3.137074882151056,0.0025656874690770846,0.008064574023461233
2025-09-06T14:48:01+03:00,,287.15,28.000447448043335,14.21064,8.995437383553925,356.0989992517579,0.9000021045914972,5.03496,4.68504,-0.29793805346802804,175.8006402799905,-16.701719728063498,24.787982,59.489722,10.04708059625599,41.60815416760022,50.603591551154146,3.764657692132292,0.0027286203420955205,0.010793194365556754
2025-09-06T14:48:03+03:00,,287.15,26.997771306564392,14.502239999999999,18.999280486538098,357.39961344670496,2.1000049107134933,4.58784,4.74336,-0.6990085100596044,178.20133344158864,-15.601640761412316,24.788002,59.489765,10.620570228197513,38.306667161880654,57.30594764841875,3.6000975247495197,0.002655714215619032,0.013448908581175787
2025-09-06T14:48:07+03:00,,287.15,22.998525896551243,15.007679999999999,34.88740014551583,12.599341914926804,2.499986747494321,4.704479999999999,4.74336,-0.20053522829578813,-165.29832389524248,-11.699798176571411,24.788063,59.489923,10.834193784846246,32.76628770304109,67.65368784855691,3.9559275773843563,0.0025983583307766945,0.016047266911952483
2025-09-06T14:48:09+03:00,,287.15,18.999280486538098,15.007679999999999,29.994340575098594,18.002333923010465,0.09998113525032865,4.62672,4.704479999999999,-0.8021409131831525,-161.49961371352515,-11.201324894807593,24.788087,59.489892,10.739168656626513,27.062074875763727,57.05641545086232,4.120159596056167,0.00200210455437299,0.018049371466325473
2025-09-06T14:48:13+03:00,,287.15,18.002333923010465,14.21064,27.99471787009202,20.798367963248886,0.09998113525032865,5.07384,4.60728,-0.8995437383553924,-159.20205295505053,-10.50231638474799,24.78819,59.489997,9.515294318487298,27.487821049229865,55.48253891932188,4.501048944441945,0.0020644947553434202,0.020113866221668893
2025-09-06T14:48:15+03:00,,287.15,16.99965778153153,13.9968,29.994340575098594,22.001579333023614,-0.600001403060998,4.35456,4.548959999999999,-0.09740282517223994,-158.3999120418674,-10.3017811564522,24.788213,59.490027,9.914586291370385,24.377340294913893,54.37168087001248,3.9663377677103067,0.0019350096891618885,0.02204887591083078
2025-09-06T14:48:17+03:00,,287.15,16.99965778153153,13.9968,30.99701671657754,21.30257082296401,0.3999818367808277,4.0824,4.41288,-0.49847328176381617,-158.6978500953354,-10.399183981624443,24.788238,59.490062,10.163103224506049,23.744038891153508,54.74105560773105,3.7368386235064732,0.0022378256884734637,0.024286701599304246
2025-09-06T14:48:19+03:00,,287.15,16.002711218003892,13.9968,28.997394011570965,21.39997364813625,-2.3000244769936637,3.9463199999999996,4.33512,-0.09740282517223994,-159.49999100851855,-10.599719209920229,24.78827,59.49009,10.261241429868603,22.088849089172044,51.086243100743005,3.656667350068826,0.001945794212333355,0.026232495811637602
2025-09-06T14:48:21+03:00,,287.15,16.99965778153153,13.7052,30.99701671657754,15.00003507652495,-3.8000279846461584,3.86856,4.276800000000001,-0.40107045659157625,-167.09741137195329,-12.301403861458775,24.788322,59.490084,10.069393802830932,23.44896373528522,54.44598045186276,3.5490745723846677,0.0016272954048749397,0.027859791216512542
2025-09-06T14:48:23+03:00,,287.15,20.00195662801704,13.296959999999999,20.99890319154467,4.898789148368539,-3.9999902551468165,3.9463199999999996,4.19904,-0.20053522829578813,-178.20133344158864,-16.197516868348373,24.788347,59.490118,9.683224680763619,28.01512110160573,49.0140242931504,3.483904675633817,0.0021814144877636958,0.03004120570427624
2025-09-06T14:48:25+03:00,,287.15,24.001202038030186,13.00536,13.99735893504601,352.3976918952128,-2.499986747494321,4.23792,4.276800000000001,-0.6990085100596044,170.20284262156233,-21.600508876432034,24.788368,59.490154,9.295103321450531,34.68870744842292,48.686066383468926,3.484656103674709,0.002256775321565216,0.03229798102584146
2025-09-06T14:48:27+03:00,,287.15,28.000447448043335,13.39416,0.9969465635276323,343.4022545116589,-0.9000021045914972,4.41288,4.35456,-0.49847328176381617,161.7001489418209,-25.301816232977153,24.788368,59.490191,9.721163261216455,40.30556859841059,41.30251516193822,3.3652864015261903,0.0022239855075909362,0.0345219665334324
2025-09-06T14:48:29+03:00,,287.15,30.0000701530499,13.8996,0.9969465635276323,337.39765681868784,0.2000195662801704,4.84056,4.49064,-0.49847328176381617,156.29715693373726,-27.100903709687937,24.788367,59.490237,10.004719130417863,43.99962463081076,44.99657119433839,3.482029493262787,0.0027651233453134375,0.037287089878745835
2025-09-06T14:48:33+03:00,,287.15,33.00236899953541,14.30784,4.996191973540778,334.0974199187343,-0.300000701530499,4.87944,4.80168,-1.1000789666511805,153.1974552620795,-26.797236078268604,24.788381,59.490317,10.555759401525533,47.58508932330719,52.58128129684796,3.291155641491026,0.001263351784060947,0.03855044166280678
2025-09-06T14:48:35+03:00,,287.15,31.002746294528848,14.696639999999999,2.9965692685342056,333.50154381179834,-0.600001403060998,5.50152,4.93776,-0.8021409131831525,153.00264961173502,-27.398841763155968,24.788385,59.490367,10.375518003419993,46.85250815531995,49.849077423854155,3.762372688967096,0.0030078635709653956,0.04155830523377217
2025-09-06T14:48:37+03:00,,287.15,31.999692858056477,14.91048,356.4313147729339,330.40184214014056,-4.099971390397145,5.346,5.09328,-0.8995437383553924,149.19820985206638,-27.398841763155968,24.788387,59.490414,10.756552919075112,47.26965170781679,43.70096648075071,3.6275221121789825,0.00282572183992863,0.0443840270737008
2025-09-06T14:48:39+03:00,,287.15,41.00085981956171,13.802399999999999,340.7380007643006,321.20013995033946,-9.4000028826958,5.48208,5.07384,-0.29793805346802804,139.10269350186127,-20.500429909780856,24.78839,59.490467,10.312586311294716,61.41242424398064,42.15042500828122,2.6231832913941564,0.003187024076776344,0.04757105115047715
2025-09-06T14:48:41+03:00,,287.15,58.99746416462087,14.30784,345.9977533236015,314.3017280969644,-7.500017538262475,6.045839999999999,4.996079999999999,0.29793805346802804,134.30130717866496,-5.397262430132355,24.788372,59.490523,12.335125358610078,83.83924751545698,69.83700083905848,0.6488295044444635,0.0034105543390477036,0.05098160548952485
2025-09-06T14:48:45+03:00,,287.15,69.99825383113267,12.30552,316.9946297340793,298.7974901607243,-10.999987525598621,6.18192,5.346,-0.09740282517223994,114.90095623553529,-2.2975607584746007,24.78824,59.490611,11.730365094786006,99.68211175826717,56.67674149234648,-1.0396853582935675,0.0015773313636568667,0.05255893685318172
2025-09-06T14:48:47+03:00,,287.15,84.00134234412998,11.702879999999999,299.99497195254776,273.99987678746226,-12.10000919647029,5.90976,5.404319999999999,-0.49847328176381617,88.00058775414314,4.199780638308934,24.788145,59.490639,12.547001874034805,111.93381682035117,51.92878877289894,-2.2075042128139573,0.003352097067874645,0.05591103392105637
2025-09-06T14:48:51+03:00,,287.15,136.99993839373113,7.892639999999999,255.99754286445182,206.20178088963198,-13.00001130106179,5.38488,5.307119999999999,-1.0026761414789407,19.19981571483389,5.597797658428142,24.78788,59.49065,12.387778078877787,154.24505834324466,50.24260120769645,-4.849950144861265,0.0026123395104115845,0.058523373431467955
2025-09-06T14:48:53+03:00,,287.15,-176.99726263512122,6.006959999999999,231.99634082642166,181.39843793841862,-7.099978405702136,5.0544,5.07384,-0.49847328176381617,-1.902219879834333,9.098569786677473,24.787835,59.490612,11.057590794171851,178.36931008179133,53.62703074463033,-5.052353047313246,0.0026650977201087447,0.0611884711515767
2025-09-06T14:48:55+03:00,,287.15,-144.99756977706474,5.598719999999999,210.99743763487695,173.89842040015614,-2.9000258800546614,5.03496,4.89888,-0.6990085100596044,-7.0015442564986605,5.397262430132355,24.787833,59.490564,10.14287004920303,161.54104567577645,49.4563919591005,-4.775914949528136,0.0028858158194475197,0.06407428697102421
2025-09-06T14:48:57+03:00,,287.15,-131.99715740554637,6.9984,204.99856951985726,164.70244778830644,-6.399995867390808,4.89888,4.7628,-1.0026761414789407,-17.69866629159113,7.402614713090236,24.787753,59.490536,10.902085934982011,151.5057930875172,53.492776432340065,-4.305455900274348,0.0029651645990991945,0.0670394515701234
2025-09-06T14:48:59+03:00,,287.15,-119.0024746119793,7.095599999999999,175.1073613478822,149.89721836212598,-7.200016836731978,4.4712,4.68504,-0.8995437383553924,-33.70137750959502,10.800254438216017,24.787753,59.490524,10.055026457230253,141.88920308311958,33.21815826476262,-3.518023917516793,0.0007212925967258373,0.06776074416684924
2025-09-06T14:49:01+03:00,,287.15,-102.00281683044777,8.10648,177.99506863534154,136.99993839373113,-4.400029387707157,4.704479999999999,4.62672,-0.6990085100596044,-44.39849954468749,11.000789666511807,24.787769,59.490485,10.183760595117716,128.86585928917236,49.129209346169176,-2.9520575124035164,0.0023945072586921937,0.07015525142554144
2025-09-06T14:49:03+03:00,,287.15,-93.00164986894255,9.408959999999999,165.99733240530213,135.69932419878415,-0.5000202678106694,4.58784,4.6655999999999995,-1.0026761414789407,-43.99742908809592,8.697499330085895,24.787791,59.49042,10.681649619837314,118.40052644141922,47.596805963882915,-2.1821248516893714,0.003964260711141514,0.07411951213668296
2025-09-06T14:49:05+03:00,,287.15,-89.00240445892939,9.992159999999998,166.7421775389722,138.70162304526968,0.3999818367808277,4.91832,4.704479999999999,-1.1000789666511805,-40.599789362970135,7.2020794847944485,24.787799,59.490364,11.059921915016904,115.4020814506883,51.340096088283886,-2.109801646054383,0.00337487323634621,0.07749438537302916
2025-09-06T14:49:07+03:00,,287.15,-87.00278175392282,9.992159999999998,161.59128696074606,138.19742018555456,-0.9999832398418258,4.859999999999999,4.7628,-0.8021409131831525,-42.10093878621289,7.797955591730505,24.787821,59.490319,10.880464316749729,113.49402939923155,48.09725756151451,-1.9374560246275714,0.002786916448252581,0.08028130182128174
2025-09-06T14:49:09+03:00,,287.15,-86.00010561244387,9.70056,161.71160809772354,136.99993839373113,-0.2000195662801704,4.93776,4.82112,-0.8021409131831525,-43.000482524568284,8.502693679741416,24.787846,59.490277,10.573550890319362,113.76562041337341,47.94598768435013,-1.989898586136298,0.002637276705409009,0.08291857852669074
2025-09-06T14:49:11+03:00,,287.15,-84.0004829074373,9.60336,162.59969268017633,137.20047362202695,0.3999818367808277,4.91832,4.91832,-1.1974817918234204,-42.7999472962725,7.901087994854052,24.787878,59.490235,10.321866442895951,112.28728277621475,50.31240990396158,-1.8652767603035374,0.002706803238319811,0.08562538176501056
2025-09-06T14:49:13+03:00,,287.15,-84.0004829074373,9.50616,166.91979445546272,140.39757811885693,2.000023775463165,5.09328,5.0544,-1.3980170201192088,-38.30222860449553,6.89841185337511,24.787905,59.490196,10.304725606044986,113.44359964563137,53.476194809831355,-2.0263418272962452,0.0024847804324674948,0.08811016219747805
2025-09-06T14:49:15+03:00,,287.15,-86.00010561244387,9.79776,168.5584537495369,146.2990434087044,3.0000070153049903,5.09328,5.151599999999999,-1.0026761414789407,-32.49816613982029,5.202456779787875,24.787928,59.490151,10.72267261660276,114.28421280858743,54.27424094094948,-2.094678714432061,0.0027944252638203077,0.09090458746129836
2025-09-06T14:49:17+03:00,,287.15,-89.00240445892939,9.29232,170.9992539567942,148.6023337451303,0.3999818367808277,4.74336,5.19048,-0.8995437383553924,-31.398087173169117,5.2998596049601145,24.787943,59.490107,10.359144792023738,116.2490377955226,54.75021616127161,-2.0978630380173247,0.0026840587906282088,0.09358864625192656
2025-09-06T14:49:19+03:00,,287.15,-87.99972831745043,9.29232,170.9992539567942,148.29866611371096,0.600001403060998,5.151599999999999,5.151599999999999,-1.3006141949469687,-31.501219576292662,6.697876625079324,24.78796,59.490061,10.466347977670774,117.46567273758671,53.53358121920749,-2.3760060182119784,0.0028132008711293155,0.09640184712305587
2025-09-06T14:49:27+03:00,,287.15,-89.99935102245702,9.097919999999998,170.9992539567942,149.10080702689413,0.9999832398418258,4.93776,5.1710400000000005,-1.1000789666511805,-30.49854343481372,5.700930061551691,24.787989,59.490018,10.351454220009854,118.48973357378566,52.50952038300855,-2.3553178579440894,0.0027319373289498242,0.0991337844520057
2025-09-06T14:49:29+03:00,,287.15,-91.00202716393596,9.195120000000001,173.9958232253284,151.30096496019647,1.1000216708716675,5.20992,5.20992,-0.8995437383553924,-28.20098267633912,5.597797658428142,24.78798,59.489969,10.64748946713801,120.29233234048587,53.70349088484252,-2.6279465557366324,0.0029580555295429726,0.10209183998154867
2025-09-06T14:49:31+03:00,,287.15,-93.00164986894255,8.70912,175.99544593033497,153.50112289349886,1.5000035076524951,5.326560000000001,5.2488,-1.0026761414789407,-26.00082474303676,5.202456779787875,24.787991,59.489922,10.444107141984615,123.61929983397994,52.37614609635503,-2.9491675743546657,0.0028449354859433635,0.10493677546749203
2025-09-06T14:49:33+03:00,,287.15,-95.99821913747672,8.39808,181.9943140453547,150.8024916784327,-1.4000223724021665,4.84056,5.20992,-1.3980170201192088,-29.702132099581874,5.597797658428142,24.787994,59.489877,10.12199162477571,124.39689591668207,57.59741812867264,-2.73454029263022,0.0027063960677641864,0.10764317153525621
2025-09-06T14:49:35+03:00,,287.15,-95.00127257394911,8.203679999999999,175.99544593033497,147.8975956571194,-0.9999832398418258,4.82112,5.20992,-1.1000789666511805,-32.69870136811608,6.89841185337511,24.788002,59.489834,9.871144534693997,124.11507752956086,51.8803684007741,-2.7039583276892034,0.002596135705350167,0.11023930724060638
2025-09-06T14:49:37+03:00,,287.15,-91.00202716393596,8.49528,169.99657781531528,147.7027900067749,0.300000701530499,4.97664,5.151599999999999,-0.6990085100596044,-32.10282526118002,5.397262430132355,24.788013,59.48979,9.920454782904153,121.10646239588644,48.89011541942884,-2.571081045536114,0.002665957023875671,0.11290526426448205
2025-09-06T14:49:39+03:00,,287.15,-91.00202716393596,8.90352,172.72958649808928,144.09888547540206,-2.499986747494321,4.5684000000000005,5.151599999999999,-1.3980170201192088,-37.299552463016596,7.0015442564986605,24.78801,59.489765,10.077974619154684,117.95352292541824,54.776063572671035,-2.1414611677969484,0.0015054790382782205,0.11441074330276027
2025-09-06T14:49:41+03:00,,287.15,-87.00278175392282,8.70912,164.99465626382317,141.19971903204006,-0.2000195662801704,4.49064,5.1127199999999995,-1.0026761414789407,-38.6975694831358,7.700552766558264,24.788039,59.489701,9.587739183354355,114.88998981620675,50.104666447616424,-1.8900086031829708,0.0039473746352489195,0.11835811793800918
2025-09-06T14:49:43+03:00,,287.15,-84.99742947096492,9.00072,164.99465626382317,142.09926277039548,0.6999825383113268,4.80168,5.151599999999999,-0.6990085100596044,-37.50008769131237,5.597797658428142,24.788064,59.48966,9.825056426164895,114.13158506334722,50.86307120047596,-1.9630881700890848,0.0025798015215069696,0.12093791945951615
2025-09-06T14:49:45+03:00,,287.15,-84.0004829074373,9.50616,167.99695511030868,141.30285143516363,-0.9999832398418258,4.7628,5.13216,-1.1974817918234204,-39.20177234285093,6.801009028202872,24.788082,59.489616,10.177762631546926,111.73648308300052,56.260472027308154,-1.7638472903280866,0.0027011795813144147,0.12363909904083056
2025-09-06T14:49:47+03:00,,287.15,-82.00086020243072,9.195120000000001,165.99733240530213,137.6015440786185,-1.5000035076524951,4.00464,5.0544,-1.3980170201192088,-43.000482524568284,7.797955591730505,24.788103,59.489573,9.504677038730259,106.66094837326455,59.336384032037586,-1.148160807401927,0.0026628936327326,0.12630199267356315
2025-09-06T14:49:49+03:00,,287.15,-80.99818406095179,9.097919999999998,161.99808699528896,136.39833270884378,0.09998113525032865,4.93776,4.996079999999999,-0.6990085100596044,-43.69949103462789,7.700552766558264,24.788184,59.489522,9.6486108103206,111.35977885170378,50.63830814358518,-1.7984462604250493,0.003937917487301093,0.13023991016086425
2025-09-06T14:49:51+03:00,,287.15,-78.99856135594521,9.70056,157.9988415852758,136.9025355685589,0.09998113525032865,5.1710400000000005,4.996079999999999,-1.1974817918234204,-42.89735012144474,6.89841185337511,24.788159,59.489485,10.084410284088307,109.22058053200797,48.77826105326784,-1.7023365858090935,0.002351200857654415,0.13259111101851867
2025-09-06T14:49:53+03:00,,287.15,-78.99856135594521,10.206,159.99846429028239,137.49841167549496,0.2000195662801704,5.19048,5.01552,-1.3006141949469687,-42.59941206797671,6.801009028202872,24.78819,59.489439,10.53019757532892,107.936060136633,52.06240415364938,-1.5984366563422028,0.002922313036336774,0.13551342405485545
2025-09-06T14:49:55+03:00,,287.15,-78.00161479241758,10.4004,158.99578814880346,137.6015440786185,0.5000202678106694,4.89888,5.0544,-0.6990085100596044,-42.19834161138514,6.697876625079324,24.788246,59.489411,10.534886033094518,105.05728602810197,53.938502120701486,-1.272653958498185,0.0023985349920817205,0.13791195904693718
2025-09-06T14:49:57+03:00,,287.15,-76.99893865093864,10.5948,158.99578814880346,138.1000173603823,0.2000195662801704,4.84056,5.01552,-1.501149423242757,-41.29879787302974,5.901465289847479,24.788282,59.489369,10.611589555584946,103.38803188053652,55.60775626826694,-1.1208060227546317,0.0027532045981273046,0.14066516364506448
2025-09-06T14:49:59+03:00,,287.15,-78.99856135594521,9.992159999999998,159.1791346432453,138.7990258704419,0.600001403060998,4.82112,5.1127199999999995,-1.1000789666511805,-41.201395047857496,6.801009028202872,24.788317,59.489322,10.232313900324652,106.54757572926314,52.63155891398216,-1.373109964046624,0.003020227853116085,0.14368539149818058
2025-09-06T14:50:01+03:00,,287.15,-80.00123749742416,10.303199999999999,161.99808699528896,138.70162304526968,0.09998113525032865,5.19048,5.151599999999999,-1.1000789666511805,-41.00085981956171,6.600473799907084,24.788339,59.48928,10.701699918721586,108.53313201375846,53.4649549815305,-1.6498095540406394,0.002612269963715963,0.14629766146189654
2025-09-06T14:50:03+03:00,,287.15,-80.00123749742416,10.4004,161.99808699528896,138.30055258867813,0.0,4.87944,5.1710400000000005,-1.3980170201192088,-41.9004035579171,6.801009028202872,24.788372,59.48924,10.693679157076007,106.70396893662956,55.29411805865939,-1.402482159203079,0.00260669343672506,0.1489043548986216
2025-09-06T14:50:05+03:00,,287.15,-80.99818406095179,9.992159999999998,157.9988415852758,138.39795541385035,0.0,5.1127199999999995,5.20992,-0.8021409131831525,-41.60246550444908,7.299482309966689,24.788396,59.489189,10.487916733522862,109.78045664821957,48.21838493705624,-1.730231211032803,0.0031517712927189357,0.15205612619134054
2025-09-06T14:50:07+03:00,,287.15,-82.00086020243072,10.206,161.99808699528896,138.00261453521009,-0.300000701530499,5.307119999999999,5.19048,-1.1000789666511805,-42.30147401450868,7.2020794847944485,24.788444,59.489143,10.828346857184705,111.0359298042392,50.962157191049755,-1.9050083497523005,0.003128998033976061,0.1551851242253166
2025-09-06T14:50:16+03:00,,287.15,-84.99742947096492,9.60336,169.54967073511324,147.10118432188756,1.200002806121996,5.1127199999999995,5.38488,-1.0026761414789407,-32.80183377123963,5.500394833255903,24.788638,59.488782,10.478619658877397,114.07941540996455,55.470255325148685,-2.086002445330445,0.0029046332972172814,0.15808975752253387
2025-09-06T14:50:21+03:00,,287.15,-86.00010561244387,9.097919999999998,170.9992539567942,148.69973657030255,0.300000701530499,5.151599999999999,5.26824,-1.1000789666511805,-31.70175480458845,5.2998596049601145,24.788665,59.488672,10.137676883054631,116.45939139895964,54.53986255783457,-2.29536447825694,0.002285927283528948,0.16037568480606282
2025-09-06T14:50:23+03:00,,287.15,-87.99972831745043,9.097919999999998,171.99620052032182,148.69973657030255,0.09998113525032865,4.89888,5.26824,-1.598552248414997,-31.002746294528848,5.700930061551691,24.788694,59.488622,10.181347487736815,116.7419049399521,55.25429558036973,-2.204360161958411,0.0031329807740563,0.16350866558011912
2025-09-06T14:50:25+03:00,,287.15,-87.00278175392282,9.195120000000001,170.9992539567942,149.39874508036215,0.3999818367808277,4.957199999999999,5.20992,-1.1000789666511805,-30.200605381345692,4.497718691776963,24.788705,59.488579,10.215543228398705,115.98883687872332,55.01041707807089,-2.1722253278467765,0.0026063402244441776,0.1661150058045633
2025-09-06T14:50:27+03:00,,287.15,-87.00278175392282,9.097919999999998,173.9958232253284,151.1004297319007,0.6999825383113268,5.01552,5.151599999999999,-0.8995437383553924,-28.498920729807146,5.001921551492087,24.788713,59.48853,10.156561961402998,116.55029454758011,57.445528677748285,-2.241853276378167,0.002955379288197137,0.16907038509276043
2025-09-06T14:50:29+03:00,,287.15,-87.00278175392282,8.80632,172.99887666180075,151.70203541678808,0.300000701530499,4.87944,5.13216,-1.1000789666511805,-28.097850273215574,4.60085109490051,24.788722,59.488484,9.842084673569135,116.67878582715505,56.3200908346457,-2.1908109370728384,0.002778562929735425,0.17184894802249584
2025-09-06T14:50:31+03:00,,287.15,-87.00278175392282,8.59248,172.99887666180075,153.5985257186711,0.9000021045914972,5.01552,5.0544,-0.6990085100596044,-26.098227568209,4.400315866604722,24.788735,59.488438,9.720052326441548,118.01971473534955,54.9791619264512,-2.3561676424395532,0.0027932718439968368,0.17464221986649267
2025-09-06T14:50:33+03:00,,287.15,-87.99972831745043,8.30088,177.99506863534154,150.69935927530912,-1.8000042091829944,5.07384,4.996079999999999,-0.8995437383553924,-30.60167583793727,6.399938571611295,24.788743,59.488387,9.576445802964392,119.97154928329857,58.02351935204297,-2.534737771568988,0.003075199953802502,0.17771741982029518
2025-09-06T14:50:35+03:00,,287.15,-86.00010561244387,7.698239999999999,174.99849936680735,146.40217581182796,-0.8000209693411684,4.80168,4.93776,-1.3006141949469687,-34.102447966186595,7.299482309966689,24.788755,59.488342,8.784198403920927,119.0449658128633,55.953533553944055,-2.3311958269274795,0.002729525279195321,0.1804469450994905
2025-09-06T14:50:37+03:00,,287.15,-87.00278175392282,8.30088,169.99657781531528,145.1989644420532,-0.300000701530499,4.74336,4.957199999999999,-1.1000789666511805,-35.09939452971423,5.798332886723932,24.78877,59.488302,9.342726182574507,117.46776619443466,52.52881162088062,-2.1878725245107113,0.0024474981099438017,0.1828944432094343
2025-09-06T14:50:39+03:00,,287.15,-89.00240445892939,8.70912,167.99695511030868,144.79789398546166,-0.3999818367808277,4.84056,4.87944,-0.6016056848873644,-35.50046498630581,6.600473799907084,24.788782,59.488264,9.889987220853145,118.30134226233216,49.69561284797652,-2.2949522660719195,0.0023132643955662865,0.18520770760500058
2025-09-06T14:50:41+03:00,,287.15,-89.99935102245702,8.00928,168.99963125178763,144.0014826502298,-0.300000701530499,4.62672,4.84056,-1.1974817918234204,-36.199473496365414,6.102000518143266,24.788799,59.488222,9.249554833050649,120.01324674723554,48.98638450455209,-2.314286320928293,0.002577280439554509,0.1877849880445551
2025-09-06T14:50:43+03:00,,287.15,-87.00278175392282,7.795439999999999,166.99427896882975,143.69781501881047,-0.2000195662801704,4.68504,4.82112,-1.0026761414789407,-35.901535442897384,4.898789148368539,24.788821,59.488176,8.882522384377724,118.78710713993942,48.207171828890324,-2.256111337668145,0.002845301005531262,0.19063028905008636
2025-09-06T14:50:45+03:00,,287.15,-80.00123749742416,7.60104,166.99427896882975,144.59735875716584,0.5000202678106694,4.78224,4.80168,-0.6016056848873644,-35.299929758010016,5.001921551492087,24.788843,59.48813,8.247602875544935,114.82311894506363,52.17116002376612,-2.007672048983624,0.002845301221378971,0.19347559027146533
2025-09-06T14:50:47+03:00,,287.15,-84.0004829074373,7.60104,165.9916028273508,143.4972797905147,-1.2999839413723246,4.58784,4.78224,-0.8995437383553924,-37.70062291960817,7.597420363434716,24.788858,59.488091,8.457798893746558,116.64790969236682,49.343693134983965,-2.0576765508574355,0.002388478083203451,0.19586406835466877
2025-09-06T14:50:49+03:00,,287.15,-82.00086020243072,7.795439999999999,166.99427896882975,140.90178097857205,0.2000195662801704,4.78224,4.74336,-1.1000789666511805,-39.402307571146714,7.901087994854052,24.788918,59.48805,8.559390138753464,115.59294759535781,51.40133137347193,-2.065806885660913,0.0030702032669931443,0.1989342716216619
2025-09-06T14:50:51+03:00,,287.15,-82.00086020243072,8.70912,163.32161950204113,142.90140368357862,1.1000216708716675,4.80168,4.74336,-0.8021409131831525,-36.30260589948897,5.2998596049601145,24.788905,59.488011,9.341635327912226,112.59858813220768,50.72303136983345,-1.8451539284932814,0.002377535227068244,0.20131180684873015
2025-09-06T14:50:53+03:00,,287.15,-82.00086020243072,8.90352,165.99733240530213,145.8005701269406,0.8000209693411684,4.91832,4.723920000000001,-0.6990085100596044,-33.90191273789081,5.798332886723932,24.788929,59.487968,9.55379304658818,112.65096344870905,53.34636895659308,-1.8941254343980924,0.002686405060483648,0.2039982119092138
2025-09-06T14:50:55+03:00,,287.15,-82.00086020243072,8.59248,167.99695511030868,147.59965760365137,0.9000021045914972,4.62672,4.68504,-0.8995437383553924,-32.10282526118002,5.202456779787875,24.788949,59.48793,9.174572448254212,111.96060491235153,56.03635019795715,-1.7302498397244968,0.0023642372715304417,0.20636244918074423
2025-09-06T14:50:57+03:00,,287.15,-82.99780676595836,8.00928,170.9992539567942,147.30171955018335,-0.2000195662801704,4.4712,4.68504,-1.0026761414789407,-33.00236899953541,5.500394833255903,24.788961,59.487888,8.683831276980559,113.73144459417999,57.267809362614216,-1.799435524012873,0.0025509478948357723,0.20891339707558
2025-09-06T14:50:59+03:00,,287.15,-78.00161479241758,7.40664,171.99620052032182,145.50263207347254,-0.600001403060998,4.62672,4.68504,-0.8021409131831525,-34.60092124795042,6.199403343315507,24.788987,59.487853,7.8750949789670965,113.07868552918023,58.91751499114159,-1.8136506843946292,0.002248429968890931,0.21116182704447092
2025-09-06T14:51:01+03:00,,287.15,-78.00161479241758,7.503839999999999,164.67952947650122,143.89835024710626,-0.300000701530499,4.374,4.64616,-1.0026761414789407,-35.901535442897384,5.998868115019719,24.788979,59.487804,7.860867007820951,110.97648636456559,53.70304311193563,-1.565825458219522,0.0029553797218293885,0.2141172067663003
2025-09-06T14:51:03+03:00,,287.15,-76.001992087411,8.203679999999999,167.99695511030868,144.59735875716584,0.8000209693411684,4.6655999999999995,4.64616,-1.1000789666511805,-34.60092124795042,5.798332886723932,24.788997,59.487761,8.399500403041742,108.6153171313758,59.38163797893287,-1.4893186283578337,0.002642362336922488,0.2167595691032228
2025-09-06T14:51:05+03:00,,287.15,-80.99818406095179,9.097919999999998,167.99695511030868,146.09850818040863,0.5000202678106694,4.548959999999999,4.64616,-1.0026761414789407,-33.598245106471474,6.697876625079324,24.789016,59.487718,9.513893923052523,109.17860361313366,58.818351497175016,-1.4943968560231955,0.002648875138942496,0.2194084442421653
2025-09-06T14:51:07+03:00,,287.15,-84.0004829074373,9.408959999999999,171.6295075314381,144.70049116028943,-0.8000209693411684,4.41288,4.60728,-1.1974817918234204,-36.199473496365414,8.19902604832208,24.789033,59.487679,9.966070581349097,110.12766118475162,61.50184634668648,-1.5185295045911014,0.0024009246791783716,0.22180936892134367
2025-09-06T14:51:09+03:00,,287.15,-84.99742947096492,10.1088,167.05730432629414,141.60078948863168,-0.3999818367808277,4.510079999999999,4.58784,-0.8995437383553924,-38.80070188625935,7.500017538262475,24.78905,59.487637,10.70408624093072,109.81540846661296,57.24189585968118,-1.5288762479568931,0.0025772822489139903,0.22438665117025766
2025-09-06T14:51:11+03:00,,287.15,-82.99780676595836,10.692,165.99733240530213,141.30285143516363,-0.300000701530499,4.7628,4.6655999999999995,-0.6990085100596044,-38.39963142966778,6.302535746439056,24.78907,59.487594,11.16186113897475,108.05485613969387,57.94247626560826,-1.4761222844231467,0.002655723055293233,0.2270423742255509
2025-09-06T14:51:13+03:00,,287.15,-82.00086020243072,10.808639999999999,166.99427896882975,141.40025426033588,0.09998113525032865,5.07384,4.62672,-0.8995437383553924,-38.80070188625935,7.700552766558264,24.789091,59.487549,11.283054167018713,108.44412222015293,58.55015674867681,-1.6052597326779408,0.0027797353701860448,0.22982210959573696
2025-09-06T14:51:15+03:00,,287.15,-82.00086020243072,10.206,164.99465626382317,140.20277246851245,-0.600001403060998,4.62672,4.62672,-0.8995437383553924,-39.79764844978698,6.89841185337511,24.789107,59.48751,10.6031497995438,107.60225526611825,57.392400997704925,-1.399154411231761,0.0023945160313122507,0.2322166256270492
2025-09-06T14:51:17+03:00,,287.15,-82.00086020243072,10.303199999999999,163.9977097002955,140.00223724021666,0.0,4.996079999999999,4.704479999999999,-0.6990085100596044,-39.998183678082775,7.597420363434716,24.789128,59.487464,10.806953098346815,109.24636972927375,54.75133997102175,-1.6468619819268469,0.0028382579347779064,0.2350548835618271
2025-09-06T14:51:19+03:00,,287.15,-82.00086020243072,10.303199999999999,164.37013226713057,140.3001752936847,0.0,4.82112,4.723920000000001,-1.0026761414789407,-39.998183678082775,7.299482309966689,24.78915,59.48742,10.750549964793825,108.36598932910866,56.004142938021914,-1.5190661160075318,0.002728631389174307,0.23778351495100142
2025-09-06T14:51:21+03:00,,287.15,-82.00086020243072,10.4004,164.99465626382317,139.2000963270335,-0.6999825383113268,4.5684000000000005,4.78224,-1.0026761414789407,-41.29879787302974,7.797955591730505,24.789172,59.487379,10.761732958037852,106.85904721824159,58.13560904558159,-1.324919265852027,0.0025542379130251277,0.24033775286402653
2025-09-06T14:51:23+03:00,,287.15,-80.00123749742416,10.4004,162.99503355881663,135.80245660190772,-1.200002806121996,4.859999999999999,4.80168,-1.1974817918234204,-44.90270240440262,9.29910501497326,24.789202,59.487334,10.688107797377809,106.6041542855446,56.390879273272034,-1.388783154659593,0.0028555969678729512,0.2431933498318995
2025-09-06T14:51:27+03:00,,287.15,-74.99931594593207,10.4976,157.9988415852758,132.70275493024997,0.600001403060998,5.0544,4.957199999999999,-0.8995437383553924,-46.90232510940919,9.700175471564837,24.789317,59.48724,10.405765035548356,102.98029190849881,55.018549676777,-1.135298533761078,0.002008714263670869,0.24520206409557035
2025-09-06T14:51:29+03:00,,287.15,-72.9996932409255,9.89496,155.99921888026924,136.197797480548,2.6000251785241626,4.87944,4.97664,-1.0026761414789407,-43.000482524568284,8.30215845144563,24.789332,59.487217,9.668824755836592,101.85537645664957,54.143842423619674,-1.0024420733955723,0.0014562981939381895,0.24665836228950855
2025-09-06T14:51:31+03:00,,287.15,-74.99931594593207,10.206,164.99465626382317,143.19934173704664,3.2000265815851607,4.80168,4.97664,-1.0026761414789407,-35.7010002146016,6.697876625079324,24.789314,59.48716,10.092080667308322,102.35889953081835,62.635756733004825,-1.0277259814744915,0.003469899413330886,0.2501282617028394
2025-09-06T14:51:33+03:00,,287.15,-78.00161479241758,9.992159999999998,167.06876348219677,143.69781501881047,0.0,5.09328,5.07384,-1.0026761414789407,-36.60054395295699,8.600096504913656,24.789368,59.487122,10.2286423273106,107.14944212548089,59.919321356715884,-1.5018299872906065,0.0028165580788377287,0.25294481978167715
2025-09-06T14:51:35+03:00,,287.15,-80.00123749742416,9.50616,169.99657781531528,140.7986485754485,-0.8000209693411684,4.957199999999999,5.07384,-1.3980170201192088,-39.70024562461474,8.30215845144563,24.789353,59.487068,9.928592202506364,109.45374108820612,60.54283672710916,-1.6509740932754946,0.003277939607440374,0.25622275938911754
2025-09-06T14:51:37+03:00,,287.15,-78.99856135594521,9.195120000000001,161.99808699528896,140.59811334715272,-0.300000701530499,4.84056,5.09328,-1.0026761414789407,-39.602842799442506,5.700930061551691,24.789447,59.487022,9.539047194563503,108.87434172246334,53.123745272825616,-1.565890705328292,0.003984311383879916,0.26020707077299743
2025-09-06T14:51:39+03:00,,287.15,-80.99818406095179,9.29232,157.50036830351198,135.69932419878415,-3.50002728311566,5.03496,5.1127199999999995,-1.0026761414789407,-45.80224614275801,6.399938571611295,24.789473,59.486997,9.85175489265797,111.31478174875224,46.18558655475974,-1.8301655936996826,0.0016993254226223805,0.2619063961956198
2025-09-06T14:51:41+03:00,,287.15,-74.99931594593207,8.49528,148.95756757811142,129.0988503988771,-2.499986747494321,4.957199999999999,5.13216,-1.1974817918234204,-51.89851708294997,8.697499330085895,24.789528,59.486942,8.656988645367234,108.57999193801311,40.377575640098314,-1.5795043223403191,0.0037076411980516187,0.2656140373936714
2025-09-06T14:51:43+03:00,,287.15,-67.00082512590576,8.59248,150.99729732877717,127.00182486869828,-0.6999825383113268,4.60728,5.01552,-1.1000789666511805,-52.90119322442891,7.500017538262475,24.789476,59.486906,8.007639701185779,98.9809744672353,52.016322861541866,-0.7192262927552159,0.0026834424678093853,0.2682974798614808
2025-09-06T14:51:45+03:00,,287.15,-63.001579715892625,10.90584,149.99462118729824,124.89906976056815,-1.899985344433323,4.64616,4.957199999999999,-1.1974817918234204,-55.59982443949509,7.402614713090236,24.789528,59.486864,9.722087694568462,88.2038816238091,61.79073956348914,0.14562480344126294,0.0029818994079140212,0.2712793792693948
2025-09-06T14:51:47+03:00,,287.15,-59.00233430587948,11.702879999999999,140.5923837692014,120.49875389396342,-2.400005612243992,4.7628,4.996079999999999,-1.3006141949469687,-60.60174599098718,11.499262948275621,24.789648,59.486853,10.110918927072387,82.81721533515108,57.77516843405033,0.5955173308889457,0.003721468580806268,0.27500084785020107
2025-09-06T14:51:49+03:00,,287.15,-56.00003545939396,11.508479999999999,137.56143703295936,116.09843802735871,-1.200002806121996,4.89888,4.97664,-1.598552248414997,-64.49785899787676,13.298350424986406,24.78968,59.486828,9.66390702878598,80.851063167906,56.710373865053356,0.7789286232854093,0.0017921609327865762,0.2767930087829876
2025-09-06T14:51:53+03:00,,287.15,-59.999280869407116,12.30552,136.99993839373113,125.39754304233199,4.800011224487984,5.20992,5.03496,-1.1974817918234204,-52.79806082130536,11.201324894807593,24.789753,59.486722,10.698454112601032,84.94332376696308,52.05661462676805,0.45920819779920724,0.0029551097152359794,0.2797481184982236
2025-09-06T14:51:55+03:00,,287.15,-65.0012024208992,13.10256,146.99805191876402,130.80053505041565,2.1000049107134933,4.996079999999999,5.19048,-0.6990085100596044,-48.09980690123261,6.302535746439056,24.789804,59.486686,11.887387679072436,87.39129356316764,59.606758355596384,0.22739551786279122,0.0026655133081919156,0.28241363180641554
2025-09-06T14:51:57+03:00,,287.15,-69.00044783091235,13.9968,151.9999734702561,135.00031568872456,0.3999818367808277,5.0544,5.22936,-1.0026761414789407,-44.70216717610683,5.202456779787875,24.789872,59.486665,13.067234428301502,90.16880038807385,61.83117308218225,-0.014890860278178618,0.0024290217572293395,0.2848426535636449
2025-09-06T14:51:59+03:00,,287.15,-69.99739439443997,12.091679999999998,159.07027266217045,135.0977185138968,0.9999832398418258,5.42376,5.28768,-1.3980170201192088,-45.29804328304288,10.399183981624443,24.789922,59.486608,11.435003683575694,96.46553740584133,62.60473525632912,-0.6107456081825251,0.003750595326781696,0.2885932488904266
2025-09-06T14:52:01+03:00,,287.15,-72.00274667739787,11.508479999999999,155.99921888026924,133.9002367220734,0.3999818367808277,5.52096,5.26824,-1.3980170201192088,-46.30071942452182,9.001166961505232,24.789923,59.486546,11.120402388988795,100.17861676548164,55.820602114787604,-0.9756497986850675,0.0037268033815351727,0.2923200522719618
2025-09-06T14:52:03+03:00,,287.15,-72.9996932409255,11.99448,157.9988415852758,133.69970149377758,0.0,4.996079999999999,5.3654399999999995,-1.501149423242757,-46.501254652817614,9.499640243269049,24.789966,59.486499,11.566623544847594,97.39721193427805,60.601629650997765,-0.643232014361319,0.003114991548406935,0.2954350438203687
2025-09-06T14:52:05+03:00,,287.15,-74.00236938240442,12.091679999999998,157.9988415852758,133.80283389690115,0.300000701530499,5.46264,5.46264,-1.598552248414997,-46.799192706285645,10.3017811564522,24.79,59.486456,11.816993795353264,100.3852527480798,57.61358883719602,-0.9847281512396637,0.0027851471247328273,0.29822019094510155
2025-09-06T14:52:07+03:00,,287.15,-74.99931594593207,12.091679999999998,157.9988415852758,132.5022197019542,-0.600001403060998,5.38488,5.5598399999999994,-1.3980170201192088,-47.80186884776458,10.800254438216017,24.790039,59.486404,11.895359494454778,100.9285748833428,57.07026670193301,-1.0208932695828847,0.0033445595909281467,0.3015647505360297
2025-09-06T14:52:09+03:00,,287.15,-72.00274667739787,11.99448,155.99921888026924,133.60229866860536,1.200002806121996,5.326560000000001,5.69592,-1.501149423242757,-45.899648967930254,10.89765726338826,24.790078,59.48635,11.522145980885472,98.08555545263401,57.91366342763523,-0.7491893869716663,0.003457170241299182,0.30502192077732887
2025-09-06T14:52:11+03:00,,287.15,-72.9996932409255,12.091679999999998,160.53131503975405,134.30130717866496,0.2000195662801704,5.890319999999999,5.773680000000001,-1.598552248414997,-45.899648967930254,10.599719209920229,24.790163,59.486352,11.80068558209687,101.51146895244547,59.01984608730858,-1.1754963088584913,0.0025969252024667694,0.30761884597979566
2025-09-06T14:52:15+03:00,,287.15,-72.9996932409255,11.80008,159.99846429028239,132.70275493024997,0.3999818367808277,6.045839999999999,5.851439999999999,-1.3006141949469687,-46.99972793458143,11.201324894807593,24.790249,59.486258,11.579159202539264,102.95443120153843,57.04403308874396,-1.355332480879382,0.0030694671302831425,0.31068831311007883
2025-09-06T14:52:17+03:00,,287.15,-72.9996932409255,11.508479999999999,162.31894336056223,135.4987889704884,1.5999846429028237,6.1236,5.890319999999999,-1.701684651538545,-43.80262343775143,11.298727719979832,24.790283,59.486213,11.346102989911477,104.07243822510851,58.24650513545372,-1.4889437429450743,0.002897056601175188,0.313585369711254
2025-09-06T14:52:21+03:00,,287.15,-76.99893865093864,11.508479999999999,164.99465626382317,132.89756058059447,-7.899999375043304,6.27912,6.0652800000000004,-1.1000789666511805,-50.50050006283075,9.40223741809681,24.790347,59.486095,11.805020885538973,108.21505890032353,56.77959736349965,-1.9627561281479093,0.002078807543313729,0.31566417725456775
2025-09-06T14:52:25+03:00,,287.15,-59.999280869407116,11.29464,143.9957530722785,124.2974640756808,3.399988852085818,5.50152,6.08472,-1.598552248414997,-53.60020173448851,10.101245928156414,24.790473,59.485985,9.782462694108414,89.14530020554636,54.85045286673213,0.08206492106247056,0.003400214953890074,0.31906439220845784
2025-09-06T14:52:29+03:00,,287.15,-71.00007053591892,11.80008,159.99846429028239,135.4987889704884,0.0,5.94864,6.0264,-1.1974817918234204,-44.70216717610683,8.19902604832208,24.790499,59.485845,11.354392479874647,100.69379567979578,59.3046686104866,-1.1038308951651932,0.003378234635735827,0.32244262684419367
2025-09-06T14:52:31+03:00,,287.15,-72.00274667739787,10.90584,158.99578814880346,136.197797480548,1.5999846429028237,5.443199999999999,6.0652800000000004,-1.902219879834333,-43.40155298115986,10.599719209920229,24.790532,59.4858,10.577477897973544,101.30547594830757,57.69031220049588,-1.0670841874717423,0.0028862701961552737,0.32532889704034895
2025-09-06T14:52:33+03:00,,287.15,-72.9996932409255,10.692,157.9988415852758,139.60116678362508,2.3000244769936637,5.81256,6.10416,-1.3006141949469687,-39.402307571146714,6.801009028202872,24.79058,59.485746,10.571826302999277,104.72119226275149,53.277649322524326,-1.477062724986653,0.003561096741394444,0.3288899937817434
2025-09-06T14:52:35+03:00,,287.15,-74.99931594593207,11.508479999999999,164.99465626382317,136.39833270884378,-3.6999895536163168,5.87088,5.98752,-1.0026761414789407,-45.20064045787065,6.89841185337511,24.790606,59.485695,11.486366576251509,104.58336377440145,60.411292489421726,-1.478219285558881,0.003166531162313751,0.33205652494405713
2025-09-06T14:52:37+03:00,,287.15,-69.00044783091235,10.4976,160.99541085381,131.2016055070072,0.09998113525032865,5.404319999999999,5.94864,-1.7990874767107847,-48.90194781441576,12.89727996839483,24.790644,59.485646,9.937050270751923,99.51348626625341,61.48192458755659,-0.893224674433875,0.003165390914822021,0.33522191585887917
2025-09-06T14:52:39+03:00,,287.15,-67.9977716894334,10.4004,152.99692003378374,130.3020617686518,0.3999818367808277,5.6181600000000005,5.832,-1.3980170201192088,-49.801491552771154,10.89765726338826,24.790748,59.485644,9.795431022291615,100.12337327933744,52.873546754446295,-0.9874946030474441,0.003176350175240611,0.33839826603411977
2025-09-06T14:52:43+03:00,,287.15,-67.00082512590576,11.508479999999999,153.99959617526267,126.30281635863868,-2.199986045963822,5.890319999999999,5.851439999999999,-1.3980170201192088,-54.201807419375875,11.201324894807593,24.790788,59.485502,10.684967157036063,97.49504096200856,56.50455521325411,-0.7683355829562479,0.003370612418410259,0.34176887845253
2025-09-06T14:52:45+03:00,,287.15,-63.99852627942025,11.197439999999999,148.99767462377056,122.40097377379776,-1.4000223724021665,5.94864,5.81256,-1.501149423242757,-58.000517601093236,12.79987714322259,24.790837,59.485458,10.117633133655374,95.89845914637365,53.09921547739691,-0.6113166666467154,0.0030382760932262582,0.3448071545457563
2025-09-06T14:52:47+03:00,,287.15,-63.99852627942025,11.10024,143.9957530722785,124.69853453227238,1.4000223724021665,6.045839999999999,5.832,-1.3006141949469687,-54.7002807011397,12.100868633162985,24.7909,59.485411,10.04619281255181,96.74285047661186,47.252902595666626,-0.7098631064072095,0.003417311561035647,0.3482244661067919
2025-09-06T14:52:49+03:00,,287.15,-65.99814898442683,11.508479999999999,146.99805191876402,128.49724471398974,1.8000042091829944,5.7348,5.90976,-1.501149423242757,-50.70103529112655,8.898034558381685,24.790971,59.485377,10.566023910298535,95.72247986620718,51.27557205255684,-0.5718177672692285,0.0029786157075559253,0.35120308181434784
2025-09-06T14:52:51+03:00,,287.15,-69.99739439443997,12.20832,149.99462118729824,135.20085091702038,3.099988150555319,6.045839999999999,5.98752,-1.3006141949469687,-43.20101775286407,6.697876625079324,24.791008,59.485321,11.623263092981283,99.25736079851742,50.73726038878081,-0.9725904348458521,0.0035504046403926405,0.3547534864547405
2025-09-06T14:52:53+03:00,,287.15,-74.99931594593207,11.99448,156.99616544379688,141.80132471692744,2.9000258800546614,6.4152,6.08472,-1.0026761414789407,-37.001614409548566,6.801009028202872,24.79105,59.485268,12.049476121993612,105.94745389019738,51.0487115535995,-1.7626125382564055,0.0034339312459840616,0.35818741770072454
2025-09-06T14:52:55+03:00,,287.15,-76.99893865093864,11.29464,163.9977097002955,141.80132471692744,-1.1000216708716675,6.14304,6.10416,-1.3006141949469687,-39.49971039631895,8.399561276617868,24.791095,59.485236,11.57961912947994,108.12384440522104,55.87386529507447,-1.910927570283799,0.0023634536067145334,0.36055087130743907
2025-09-06T14:52:59+03:00,,287.15,-76.99893865093864,9.89496,168.82774391324838,144.99842921375745,8.899982614885129,5.42376,6.045839999999999,-1.501149423242757,-30.40114060964148,7.797955591730505,24.791152,59.485114,10.157764149608429,108.34895175357556,60.47879215967282,-1.7074186378115204,0.003047497732600299,0.3635983690400394
2025-09-06T14:53:01+03:00,,287.15,-87.99972831745043,10.90584,164.99465626382317,176.29911356175433,13.399993137842614,5.42376,5.98752,-1.0026761414789407,3.5981749534215695,-0.6016056848873644,24.791174,59.485107,12.009383897124842,114.83016508389387,50.1644911799293,-2.2775992710841044,0.0007923877289552042,0.3643907567689946
2025-09-06T14:53:03+03:00,,287.15,-106.00206224046092,10.303199999999999,188.99585830185336,210.49896435311317,13.900013405653285,5.52096,5.81256,0.0,36.801079181252774,-5.397262430132355,24.791103,59.485054,12.961455594997165,130.17218007663453,58.82367822521883,-3.561498149109061,0.003852846289098406,0.368243603058093
2025-09-06T14:53:05+03:00,,287.15,-144.99756977706474,8.00928,217.99898189137562,237.59986806280105,13.499974273092944,5.443199999999999,5.598719999999999,-0.20053522829578813,62.60136869599375,-6.302535746439056,24.791034,59.485029,12.852959232970115,159.056696839249,58.94228505212661,-5.0835927663560305,0.002587075489654978,0.370830678547748
2025-09-06T14:53:09+03:00,,287.15,121.9999033172062,5.69592,305.34066818111836,289.20044709228307,13.199973571562445,4.49064,4.91832,0.49847328176381617,113.49720963746478,-11.201324894807593,24.79096,59.484951,8.928503493761685,147.24750686271992,92.5881750438383,-3.7766977214286293,0.0024534552151336494,0.3732841337628816
2025-09-06T14:53:11+03:00,,287.15,90.99715702267736,8.203679999999999,295.9957265425346,310.3998855121235,10.399986122537625,4.43232,4.64616,0.40107045659157625,134.1007719503692,-11.298727719979832,24.790885,59.484974,9.392092621755664,119.15153809684303,55.147264639377624,-2.1590768154102795,0.0026741276109796077,0.37595826137386124
2025-09-06T14:53:15+03:00,,287.15,60.0001403060998,11.10024,341.9985079135884,331.59932393196397,-1.7000230739326654,4.87944,4.548959999999999,0.0,151.5015001884923,-7.098947081670899,24.790801,59.485061,9.636469137362067,86.00923621912342,68.00774413271182,0.3395878622852107,0.0016123799399512006,0.37757064131381246
2025-09-06T14:53:19+03:00,,287.15,54.99821875460771,11.39184,333.04890715364496,327.697481347123,-0.09998113525032865,4.89888,4.78224,0.0,147.30171955018335,-9.499640243269049,24.790676,59.485196,9.473687039307839,80.05887263647092,53.1077797901159,0.8457239059071475,0.0031022786991637187,0.3806729200129762
2025-09-06T14:53:21+03:00,,287.15,56.00089489608667,11.80008,331.99466481060426,328.700157488602,1.2999839413723246,5.46264,4.84056,0.09740282517223994,149.5018774834857,-8.502693679741416,24.79069,59.485184,9.848517839834512,83.37793435176206,55.37259916236633,0.6299500491877993,0.0008383528447255463,0.38151127285770176
2025-09-06T14:53:23+03:00,,287.15,56.00089489608667,12.091679999999998,335.9996397985687,329.8002364552531,0.09998113525032865,5.57928,4.93776,0.09740282517223994,149.70241271178148,-8.600096504913656,24.790649,59.485229,10.09402413071932,83.27446455743343,59.27410435600211,0.6534082235999179,0.0029802744045061627,0.3844915472622079
2025-09-06T14:53:25+03:00,,287.15,54.00127219108009,12.49992,334.99696365708974,330.7971830187808,0.2000195662801704,5.22936,4.97664,-0.20053522829578813,151.1004297319007,-10.399183981624443,24.790614,59.485275,10.332159941946339,78.17281651495458,53.169780172044284,1.0718119471284149,0.0029641271437891932,0.3874556744059971
2025-09-06T14:53:29+03:00,,287.15,54.00127219108009,13.10256,338.9962090671029,330.29870973701696,0.600001403060998,5.7153599999999996,5.2488,-0.6016056848873644,150.8024916784327,-8.30215845144563,24.790555,59.485373,10.78478166604738,79.38907646045838,58.38528552756128,1.0524192210192402,0.0009620916512435311,0.38841776605724065
2025-09-06T14:53:33+03:00,,287.15,52.00164948607352,13.10256,336.99658636209637,329.8976392804254,3.099988150555319,5.5404,5.42376,0.0,150.29828881871757,-11.098192491684046,24.790432,59.485518,10.629696897509707,76.25269034413056,53.24927670622691,1.316622220301975,0.003868451644946424,0.3922862177021871
2025-09-06T14:53:35+03:00,,287.15,48.999350639587995,13.39416,340.99583177210945,333.39841140867475,1.899985344433323,6.006959999999999,5.48208,-0.40107045659157625,153.70165812179465,-13.00041237151838,24.790412,59.485575,10.484039243909406,74.62032984993168,55.61616162204115,1.5931299959399576,0.00348008953960264,0.39576630724178974
2025-09-06T14:53:37+03:00,,287.15,46.00278137105379,13.608,343.998130618595,334.0974199187343,-0.600001403060998,6.24024,5.5598399999999994,-0.40107045659157625,153.3005876652031,-14.301026566465348,24.790384,59.485625,10.302782244133724,71.83349808813182,55.831628706726804,1.9455786710036271,0.003124518542787583,0.3988908257845773
2025-09-06T14:53:39+03:00,,287.15,45.00010522957485,13.8996,343.998130618595,334.2005523218579,2.9000258800546614,5.90976,5.65704,-0.40107045659157625,154.6986046853223,-14.301026566465348,24.790365,59.485687,10.580935106062471,68.26236402933316,52.26049464792811,2.188720974063842,0.0037715237563631997,0.4026623495409405
2025-09-06T14:53:41+03:00,,287.15,46.00278137105379,14.59944,355.9958668486344,338.60086818846264,2.1000049107134933,6.201359999999999,5.7348,-0.40107045659157625,159.99846429028239,-9.998113525032863,24.790376,59.485673,11.217090728933481,69.43757267785757,65.43343952649201,2.1780896323159404,0.0009060038932796376,0.40356835343422015
2025-09-06T14:53:45+03:00,,287.15,35.99893826806962,14.40504,1.9996227050065731,348.30104366002746,1.899985344433323,6.045839999999999,5.7348,-0.09740282517223994,168.7016931983196,-13.200947599814167,24.790395,59.485833,10.155784754326284,56.480473508719854,58.480096213726426,3.338640674267246,0.0016219337128914476,0.4051902871471116
2025-09-06T14:53:47+03:00,,287.15,33.99931556306306,15.10488,5.500394833255903,351.1028072782172,-0.9999832398418258,5.81256,5.773680000000001,-0.49847328176381617,171.40032441338573,-10.702851613043778,24.790395,59.485884,10.787324214660492,51.53537266864609,57.035767501901994,3.6155945995665264,0.003065493536849512,0.4082557806839611
2025-09-06T14:53:49+03:00,,287.15,35.00199170454199,15.10488,5.998868115019719,350.39806919020623,-2.3000244769936637,5.69592,5.81256,-0.49847328176381617,169.29756930525565,-12.301403861458775,24.790405,59.485884,10.938505231834412,52.38085091263136,58.37971902765108,3.476846097754037,0.00030519730732707324,0.4085609779912882
2025-09-06T14:53:53+03:00,,287.15,28.997394011570965,15.901919999999999,17.996604345059158,359.5997713800073,5.700013329079481,5.5598399999999994,5.754239999999999,0.09740282517223994,-177.10125447493746,-11.699798176571411,24.790428,59.485992,11.363318068541332,42.718027373331694,60.71463171839085,4.084821034402271,0.0009922321900808669,0.4095532101813691
2025-09-06T14:53:55+03:00,,287.15,26.00082474303676,15.610319999999998,31.999692858056477,13.097815196690618,-4.800011224487984,5.19048,5.754239999999999,-0.29793805346802804,-166.50153526501725,-5.700930061551691,24.790475,59.486032,11.179200502485388,37.74491907572883,69.74461193378531,4.104340197531507,0.0027996903976221146,0.4123529005789912
2025-09-06T14:53:57+03:00,,287.15,28.000447448043335,14.40504,16.99965778153153,11.201324894807593,0.3999818367808277,5.151599999999999,5.67648,-0.49847328176381617,-169.4007017083792,-7.098947081670899,24.790507,59.486075,10.14886107396293,41.78720678283719,58.78686456436871,3.841160755615482,0.002762991287835745,0.41511589186682696
2025-09-06T14:53:59+03:00,,287.15,24.99814860155782,14.094,18.999280486538098,13.401482828109954,0.8000209693411684,4.996079999999999,5.48208,-0.6016056848873644,-165.29832389524248,-9.001166961505232,24.790536,59.486118,9.796165219450593,37.44429756471365,56.44357805125175,3.9666117243776475,0.002731970807550696,0.4178478626743777
2025-09-06T14:54:01+03:00,,287.15,28.000447448043335,14.40504,26.997771306564392,13.401482828109954,-3.399988852085818,4.68504,5.326560000000001,-0.6990085100596044,-166.90260572160878,-5.001921551492087,24.790573,59.486155,10.501342996388244,40.090676621565905,67.0884479281303,3.5841783711901396,0.002494243962735387,0.4203421066371131
2025-09-06T14:54:03+03:00,,287.15,31.002746294528848,14.094,15.996981640052585,9.700175471564837,-0.6999825383113268,4.957199999999999,5.22936,-0.20053522829578813,-170.90185113162195,-6.302535746439056,24.7906,59.486201,10.170697350095676,45.542382382884284,61.539364022936866,3.47193103588381,0.0028851332760254753,0.42322723991313854
2025-09-06T14:54:05+03:00,,287.15,28.997394011570965,13.5108,10.995060088560496,6.102000518143266,-1.2999839413723246,4.97664,5.151599999999999,-0.49847328176381617,-174.59742891021577,-9.29910501497326,24.790615,59.486242,9.470462460446143,43.75569465369409,54.750754742254585,3.5946033269252293,0.00250657555452978,0.4257338154676683
2025-09-06T14:54:09+03:00,,287.15,30.0000701530499,13.608,6.995814678547352,352.9018947549279,-0.300000701530499,4.84056,5.09328,-0.40107045659157625,171.29719201026222,-19.297218540006124,24.790577,59.4864,9.722036275504303,44.415361324545586,51.41117600309294,3.4575397395691763,0.00288662276920404,0.42862043823687235
2025-09-06T14:54:11+03:00,,287.15,33.00236899953541,13.802399999999999,9.998113525032863,346.7998942367847,-0.9000021045914972,5.01552,5.07384,-0.20053522829578813,165.80252675495763,-19.801421399721253,24.790658,59.48638,9.977415967645614,48.89291599679507,58.89102952182793,3.297545963381222,0.0027488654650612296,0.4313693037019336
2025-09-06T14:54:15+03:00,,287.15,33.00236899953541,14.79384,9.998113525032863,345.60241244496126,-2.199986045963822,5.20992,5.1710400000000005,-0.6016056848873644,164.7998506134787,-18.59821002994652,24.790608,59.486558,10.803880623388714,48.23010047839395,58.228214003426814,3.470539967482747,0.002937003171986162,0.43430630687391975
2025-09-06T14:54:17+03:00,,287.15,35.00199170454199,14.91048,12.181082724481302,345.00080676007383,3.399988852085818,5.3654399999999995,5.26824,-0.29793805346802804,165.69939435183406,-18.099736748182707,24.790625,59.486608,10.956601520843895,51.31555549873991,63.49663822322121,3.353564990496304,0.003049839828548374,0.43735614670246814
2025-09-06T14:54:19+03:00,,287.15,33.00236899953541,15.396479999999999,10.995060088560496,352.9018947549279,5.1000119260184835,5.50152,5.2488,-0.20053522829578813,175.69750787686695,-16.002711218003892,24.790705,59.486561,11.191271537592062,48.533165375192766,59.52822546375326,3.6430317671224217,0.0037339037408274716,0.44109005044329563
2025-09-06T14:54:23+03:00,,287.15,30.0000701530499,14.502239999999999,28.997394011570965,10.89765726338826,0.5000202678106694,4.89888,5.19048,-0.8021409131831525,-167.69901705684066,-7.299482309966689,24.790784,59.486648,10.548032482052573,43.427772301710235,72.4251663132812,3.557770164647742,0.003097702115788522,0.44418775255908416
2025-09-06T14:54:27+03:00,,287.15,26.00082474303676,13.10256,5.328507494716655,8.30215845144563,-4.599991658207815,4.859999999999999,5.07384,-0.40107045659157625,-174.2020880315755,-9.20170218980102,24.790852,59.48673,8.99054357800338,39.70897821520734,45.03748570992399,3.7387953321367537,0.0021775890710053498,0.4463653416300895
2025-09-06T14:54:29+03:00,,287.15,28.997394011570965,12.79152,2.9965692685342056,355.89846402346217,-1.200002806121996,4.87944,5.07384,-0.40107045659157625,173.69788517186038,-14.197894163341799,24.79086,59.486772,8.845880020055613,44.50711856781362,47.50368783634782,3.4798378300406707,0.002536302795427771,0.4489016444255173
2025-09-06T14:54:31+03:00,,287.15,33.00236899953541,13.00536,0.37242256683503505,348.19791125690386,-0.600001403060998,4.91832,5.07384,-0.29793805346802804,166.90260572160878,-15.899578814880346,24.790859,59.486821,9.275872841709258,49.788544986092205,50.16096755292724,3.175318438323144,0.0029454362181837593,0.45184708064370105
2025-09-06T14:54:35+03:00,,287.15,37.001614409548566,13.802399999999999,1.9996227050065731,347.4989027468443,4.099971390397145,4.996079999999999,5.151599999999999,-0.49847328176381617,169.69863976184723,-15.20057030482074,24.79087,59.486913,10.26279460951208,54.03826675209949,56.03788945710606,2.9339219719331786,0.0005028811183490787,0.4523499617620501
2025-09-06T14:54:39+03:00,,287.15,41.00085981956171,13.7052,355.9958668486344,341.4026318066523,0.9999832398418258,5.38488,5.151599999999999,0.20053522829578813,160.10159669340592,-14.197894163341799,24.790838,59.487048,10.268128586307764,61.125331468907476,57.12119831754188,2.600333123596548,0.002394517508677634,0.45474447927072775
2025-09-06T14:54:41+03:00,,287.15,37.001614409548566,14.094,20.87285247661589,347.2009646933763,10.300004987287297,4.89888,5.1127199999999995,0.0,170.09971021843882,-16.99965778153153,24.79086,59.487091,10.599949116453898,53.1511773046187,74.02402978123459,2.9378862478457024,0.002670414505999211,0.45741489377672695
2025-09-06T14:54:43+03:00,,287.15,31.002746294528848,14.696639999999999,13.791094128798916,0.6016056848873644,-5.899975599580139,4.49064,5.03496,-0.49847328176381617,-178.69980672335248,-10.599719209920229,24.79089,59.487147,11.091386081760241,43.03975020171893,56.83084433051785,3.282120644283826,0.0034883261716213945,0.4609032199483483
2025-09-06T14:54:45+03:00,,287.15,37.001614409548566,13.8996,341.63181492470466,351.69868338515323,-12.19999033172062,4.704479999999999,4.89888,-0.20053522829578813,167.69901705684066,-8.697499330085895,24.790893,59.48719,10.530292240751448,52.598949744596965,34.23076466930161,2.85745599638151,0.0025862528910229987,0.4634894728393713
2025-09-06T14:54:47+03:00,,287.15,46.00278137105379,12.69432,343.998130618595,337.2028511683434,3.6999895536163168,4.0629599999999995,4.74336,0.40107045659157625,156.29715693373726,-14.398429391637588,24.790867,59.487231,10.295673436155223,62.49498437822311,46.49311499681812,1.8763816197377496,0.002589007816435322,0.46607848065580665
2025-09-06T14:54:49+03:00,,287.15,43.000482524568284,13.10256,348.9943225921357,338.6982710136349,-3.099988150555319,5.01552,4.64616,-0.8021409131831525,157.59777112868423,-17.29759583499955,24.790865,59.487292,10.035425883607173,62.929348369870766,51.92367096200644,2.282507267213278,0.0036670787027311214,0.4697455593585378
2025-09-06T14:54:51+03:00,,287.15,54.00127219108009,12.49992,338.6925414356835,327.50267569677857,-4.500010522957486,4.58784,4.68504,-0.09740282517223994,145.30209684517678,-13.097815196690618,24.790827,59.487336,10.482468715401117,74.7387391627218,53.431280598405294,1.2076150408271489,0.0028878283803022626,0.47263338773884006
2025-09-06T14:54:53+03:00,,287.15,58.000517601093236,13.19976,332.9973409520831,328.29908703201045,4.400029387707157,4.7628,4.78224,-0.20053522829578813,149.59928030865794,-11.098192491684046,24.790782,59.487388,11.41442756326138,78.72409373844721,51.721434690530316,0.9312882097165935,0.0034140023967967233,0.4760473901356368
2025-09-06T14:54:55+03:00,,287.15,52.00164948607352,13.10256,344.9950771821226,336.49811308033253,2.199986045963822,4.78224,4.704479999999999,-0.20053522829578813,157.9988415852758,-11.900333404867197,24.790831,59.487344,10.834922889312889,72.35533661535638,57.35041379747895,1.4495583143294373,0.0030382349835901706,0.479085625119227
2025-09-06T14:54:57+03:00,,287.15,48.00240407606037,13.802399999999999,348.851083143353,340.6978937186414,-0.9000021045914972,4.91832,4.74336,-0.20053522829578813,161.09854325693357,-10.599719209920229,24.790819,59.487391,11.128926144395955,67.17639935972949,56.02748250308247,1.9077930996766865,0.0028487008768405026,0.4819343259960675
