time,dpt,mtw,awa,aws,cog,hdg,rot,sog,stw,pitch,yaw,roll,lng,lat,tws,twa,twd,vmg,dist,cum_dist
2025-09-05T18:18:34+03:00,,287.15,15.00003507652495,15.804720000000001,42.99475294661698,34.89885930141844,-1.1000216708716675,3.73248,4.43232,-0.20053522829578813,-145.399499670349,-10.101245928156414,24.786928,59.478613,12.237610997812634,19.52768447301125,62.522437419628226,3.5177880882798402,0.0022314880696478858,0.0022314880696478858
2025-09-05T18:18:36+03:00,,287.15,16.002711218003892,15.20208,37.838132790439566,33.09977182470766,0.09998113525032865,3.7519199999999997,4.374,0.0,-146.70011386529598,-9.001166961505232,24.786976,59.47864,11.641592863123764,21.100086242033797,58.93821903247336,3.500364993326061,0.0021865095339207476,0.004417997603568633
2025-09-05T18:18:38+03:00,,287.15,16.002711218003892,15.10488,33.90764231584212,33.90191273789081,-1.4000223724021665,3.8491199999999997,4.31568,0.0,-146.99805191876402,-8.898034558381685,24.787023,59.47867,11.454177332568827,21.318321166092574,55.22596348193469,3.585744060400545,0.0023043668612600745,0.006722364464828708
2025-09-05T18:18:40+03:00,,287.15,18.002333923010465,15.20208,39.998183678082775,29.902667327877666,0.3999818367808277,3.61584,4.276800000000001,0.20053522829578813,-150.2008859935453,-10.599719209920229,24.787067,59.4787,11.816218531380706,23.429081946383207,63.42726562446598,3.317724567772258,0.0022484900743862824,0.00897085453921499
2025-09-05T18:18:41+03:00,,287.15,16.99965778153153,15.29928,36.99588483159726,29.39846446816254,-0.8000209693411684,3.8491199999999997,4.14072,0.20053522829578813,-150.8998945036049,-11.000789666511807,24.787107,59.47873,11.672715032818665,22.532064868940893,59.52794970053815,3.5552982863562104,0.002177751818882426,0.011148606358097416
2025-09-05T18:18:43+03:00,,287.15,18.999280486538098,15.396479999999999,32.996639421584106,26.098227568209,-0.5000202678106694,3.9463199999999996,4.101839999999999,0.29793805346802804,-153.99959617526267,-11.60239535139917,24.787202,59.478711,11.735680148734547,25.28426265257849,58.2809020741626,3.568262138757624,0.0031167626295577925,0.014265368987655208
2025-09-05T18:18:50+03:00,,287.15,20.00195662801704,16.60176,37.998560973076195,21.697911701604276,0.5000202678106694,4.257359999999999,4.257359999999999,0.09740282517223994,-158.1993768135716,-13.99735893504601,24.787225,59.478823,12.685064985649413,26.59401900149888,64.59257997457507,3.8069354531141433,0.002194906897571862,0.01646027588522707
2025-09-05T18:18:52+03:00,,287.15,20.00195662801704,17.107200000000002,31.999692858056477,21.801044104727822,0.8000209693411684,4.21848,4.31568,1.0026761414789407,-158.1993768135716,-13.602018056405743,24.787268,59.478855,13.222145049893168,26.267157021853592,58.26684987991007,3.782880849956867,0.0023286530684667717,0.01878892895369384
2025-09-05T18:18:54+03:00,,287.15,20.99890319154467,17.3016,36.99588483159726,25.10128100468137,0.9000021045914972,4.04352,4.29624,-0.8021409131831525,-153.5985257186711,-11.298727719979832,24.787314,59.478884,13.604009258092384,27.11321272120918,64.10909755280645,3.599168407544453,0.002238360105348328,0.021027289059042168
2025-09-05T18:18:56+03:00,,287.15,20.99890319154467,17.2044,43.99742908809592,28.699455958102938,2.6000251785241626,4.14072,4.33512,0.6016056848873644,-150.2008859935453,-10.3017811564522,24.787358,59.478912,13.420954996650877,27.346529441399497,71.34395852949541,3.6779716586527478,0.002153272881642706,0.023180561940684873
2025-09-05T18:18:58+03:00,,287.15,18.002333923010465,17.3016,46.99972793458143,36.199473496365414,-0.09998113525032865,3.8296799999999998,4.31568,-0.20053522829578813,-142.29979799869125,-7.797955591730505,24.787406,59.478935,13.710588870459322,22.95463122263118,69.95435915721261,3.5264228034429226,0.0020144971269135817,0.025195059067598453
2025-09-05T18:19:00+03:00,,287.15,16.002711218003892,16.893359999999998,45.997051793102486,37.099017234720804,-1.899985344433323,3.7908,4.35456,0.09740282517223994,-143.800947421934,-6.600473799907084,24.78745,59.47896,13.29060949636438,20.512611033810913,66.5096628269134,3.5504446462957544,0.002015470600478437,0.02721052966807689
2025-09-05T18:19:02+03:00,,287.15,16.99965778153153,16.31016,37.95272434946573,35.7010002146016,0.600001403060998,3.86856,4.23792,-0.20053522829578813,-144.09888547540206,-9.602772646392598,24.787567,59.478944,12.661250064101218,22.124748329886643,60.077472679352375,3.5837026007249486,0.0036987593266592255,0.030909288994736116
2025-09-05T18:19:04+03:00,,287.15,18.002333923010465,15.70752,42.99475294661698,35.299929758010016,0.6999825383113268,3.8296799999999998,4.1796,-0.09740282517223994,-144.59735875716584,-8.800631733209444,24.787531,59.479009,12.123240742455359,23.605010250002863,66.59976319661985,3.5092419327489814,0.004058610534576356,0.03496789952931247
2025-09-05T18:19:06+03:00,,287.15,18.002333923010465,15.70752,47.77895053595935,35.901535442897384,1.2999839413723246,3.73248,4.14072,0.09740282517223994,-143.89835024710626,-8.800631733209444,24.787657,59.478994,12.21236981991721,23.42240410664556,71.20135464260491,3.4249208882106386,0.003950531907053064,0.03891843143636554
2025-09-05T18:19:08+03:00,,287.15,16.99965778153153,15.804720000000001,44.99437565162355,38.30222860449553,-0.600001403060998,3.61584,4.02408,-0.09740282517223994,-141.49765708550808,-6.801009028202872,24.787707,59.47902,12.392043007171118,21.89343235200286,66.88780800362642,3.355062011691791,0.002184474586936594,0.04110290602330213
2025-09-05T18:19:10+03:00,,287.15,16.99965778153153,15.29928,40.9951302416104,38.898104711431586,-0.6999825383113268,3.61584,4.02408,-0.09740282517223994,-140.7986485754485,-6.302535746439056,24.787751,59.479043,11.888523745898707,22.10123850939263,63.09636875100303,3.3501498780907286,0.0019275037646429001,0.043030409787945034
2025-09-05T18:19:12+03:00,,287.15,16.002711218003892,15.396479999999999,37.998560973076195,38.10169337619975,0.6999825383113268,3.5575200000000002,3.9851999999999994,0.40107045659157625,-142.00185994522323,-6.801009028202872,24.787797,59.479074,12.016906889956472,20.68405282096458,58.682613794040776,3.3282107188901744,0.0023331923203418485,0.04536360210828688
2025-09-05T18:19:14+03:00,,287.15,16.002711218003892,15.10488,40.9951302416104,40.399254134674344,0.600001403060998,3.2464799999999996,3.92688,-0.29793805346802804,-139.2000963270335,-5.2998596049601145,24.787832,59.479096,12.017578950225689,20.273719348704844,61.26884959031524,3.045353972803225,0.0017000448208190377,0.04706364692910592
2025-09-05T18:19:16+03:00,,287.15,15.00003507652495,15.29928,41.99780638308934,43.09788534974052,0.9000021045914972,3.402,3.86856,0.40107045659157625,-135.99726225225223,-3.3976397251257815,24.787876,59.479117,12.045425826405097,19.192018300949314,61.189824684038655,3.21292423756817,0.001843183182928966,0.04890683011203489
2025-09-05T18:19:18+03:00,,287.15,16.002711218003892,15.20208,46.73043777086994,46.799192706285645,0.09998113525032865,3.3047999999999997,3.73248,-0.6016056848873644,-132.70275493024997,-2.2975607584746007,24.787843,59.479175,12.059809036622989,20.33533615060648,67.06577392147642,3.0988276455957893,0.0036288676161663667,0.052535697728201255
2025-09-05T18:19:20+03:00,,287.15,13.00041237151838,14.59944,45.997051793102486,44.90270240440262,-0.6999825383113268,2.8188,3.61584,-0.6016056848873644,-135.80245660190772,-2.498095986770389,24.787958,59.479153,11.869840119573613,16.062731082627437,62.05978287572992,2.7087521719572507,0.0015431979526056509,0.054078895680806906
2025-09-05T18:19:24+03:00,,287.15,9.001166961505232,14.094,45.997051793102486,60.0001403060998,6.799977704171636,2.93544,3.1687199999999995,-0.49847328176381617,-117.39905222230568,2.200157933302361,24.788024,59.47925,11.204126165006558,11.35040935175411,57.347461144856595,2.8780283234599606,0.0016337005658955386,0.055712596246702446
2025-09-05T18:19:26+03:00,,287.15,3.9992454100131463,13.802399999999999,56.99784145961429,71.09833279778384,3.9999902551468165,1.98288,2.99376,-0.29793805346802804,-106.99986824068124,5.397262430132355,24.788092,59.479221,11.825157053648589,4.66932248937465,61.66716394898894,1.9762990508326306,0.0027105755301076004,0.05842317177681005
2025-09-05T18:19:28+03:00,,287.15,-5.998008678327023,13.39416,71.99787653613924,83.19920143094684,7.699979808763134,2.08008,2.83824,-1.0026761414789407,-93.99945586916286,7.700552766558264,24.788109,59.479259,11.327552867467476,7.097480641127731,64.90039589501151,2.0641411203752926,0.002342301855452851,0.0607654736322629
2025-09-05T18:19:30+03:00,,287.15,-10.999930229819109,13.10256,97.99870127917599,96.19961380246522,6.0000140306099805,1.57464,2.56608,-1.0026761414789407,-81.89858723599987,15.29797312999298,24.78815,59.479225,11.560755124381156,12.489163518880446,85.50953776029554,1.5373791761720081,0.0023964444352553233,0.06316191806751822
2025-09-05T18:19:32+03:00,,287.15,-24.997289164865123,12.402719999999999,102.99489325271679,101.0010001256615,4.099971390397145,2.46888,2.2744799999999996,-0.49847328176381617,-78.00247422911028,15.699043586584558,24.78818,59.479213,10.218503746402446,30.85727965113648,72.13761360158031,2.119404034275003,0.0011657197415155173,0.06432763780903374
2025-09-05T18:19:34+03:00,,287.15,-33.00150956284272,12.69432,135.4414931909753,104.19810462249151,2.1000049107134933,2.8188,2.4299999999999997,-1.0026761414789407,-75.69918389268436,18.300271976478495,24.788212,59.479233,10.443780131658015,41.45492722721829,93.98656596375702,2.1126250661971655,0.0015489868283628846,0.06587662463739662
2025-09-05T18:19:36+03:00,,287.15,-37.00075497285587,12.402719999999999,128.99571799575352,106.59879778408965,4.400029387707157,3.2270399999999997,2.7021599999999997,-0.8995437383553924,-71.79734130784347,20.99890319154467,24.788265,59.479178,10.015617432769362,48.181733485842784,80.81398450991074,2.1516937905489057,0.003680574048658015,0.06955719868605463
2025-09-05T18:19:38+03:00,,287.15,-46.0019219343611,11.80008,132.9949634057667,117.10111416883765,8.100018941323475,3.61584,2.97432,-1.7990874767107847,-60.29807835956783,19.89882422489349,24.788311,59.479157,9.64572387232663,61.64617974378237,71.34878366198433,1.717216899328339,0.0018881329775251813,0.07144533166357982
2025-09-05T18:19:40+03:00,,287.15,-63.99852627942025,12.59712,130.99534070076012,132.19855207053484,10.500024553567467,3.12984,3.26592,-1.3980170201192088,-43.900026262923674,16.59858732493995,24.788316,59.479162,11.572130988536546,78.06739531354452,52.9279453872156,0.6471287901851793,0.00033707426990004793,0.07178240593347987
2025-09-05T18:19:42+03:00,,287.15,-80.99818406095179,13.7052,143.9957530722785,145.399499670349,3.9000091198964877,3.5575200000000002,3.57696,-0.40107045659157625,-32.69870136811608,6.600473799907084,24.788386,59.479111,13.60995965609812,95.95977573456902,48.03597733770947,-0.3693781467792023,0.0037367364277341975,0.07551914236121407
2025-09-05T18:19:44+03:00,,287.15,-87.99972831745043,14.094,173.9958232253284,148.6023337451303,0.09998113525032865,3.9074399999999994,3.7908,-1.501149423242757,-31.398087173169117,8.502693679741416,24.788396,59.479077,14.493600966370892,103.63027727821152,70.36554594711687,-0.9208105145132439,0.002066334603148078,0.07758547696436215
2025-09-05T18:19:46+03:00,,287.15,-89.00240445892939,12.49992,174.99849936680735,150.0003507652495,1.5000035076524951,4.23792,4.00464,-1.501149423242757,-29.598999696458325,10.198648753328653,24.788325,59.479051,13.12872330769921,107.8316373851688,67.16686198163855,-1.297740108139125,0.0026720220732736094,0.08025749903763575
2025-09-05T18:19:48+03:00,,287.15,-93.00164986894255,12.59712,177.99506863534154,154.89913991361806,2.499986747494321,4.23792,4.1796,-0.6990085100596044,-24.499675319793997,7.402614713090236,24.788383,59.479004,13.499571845740087,111.27188868855214,66.7231799467894,-1.5374922302960892,0.003334016008678529,0.08359151504631428
2025-09-05T18:19:50+03:00,,287.15,-95.00127257394911,12.59712,184.9966128918402,156.8013597934524,-0.09998113525032865,4.0629599999999995,4.276800000000001,-1.501149423242757,-22.901123071379004,7.299482309966689,24.788317,59.478968,13.569041268583394,112.35611852626438,72.6404943655758,-1.5453963100849826,0.0029565923458974423,0.08654810739221172
2025-09-05T18:19:52+03:00,,287.15,-97.99784184248331,11.99448,187.99891173832572,157.20243025004396,0.6999825383113268,4.41288,4.33512,-1.1000789666511805,-22.797990668255455,7.700552766558264,24.788312,59.47893,13.344288370271057,117.1135972148478,70.88531452347792,-2.0111972269923712,0.0022891871420309615,0.08883729453424269
2025-09-05T18:19:54+03:00,,287.15,-99.99746454748988,11.89728,190.4511711014856,162.19862222358475,2.6000251785241626,4.374,4.35456,-2.1027551081301215,-16.799122553235737,6.697876625079324,24.788366,59.478892,13.36957230089352,118.79306523762585,71.65810586385976,-2.106726634278884,0.002816793106454132,0.09165408764069682
2025-09-05T18:19:56+03:00,,287.15,-104.00243953545433,11.60568,191.99815714833886,168.300622741728,1.4000223724021665,4.548959999999999,4.45176,-1.1974817918234204,-12.702474318050351,8.399561276617868,24.788356,59.47885,13.451139256098745,123.1580561786522,68.84010096968666,-2.4880560237978604,0.0025429128897364026,0.09419700053043323
2025-09-05T18:19:58+03:00,,287.15,-106.00206224046092,11.10024,202.99894681485068,164.30137733171486,-0.9999832398418258,5.13216,4.548959999999999,-2.1027551081301215,-17.102790184655074,9.20170218980102,24.788272,59.478805,13.45226630065022,127.51591418863585,75.48303262621484,-3.1253918467085793,0.003727101383289135,0.09792410191372236
2025-09-05T18:20:00+03:00,,287.15,-106.00206224046092,10.808639999999999,194.99472641687308,166.50153526501725,3.0000070153049903,4.58784,4.5684000000000005,-1.3980170201192088,-12.198271458335228,9.20170218980102,24.788302,59.478769,12.85360601856861,126.06790432855146,68.92682208832161,-2.7010616630178834,0.002349686798574911,0.10027378871229728
2025-09-05T18:20:02+03:00,,287.15,-108.00168494546749,11.29464,197.9970252633586,175.89804310516274,3.50002728311566,4.7628,4.6655999999999995,-0.8995437383553924,-2.1027551081301215,6.302535746439056,24.788281,59.478724,13.54631886801114,127.53666270937856,70.46036255398005,-2.9018261990675143,0.0027797739904590712,0.10305356270275635
2025-09-05T18:20:04+03:00,,287.15,-117.99979847050034,11.00304,206.9981922248638,184.60127201319995,2.199986045963822,4.78224,4.62672,-1.0026761414789407,5.202456779787875,5.798332886723932,24.788244,59.478681,13.904776060474386,135.67801551410997,71.32017671075383,-3.4213326073766144,0.002820642560027073,0.10587420526278343
2025-09-05T18:20:06+03:00,,287.15,-127.00096543200556,9.992159999999998,213.99973648136248,187.00196517479807,0.3999818367808277,4.93776,4.723920000000001,-1.0026761414789407,7.2020794847944485,6.600473799907084,24.788199,59.478642,13.550344319671433,143.91999369602578,70.07974278533669,-3.9906751069287334,0.002717035005886059,0.1085912402686695
2025-09-05T18:20:10+03:00,,287.15,-127.00096543200556,9.195120000000001,214.99668304489012,182.29798167677404,-0.300000701530499,4.97664,4.7628,-0.29793805346802804,2.4006931615981495,8.399561276617868,24.788038,59.478572,12.82175827751768,145.05890757040285,69.93777547448727,-4.0795574576432685,0.0024324511862101055,0.1110236914548796
2025-09-05T18:20:12+03:00,,287.15,-123.00172002199243,9.408959999999999,210.99743763487695,182.2005788516018,0.300000701530499,4.52952,4.84056,-0.49847328176381617,3.5007721282493303,6.801009028202872,24.787997,59.478535,12.468767278117506,140.73926784568658,70.25816978919036,-3.507090100965379,0.002551972863014312,0.11357566431789391
2025-09-05T18:20:14+03:00,,287.15,-123.00172002199243,9.408959999999999,207.89773596321922,183.00271976478493,-0.3999818367808277,4.89888,4.87944,-0.8995437383553924,2.2975607584746007,7.299482309966689,24.787955,59.478502,12.756894889101519,141.7891797509372,66.10855621228202,-3.8492464286229398,0.0023618405165107786,0.1159375048344047
2025-09-05T18:20:16+03:00,,287.15,-125.99828929052664,9.408959999999999,215.99935918636905,183.50119304654876,-0.3999818367808277,5.20992,4.87944,-1.0026761414789407,4.102377813136695,7.500017538262475,24.787935,59.478456,13.164186606791235,144.67254112839748,71.32681805797156,-4.250568245723915,0.0028315580340787217,0.11876906286848342
2025-09-05T18:20:18+03:00,,287.15,-125.99828929052664,9.097919999999998,214.68728583551948,185.0023424697915,1.899985344433323,4.957199999999999,4.87944,-1.0026761414789407,5.798332886723932,6.697876625079324,24.787872,59.47843,12.663422792028832,144.46195208240775,70.22533375311173,-4.033820950350953,0.002478087155814688,0.1212471500242981
2025-09-05T18:20:20+03:00,,287.15,-123.99866658552006,9.29232,207.99513878839142,193.90037702817318,2.7999874490248207,4.31568,4.93776,-0.40107045659157625,15.802175989708104,4.297183463481174,24.78782,59.478397,12.240139910558863,140.99497816102462,67.0001606273668,-3.3536752238932306,0.0025405225827281066,0.12378767260702621
2025-09-05T18:20:22+03:00,,287.15,-136.0021323935108,9.70056,220.99555115990984,197.49855198159477,0.300000701530499,4.1212800000000005,4.91832,-1.0026761414789407,16.701719728063498,5.397262430132355,24.787758,59.478365,12.984777812357684,148.73885072119293,72.2567004387169,-3.5229150888522054,0.0026984714775420905,0.1264861440845683
2025-09-05T18:20:24+03:00,,287.15,-138.998701662045,9.29232,221.16170892049774,193.60243897470517,-0.9999832398418258,4.74336,4.87944,-0.6990085100596044,12.79987714322259,8.10162322314984,24.787697,59.478332,13.24295131924185,152.5899314675496,68.57177745294814,-4.21084432247971,0.0027206573061968786,0.12920680139076518
2025-09-05T18:20:26+03:00,,287.15,-140.00137780352395,9.408959999999999,221.99822730138877,195.00045599482436,2.499986747494321,4.510079999999999,4.859999999999999,-0.8995437383553924,15.899578814880346,7.700552766558264,24.787637,59.478298,13.186550053068169,152.7010548138896,69.29717248749915,-4.007772889857537,0.0027443202096325858,0.13195112160039776
2025-09-05T18:20:28+03:00,,287.15,-138.00175509851738,9.408959999999999,219.99860459638222,205.50277237957238,4.099971390397145,5.01552,4.89888,-0.6990085100596044,28.602053132930696,2.899166443361966,24.787565,59.478265,13.558213065723015,152.33253965130652,67.6660649450757,-4.442032793719008,0.0029606284325595423,0.1349117500329573
2025-09-05T18:20:30+03:00,,287.15,-149.99949132855681,8.59248,241.57046558305768,219.09906085802677,4.6999727934581434,5.151599999999999,4.89888,-0.8995437383553924,40.897727416438165,3.002298846485514,24.787487,59.47824,13.305584004677684,161.16190932608487,80.40855625697282,-4.875653547770661,0.002815601796107601,0.1377273518290649
2025-09-05T18:20:32+03:00,,287.15,-166.0022025465607,5.90976,240.99750778792685,233.49749024966442,5.79999446432981,5.1710400000000005,4.82112,-0.8021409131831525,56.49936817785048,1.9996227050065731,24.7874,59.478222,10.998599694208558,172.5321837926099,68.46532399531694,-5.1271793588793,0.0028677452146810977,0.140595097043746
2025-09-05T18:20:34+03:00,,287.15,-179.0026149180791,5.50152,260.7015263624759,244.80194754759552,2.499986747494321,4.78224,4.78224,-0.40107045659157625,65.7010703676515,1.501149423242757,24.787312,59.478215,10.283372376744284,179.46642638589435,81.23509997658152,-4.782032632038424,0.002719096993248488,0.1433141940369945
2025-09-05T18:20:36+03:00,,287.15,170.00230739326656,6.7068,260.9994644159439,245.7988941111232,-0.6999825383113268,4.957199999999999,4.74336,-1.1000789666511805,65.79847319282375,3.300236899953542,24.787228,59.478207,11.620635491419481,174.24946152953206,75.248925945476,-4.932253270876652,0.0026089373608053435,0.14592313139779983
2025-09-05T18:20:38+03:00,,287.15,165.0003858417745,7.503839999999999,258.89097972986247,244.40087709100396,1.8000042091829944,4.548959999999999,4.548959999999999,-0.6990085100596044,65.59793796452794,1.3006141949469687,24.787142,59.478197,11.955914252517152,170.6515986574534,69.54257838731587,-4.488544568097168,0.002693225177257922,0.14861635657505776
2025-09-05T18:20:40+03:00,,287.15,170.9992539567942,8.59248,255.99754286445182,255.69960481098377,2.9000258800546614,4.49064,4.4712,-0.40107045659157625,77.29773614109936,-4.297183463481174,24.787144,59.478151,13.04675296372908,174.08604111989732,70.08358398434916,-4.466739666175908,0.0027656289377378193,0.15138198551279558
2025-09-05T18:20:44+03:00,,287.15,153.99959617526267,9.50616,263.9960336844781,260.0999206775885,4.6999727934581434,4.510079999999999,4.43232,-0.29793805346802804,82.20225486741923,-0.8021409131831525,24.786872,59.478177,13.703160342538869,162.29529189754402,66.29132558202213,-4.296466803668505,0.0027637915177243,0.15414577703051988
2025-09-05T18:20:46+03:00,,287.15,159.00151772675477,9.195120000000001,269.9949017994978,269.198490464266,1.5999846429028237,4.5684000000000005,4.41288,0.0,90.2007456874455,-5.2998596049601145,24.786895,59.478141,13.559318127590437,165.93591721647124,75.93081901596906,-4.431460111046099,0.0022749355370117468,0.15642071256753162
2025-09-05T18:20:48+03:00,,287.15,142.99880650875087,8.59248,277.4089756684907,270.40170183404075,-0.300000701530499,4.93776,4.374,-0.8995437383553924,90.69921896920931,-0.6990085100596044,24.786823,59.478148,12.883303341908418,156.3349099103557,73.7438855788464,-4.522530564337657,0.0022378348520055162,0.15865854741953714
2025-09-05T18:20:50+03:00,,287.15,136.99993839373113,9.00072,279.998744902482,269.7026933239811,-0.2000195662801704,4.74336,4.33512,-0.49847328176381617,89.39860477426234,0.6990085100596044,24.786739,59.478157,12.882573017581272,151.54325722685422,71.5420021293362,-4.1702535269109795,0.0026206863349022046,0.16127923375443934
2025-09-05T18:20:52+03:00,,287.15,133.99763954724563,9.00072,275.99949949246883,270.29856943091715,0.5000202678106694,4.87944,4.29624,-0.49847328176381617,90.69921896920931,-1.1974817918234204,24.786655,59.478167,12.877731250851927,149.815040952284,65.81454044475282,-4.217821223640686,0.002633749984580351,0.1639129837390197
2025-09-05T18:20:54+03:00,,287.15,135.00031568872456,8.39808,280.6977534125416,272.8997978208111,0.9999832398418258,4.93776,4.33512,-0.8021409131831525,93.3978501842755,-1.902219879834333,24.78657,59.478174,12.39168000363983,151.36570928902967,72.06346270157127,-4.333853820154258,0.0026286619210095325,0.16654164566002921
2025-09-05T18:20:56+03:00,,287.15,131.99801684223905,8.30088,279.998744902482,271.59918362586416,-0.8000209693411684,5.26824,4.45176,0.0,91.1002894258009,0.29793805346802804,24.786483,59.478184,12.45713652304353,150.31613800998605,70.31488291246802,-4.576894299344374,0.002722992162426442,0.16926463782245565
2025-09-05T18:21:00+03:00,,287.15,133.99763954724563,8.70912,275.94220371295575,272.2007893107515,0.300000701530499,4.82112,4.510079999999999,-0.09740282517223994,92.20036839245208,-0.49847328176381617,24.786313,59.478194,12.54686066731738,150.04409590223545,65.98629961519123,-4.177066370000858,0.0011249537945416587,0.17038959161699732
2025-09-05T18:21:02+03:00,,287.15,131.99801684223905,8.59248,278.9960687610031,274.0972796126345,1.5000035076524951,4.84056,4.5684000000000005,-0.8021409131831525,95.09953483581404,0.0,24.786228,59.478199,12.366127512552126,148.91006915953287,67.90613792053591,-4.145251539571915,0.0026121145894355737,0.1730017062064329
2025-09-05T18:21:04+03:00,,287.15,133.000692983718,8.90352,278.9960687610031,277.3975165125881,0.09998113525032865,4.704479999999999,4.58784,0.0,97.29969276911639,-1.501149423242757,24.786141,59.478204,12.591207131578045,148.85869501546279,67.85476377646586,-4.026538506224768,0.0026727713339164214,0.17567447754034932
2025-09-05T18:21:06+03:00,,287.15,129.99839413723248,8.70912,283.1385536197989,277.5980517408838,0.9000021045914972,4.89888,4.62672,-1.0026761414789407,97.99870127917599,0.6016056848873644,24.786058,59.478212,12.43764229882015,147.56011953985194,70.69867315965087,-4.134433100844048,0.0025789400507971456,0.17825341759114646
2025-09-05T18:21:08+03:00,,287.15,127.99877143222591,8.80632,284.9949368760228,275.09995575411347,-5.1000119260184835,4.78224,4.68504,-0.20053522829578813,92.69884167421588,-0.49847328176381617,24.785972,59.478223,12.33999691217649,145.78043931282866,70.77537618885145,-3.954379890136941,0.0027072730225498427,0.1809606906136963
2025-09-05T18:21:12+03:00,,287.15,144.0014826502298,8.90352,281.99836760748855,265.69771833601664,0.0,5.2488,4.58784,-0.49847328176381617,85.89783264601301,-0.6016056848873644,24.785667,59.478235,13.507007195887878,157.20462193051318,79.2029895380017,-4.8388393721727905,0.002628042387408321,0.18358873300110462
2025-09-05T18:21:14+03:00,,287.15,151.9999734702561,8.30088,274.9968233509899,267.897876269319,1.5000035076524951,4.723920000000001,4.548959999999999,-0.49847328176381617,88.49906103590696,-0.40107045659157625,24.785582,59.478239,12.667498481073425,162.08293063025636,77.07975398124631,-4.4948230832686,0.002605879898552657,0.18619461289965727
2025-09-05T18:21:16+03:00,,287.15,144.0014826502298,8.10648,273.99987678746226,269.7026933239811,0.9999832398418258,4.859999999999999,4.5684000000000005,-1.1000789666511805,90.29814851261774,-0.6016056848873644,24.785627,59.478245,12.372643164579966,157.3500775770369,71.34995436449913,-4.48517262687076,0.001420251315106241,0.1876148642147635
2025-09-05T18:21:18+03:00,,287.15,140.00223724021666,8.80632,274.9968233509899,272.00025408245574,0.6999825383113268,5.07384,4.52952,0.20053522829578813,92.09723598932852,-1.1000789666511805,24.78553,59.478248,13.105492980585241,154.4114731057279,69.40829645671784,-4.576192854593886,0.0029665689636728253,0.19058143317843634
2025-09-05T18:21:22+03:00,,287.15,131.00107027871144,8.59248,281.32227740923423,278.3027898288948,-1.899985344433323,5.09328,4.68504,-0.49847328176381617,98.10183368229954,-2.1027551081301215,24.785239,59.478265,12.53781718274124,148.85451192809552,70.17678933732975,-4.359117967771431,0.0027072698571820345,0.19328870303561838
2025-09-05T18:21:24+03:00,,287.15,129.00144757370484,9.097919999999998,283.9979903124951,277.5980517408838,0.300000701530499,5.326560000000001,4.74336,-1.701684651538545,97.79816605088023,1.598552248414997,24.785148,59.478276,13.120243950392124,147.3924160239755,71.39040633647062,-4.486993339078968,0.0028555234348320658,0.19614422647045043
2025-09-05T18:21:26+03:00,,287.15,131.99801684223905,9.097919999999998,284.9949368760228,275.50102621070505,-1.4000223724021665,5.326560000000001,4.74336,-0.20053522829578813,94.80159678234602,-0.49847328176381617,24.785156,59.478285,13.266305455618886,149.3589270780819,74.35386395410467,-4.582849157053081,0.0005935384100619005,0.19673776488051234
2025-09-05T18:21:28+03:00,,287.15,131.99801684223905,9.00072,284.9949368760228,275.79896426417304,0.9000021045914972,5.326560000000001,4.7628,-0.8995437383553924,96.19961380246522,0.49847328176381617,24.785067,59.478293,13.173565414298062,149.48507199040418,74.48000886642694,-4.588814904610704,0.0027590929518574126,0.19949685783236976
2025-09-05T18:21:32+03:00,,287.15,129.00144757370484,8.39808,286.9945595810294,281.99836760748855,0.6999825383113268,5.307119999999999,4.82112,-0.8021409131831525,102.50214954890427,-1.3980170201192088,24.784886,59.478313,12.441549736376063,148.3610421255408,75.35560170657021,-4.518325177851497,0.0008486864999211954,0.20034554433229096
2025-09-05T18:21:34+03:00,,287.15,125.99914872721935,9.50616,289.9968584275149,282.5999732923759,0.9000021045914972,5.443199999999999,4.84056,-1.1000789666511805,102.80008760237232,-0.8021409131831525,24.784798,59.478329,13.447040502943661,145.11527621620777,75.1121346437227,-4.465080868757698,0.002853300324282586,0.20319884465657354
2025-09-05T18:21:36+03:00,,287.15,125.0022021636917,9.79776,287.9972357225083,283.9005874873229,1.1000216708716675,5.26824,4.89888,-0.8021409131831525,104.50177225391086,0.20053522829578813,24.784711,59.478344,13.526501309747623,143.60653697896907,71.6037727014774,-4.2407303535294085,0.0028046813971822518,0.2060035260537558
2025-09-05T18:21:38+03:00,,287.15,127.99877143222591,9.29232,287.9972357225083,286.1981482457975,0.9999832398418258,5.26824,5.03496,-0.20053522829578813,106.30085973062164,-1.9996227050065731,24.784612,59.478355,13.205237776119336,146.32232805085536,74.31956377336371,-4.38407275969079,0.0030936095187276682,0.20909713557248347
2025-09-05T18:21:40+03:00,,287.15,125.0022021636917,9.00072,291.99648113252147,288.902509038815,2.000023775463165,5.20992,5.0544,-1.0026761414789407,109.80163185887096,-2.6986312150661775,24.784528,59.47837,12.726062039802983,144.59562748211485,76.59210861463635,-4.246520274334125,0.002718120328390601,0.21181525590087408
2025-09-05T18:21:42+03:00,,287.15,121.9999033172062,9.29232,294.13934328631075,291.6985430790534,0.6999825383113268,5.50152,5.13216,-0.8995437383553924,112.00178979217334,-1.7990874767107847,24.784438,59.478392,13.068845765266177,142.91588164663614,77.05522493294689,-4.388843629526884,0.00304906409373217,0.21486431999460626
2025-09-05T18:21:46+03:00,,287.15,114.0014124971799,9.79776,292.99915727400037,300.8028424436822,4.400029387707157,5.326560000000001,5.20992,-0.8995437383553924,121.9999033172062,-6.801009028202872,24.78426,59.478429,12.91605694521486,136.13333752680933,69.1324948008097,-3.8402071099874213,0.0014181843663648257,0.21628250436097107
2025-09-05T18:21:50+03:00,,287.15,80.00209693411685,10.90584,333.3926818307234,319.80212293022026,5.400012627548983,5.50152,5.404319999999999,-0.40107045659157625,141.30285143516363,-11.000789666511807,24.784013,59.478555,11.330095527974573,108.56955960654035,81.96224143726374,-1.7519905626482604,0.003293016339521873,0.21957552070049294
2025-09-05T18:21:52+03:00,,287.15,73.00055267761819,12.30552,334.99696365708974,325.6978586421165,-0.9000021045914972,5.79312,5.48208,-0.20053522829578813,146.70011386529598,-6.302535746439056,24.78406,59.478547,11.970905001460089,100.56778371068063,75.56474736777034,-1.0624503082632282,0.0015131766241716891,0.22108869732466463
2025-09-05T18:21:56+03:00,,287.15,73.99749924114583,12.49992,329.99504210559763,327.89801657541886,0.5000202678106694,5.851439999999999,5.65704,-0.49847328176381617,147.80019283194716,-8.19902604832208,24.78387,59.478697,12.253961990120894,101.3207614596373,71.31580356523494,-1.1486462315299673,0.003120888478359225,0.22420958580302386
2025-09-05T18:21:58+03:00,,287.15,73.00055267761819,12.69432,333.9942875156107,325.19938536035266,-1.5000035076524951,6.006959999999999,5.7348,-0.09740282517223994,144.59735875716584,-8.502693679741416,24.78382,59.478743,12.354818989476161,100.7082107522603,74.70249826787102,-1.1161377785224083,0.0031582588424587743,0.22736784464548263
2025-09-05T18:22:00+03:00,,287.15,76.0028515241037,13.39416,331.99466481060426,320.19746380886056,-0.9000021045914972,6.454079999999999,5.832,-0.8995437383553924,139.60116678362508,-5.202456779787875,24.783873,59.478749,13.388061295576927,103.89205771747231,75.88672252807658,-1.5495825302440462,0.0016575964946749526,0.22902544114015758
2025-09-05T18:22:04+03:00,,287.15,76.0028515241037,13.00536,326.99847283706345,320.7016666685756,-0.5000202678106694,6.648479999999999,6.0264,-1.0026761414789407,140.39757811885693,-9.499640243269049,24.783749,59.478854,13.096337228768894,105.51354254191192,72.51201537897538,-1.7782432437720783,0.0015797482958076858,0.23060518943596525
2025-09-05T18:22:06+03:00,,287.15,76.99979808763133,13.5108,328.99809554207,316.599288855439,-7.299997971982305,7.2122399999999995,6.0652800000000004,0.0,134.89718328560105,-3.798710181717358,24.783685,59.478907,13.810053679247531,107.58772821222917,76.58582375429921,-2.17929173916788,0.0037370522759488864,0.23434224171191415
2025-09-05T18:22:10+03:00,,287.15,99.99832398418258,12.20832,306.99651620904643,289.49838514575106,-9.4000028826958,6.88176,6.24024,-0.8021409131831525,104.90284271050243,0.6016056848873644,24.783503,59.478988,15.019149985832067,126.82161136797254,73.81812757701897,-4.124414826704181,0.0010987568119145993,0.23544099852382874
2025-09-05T18:22:12+03:00,,287.15,123.99952602221278,10.1088,282.99531417101616,261.8016053291271,-11.100025956628462,6.27912,6.25968,0.29793805346802804,73.90009641597358,3.002298846485514,24.783388,59.479009,14.58091723230704,144.9167230603153,67.91203723133145,-5.138313848246151,0.003730523821943927,0.23917152234577266
2025-09-05T18:22:16+03:00,,287.15,-176.99726263512122,6.7068,249.9986747494321,187.39730605343834,-11.700027359689463,5.598719999999999,5.9292,-1.598552248414997,-1.1000789666511805,14.197894163341799,24.783165,59.47899,12.301329767565925,178.3634062804984,71.6352684689337,-5.596436159765181,0.0006073785091941257,0.23977890085496678
2025-09-05T18:22:18+03:00,,287.15,-129.00058813701216,7.095599999999999,220.99555115990984,154.49806945702647,-10.999987525598621,6.337439999999999,5.65704,-1.902219879834333,-30.802211066233056,17.69866629159113,24.783078,59.478954,12.12888637942343,152.95825747366285,68.03729368624698,-5.644602765463131,0.003425701167082922,0.24320460202204972
2025-09-05T18:22:20+03:00,,287.15,-99.00051798396224,9.79776,203.9958933783783,129.20198280200063,-12.299971466970948,5.50152,5.52096,-0.49847328176381617,-54.098675016252336,18.500807204774283,24.783035,59.478901,11.963620946845555,126.0134678033561,77.9824255750222,-3.234758431267813,0.0034455347412698637,0.24665013676331957
2025-09-05T18:22:22+03:00,,287.15,-78.99856135594521,12.402719999999999,182.99699018683364,118.40172836378463,-8.800001479634801,5.1710400000000005,5.404319999999999,-0.8995437383553924,-63.701447662644924,13.401482828109954,24.783041,59.478854,12.493554397425644,102.9705640630108,80.02642612382284,-1.1606421936502513,0.0028309937042846063,0.24948113046760417
2025-09-05T18:22:24+03:00,,287.15,-67.00082512590576,14.40504,123.65002176718296,104.10070179731926,-10.099985421007126,5.38488,5.28768,-0.6990085100596044,-77.69880659769095,8.399561276617868,24.783077,59.478809,13.262224511049608,88.94828362290592,34.701738144277044,0.09883884123401453,0.002919566265711744,0.25240069673331594
2025-09-05T18:22:26+03:00,,287.15,-59.00233430587948,15.396479999999999,121.9999033172062,110.09956991233898,3.30000771683549,5.151599999999999,5.22936,-0.20053522829578813,-66.6006141060069,1.3006141949469687,24.783185,59.478783,13.486811236322394,78.11476616002814,43.885137157178065,1.0609823183827602,0.003648477218326104,0.25604917395164206
2025-09-05T18:22:28+03:00,,287.15,-52.997736612908454,15.10488,136.99993839373113,118.99760447072069,1.200002806121996,3.92688,4.87944,-0.49847328176381617,-60.2006755343956,3.5981749534215695,24.783233,59.478757,13.121763065935559,66.82504370685763,70.1748946868735,1.545384835774652,0.0021422698267015076,0.2581914437783436
2025-09-05T18:22:30+03:00,,287.15,-48.99849120289531,14.094,139.99650766226534,119.70234255873159,1.5000035076524951,3.9463199999999996,4.74336,-1.598552248414997,-60.80228121928296,10.3017811564522,24.783256,59.478729,11.88414081712255,63.51196752021731,76.48454014204803,1.7601016405042487,0.0018235927763218208,0.2600150365546654
2025-09-05T18:22:32+03:00,,287.15,-48.99849120289531,13.5108,136.99993839373113,116.20157043048223,-0.3999818367808277,4.78224,4.64616,-0.8021409131831525,-64.60099140100031,11.298727719979832,24.783324,59.478699,10.983193643936572,68.18254799792382,68.81739039580731,1.7773225105497727,0.0027496392616552547,0.2627646758163207
2025-09-05T18:22:34+03:00,,287.15,-50.00116734437425,14.30784,136.99993839373113,114.20194772547569,-0.9000021045914972,5.07384,4.7628,-0.29793805346802804,-65.29999991105991,9.797578296737077,24.783383,59.478665,11.710387808600707,69.38621689977435,67.61372149395677,1.7863306995455996,0.0027240283059553213,0.265488704122276
2025-09-05T18:22:36+03:00,,287.15,-46.99886849788874,15.007679999999999,138.99956109873773,114.99835906070751,-0.600001403060998,4.64616,4.91832,-0.8995437383553924,-65.39740273623217,10.50231638474799,24.78344,59.47863,12.316914050427268,63.01300988468512,75.98655121405261,2.108372450215549,0.002730098823828637,0.2682188029461046
2025-09-05T18:22:38+03:00,,287.15,-46.0019219343611,15.70752,135.99726225225223,111.60071933558174,-1.7000230739326654,5.01552,5.01552,-1.1000789666511805,-68.39970158271767,9.998113525032863,24.783478,59.478593,12.744925904617801,62.44672322105815,73.55053903119408,2.3200451618308384,0.002508328214957456,0.27072713116106206
2025-09-05T18:22:40+03:00,,287.15,-44.999245792882164,15.804720000000001,132.9949634057667,108.99949094568781,-2.400005612243992,5.20992,5.1127199999999995,-0.6990085100596044,-71.99787653613924,11.997736230039438,24.783575,59.47857,12.668176139627928,61.90517667430149,71.08978673146521,2.4535189786675757,0.0032678869384798626,0.2739950180995419
2025-09-05T18:22:41+03:00,,287.15,-41.00000038286902,15.804720000000001,125.99914872721935,108.19735003250467,0.8000209693411684,5.2488,5.2488,-1.1000789666511805,-71.4020004292032,11.000789666511807,24.783646,59.478543,12.333855067116488,57.21203056613406,68.78711816108529,2.842391597769808,0.002707642665548589,0.2767026607650905
2025-09-05T18:22:43+03:00,,287.15,-41.00000038286902,15.804720000000001,128.99571799575352,110.90171082552214,0.9999832398418258,5.346,5.3654399999999995,-0.8021409131831525,-68.69763963618571,8.697499330085895,24.783713,59.478515,12.281490028612108,57.593247274606014,71.40247072114751,2.8650620076045525,0.0026487093917009984,0.27935137015679146
2025-09-05T18:22:45+03:00,,287.15,-41.00000038286902,15.49368,133.99763954724563,111.49758693245819,0.600001403060998,5.7348,5.46264,-1.0026761414789407,-68.30229875754543,9.797578296737077,24.783778,59.47846,11.78241891686103,59.62183414396374,74.37580540328189,2.9001172786429033,0.003855678053228137,0.2832070482100196
2025-09-05T18:22:47+03:00,,287.15,-41.00000038286902,15.49368,130.99534070076012,110.00216708716675,-0.6999825383113268,5.3654399999999995,5.5598399999999994,-1.1974817918234204,-70.39932428772426,11.401860123103383,24.78385,59.478426,11.973446987498837,58.096841956080794,72.89849874467933,2.8355552439180824,0.0030012233068277554,0.28620827151684736
2025-09-05T18:22:49+03:00,,287.15,-41.00000038286902,15.10488,126.99609529074696,112.79820112740516,2.1000049107134933,4.91832,5.65704,-0.8021409131831525,-66.40007887771111,11.997736230039438,24.783922,59.47842,11.841096511310491,56.81313373175942,70.18296155898754,2.692147705279298,0.002227298134153794,0.28843556965100114
2025-09-05T18:22:53+03:00,,287.15,-48.00154463936767,14.40504,139.99650766226534,122.6989118272658,3.9000091198964877,5.07384,5.87088,-1.3006141949469687,-56.201430124382455,13.899956109873772,24.784077,59.47833,11.637867547161193,66.90665201024052,73.08985565202482,1.9901139028700925,0.0029985551059378357,0.291434124756939
2025-09-05T18:22:55+03:00,,287.15,-52.997736612908454,14.79384,150.99729732877717,123.50105274044896,2.000023775463165,6.045839999999999,5.890319999999999,-1.701684651538545,-56.0982977212589,16.197516868348373,24.784121,59.478287,12.155251399069849,76.40208346616866,74.5952138626085,1.4214179094664683,0.00291280373317061,0.29434692849010957
2025-09-05T18:22:57+03:00,,287.15,-56.00003545939396,13.8996,146.99805191876402,126.89869246557473,2.3000244769936637,5.65704,5.96808,-1.501149423242757,-52.00164948607352,16.197516868348373,24.784174,59.478242,11.715874828641782,79.5971617016866,67.40089021707742,1.0214796567936992,0.003151798469984285,0.29749872696009383
2025-09-05T18:22:59+03:00,,287.15,-59.999280869407116,14.40504,153.99959617526267,127.2997629221663,0.2000195662801704,5.87088,6.0264,-2.4006931615981495,-52.40271994266509,14.702097023056925,24.78422,59.478194,12.545928010646257,83.90636024764436,70.09323592761831,0.6232155869861455,0.0032087473710271175,0.30070747433112094
2025-09-05T18:23:01+03:00,,287.15,-61.00195701088606,14.40504,152.99692003378374,130.89793787558787,4.299990956677315,6.0264,6.006959999999999,-1.701684651538545,-47.40079839117301,15.20057030482074,24.784262,59.478143,12.635454008305343,85.65688385679209,67.34003617699165,0.4563738840733281,0.003322813009721319,0.30403028734084225
2025-09-05T18:23:03+03:00,,287.15,-67.00082512590576,14.094,160.99541085381,138.1000173603823,2.9000258800546614,6.68736,6.08472,-0.6990085100596044,-41.49933310132553,14.10049133816956,24.784307,59.478087,13.02727945775712,95.19949813157477,65.79591272223523,-0.6060343562637887,0.0036355514655004883,0.30766583880634274
2025-09-05T18:23:05+03:00,,287.15,-67.9977716894334,13.39416,167.04011559244023,136.7020003402631,0.2000195662801704,6.08472,6.201359999999999,-0.8021409131831525,-43.298420578036314,12.301403861458775,24.784332,59.47803,12.464381335779349,94.90935310559615,72.13076248684408,-0.5207277082923483,0.0035101086507142486,0.311175947457057
2025-09-05T18:23:07+03:00,,287.15,-67.9977716894334,13.608,162.99503355881663,131.9006140170668,-1.4000223724021665,5.9292,6.2208000000000006,-1.902219879834333,-48.79881541129222,11.499262948275621,24.784362,59.477977,12.644260606129698,93.76856677461907,69.22646678419756,-0.3897054649026209,0.0033147309847363095,0.31449067844179335
2025-09-05T18:23:09+03:00,,287.15,-65.99814898442683,13.00536,158.99578814880346,128.10190383534945,-3.099988150555319,5.81256,6.1624799999999995,-1.598552248414997,-53.60020173448851,13.699420881577984,24.784393,59.477925,11.892296948811111,92.51777094091018,66.47801720789327,-0.2553414100254708,0.0032657206028946497,0.317756399044688
2025-09-05T18:23:11+03:00,,287.15,-59.00233430587948,13.802399999999999,157.9988415852758,116.60264088707383,-4.2000098214269865,6.006959999999999,6.10416,-1.7990874767107847,-64.60099140100031,17.498131063295343,24.784444,59.477878,11.882403495525018,84.68191299761213,73.31692858766368,0.5567545527686253,0.0032256528553024078,0.3209820518999904
2025-09-05T18:23:13+03:00,,287.15,-56.00003545939396,13.7052,142.99880650875087,125.70121067375132,6.0000140306099805,4.82112,6.18192,-1.3980170201192088,-51.697981854654174,11.997736230039438,24.784497,59.477831,11.712347598763083,75.9533587104938,67.04544779825707,1.1701421290742495,0.0032555610348102763,0.3242376129348007
2025-09-05T18:23:15+03:00,,287.15,-61.00195701088606,14.696639999999999,156.99616544379688,131.2016055070072,0.09998113525032865,5.6181600000000005,6.1236,-1.7990874767107847,-49.40042109617958,12.398806686631014,24.784544,59.477789,12.942190239909515,83.31560752036152,73.68055792343536,0.6539548941952971,0.002903754067062739,0.3271413670018634
2025-09-05T18:23:17+03:00,,287.15,-59.999280869407116,14.21064,157.9988415852758,127.00182486869828,-0.2000195662801704,5.7153599999999996,6.10416,-2.2975607584746007,-53.502798909316276,18.099736748182707,24.78458,59.477735,12.38494812552021,83.55541224672595,74.44342933854986,0.6415048753991442,0.0034268164572126324,0.33056818345907607
2025-09-05T18:23:19+03:00,,287.15,-59.00233430587948,14.21064,154.96216527108245,124.89906976056815,-0.2000195662801704,6.337439999999999,6.08472,-1.501149423242757,-55.30188638602706,18.002333923010465,24.784633,59.477685,12.220638954442501,85.39528557994562,69.56687969113683,0.5087756478003974,0.003413219138097342,0.3339814025971734
2025-09-05T18:23:21+03:00,,287.15,-59.00233430587948,14.502239999999999,152.99692003378374,123.39792033732542,-2.1000049107134933,6.045839999999999,6.1624799999999995,-1.7990874767107847,-57.59944714450166,17.60126346641889,24.784685,59.477634,12.512314900761968,83.47038746914811,69.52653256463563,0.6875130490490716,0.0034521195072615414,0.33743352210443495
2025-09-05T18:23:26+03:00,,287.15,-54.99735931791503,14.91048,147.99499848229166,115.80049997389068,-5.199993061268812,6.045839999999999,6.18192,-2.200157933302361,-65.59793796452794,16.002711218003892,24.784743,59.477586,12.468204116730368,78.4002705244296,69.59472795786206,1.2156569761186031,0.0033851373554392686,0.3408186594598742
2025-09-05T18:23:28+03:00,,287.15,-48.00154463936767,15.396479999999999,125.24857401559797,105.29818358914271,-7.500017538262475,5.890319999999999,6.0264,-1.501149423242757,-77.20033331592711,17.801798694714677,24.784789,59.477546,12.263112610380357,68.9152928747387,56.33328114085927,2.11902954186108,0.0027843541016696976,0.34360301356154394
2025-09-05T18:23:30+03:00,,287.15,-39.997324241390075,16.79616,124.99647258574039,90.80235137233286,-11.200007091878796,6.4152,6.10416,-0.40107045659157625,-91.79929793586051,14.10049133816956,24.78492,59.477527,12.576789084206172,59.136047204252534,65.86042538148786,3.2910059746866414,0.004158948817365716,0.34776196237890966
2025-09-05T18:23:32+03:00,,287.15,-29.002264152829575,17.80704,69.62010168634633,75.40124583921634,-13.699993839373114,4.78224,6.08472,-0.49847328176381617,-108.3004824356282,5.700930061551691,24.785012,59.477533,13.820377434587789,38.660436894356025,30.959664791990306,3.7342692773070154,0.0028315707919747963,0.35059353317088443
2025-09-05T18:23:34+03:00,,287.15,-10.999930229819109,17.3016,33.46073523564007,54.99821875460771,-17.500021824019274,4.510079999999999,5.9292,-0.40107045659157625,-129.90099131206026,5.202456779787875,24.785079,59.477561,12.903110795378778,14.82404628900315,18.636688946636923,4.3599669312332185,0.0026487553047260656,0.3532422884756105
2025-09-05T18:23:36+03:00,,287.15,9.998113525032863,15.610319999999998,26.997771306564392,26.29876279650479,-14.500014808714283,4.374,5.5598399999999994,0.0,-160.39953474687397,-5.001921551492087,24.785142,59.477522,11.328227827615283,13.841856784835102,40.83962809139949,4.246978002749895,0.003032168468114481,0.356274456943725
2025-09-05T18:23:40+03:00,,287.15,58.000517601093236,13.39416,344.3590940295274,333.3010085835025,2.400005612243992,5.26824,4.859999999999999,0.29793805346802804,152.60157915514347,-13.699420881577984,24.785042,59.477682,11.505341436695254,80.85047923268695,65.20957326221435,0.8377103773549565,0.0026203436828382853,0.3588948006265633
2025-09-05T18:23:42+03:00,,287.15,60.0001403060998,13.8996,344.9950771821226,334.80215800674523,2.199986045963822,5.443199999999999,4.82112,0.8995437383553924,155.7012808268012,-12.702474318050351,24.785021,59.477727,12.131336471357121,82.86611420700878,67.86119138913136,0.675981965278298,0.0028257223334890442,0.36172052296005236
2025-09-05T18:23:43+03:00,,287.15,48.999350639587995,14.91048,351.68149465129926,342.50271077330353,-5.79999446432981,5.6376,5.1710400000000005,-0.20053522829578813,161.40221088835293,-15.899578814880346,24.785083,59.477763,11.99198712459934,69.7802915617288,61.46178621302806,1.9484729423191791,0.002874822120782175,0.3645953450808345
2025-09-05T18:23:47+03:00,,287.15,48.00240407606037,15.804720000000001,358.9981656951199,343.49965733683115,7.200016836731978,5.832,5.42376,0.20053522829578813,166.30100003672143,-15.699043586584558,24.785068,59.47787,12.667100135152811,68.01097690622301,67.00914260134289,2.1836696581756474,0.001774640824359396,0.36636998590519393
2025-09-05T18:23:49+03:00,,287.15,43.99742908809592,17.107200000000002,18.999280486538098,359.1012980982435,3.399988852085818,5.7348,5.5598399999999994,-0.29793805346802804,-176.99812207181392,-7.402614713090236,24.785086,59.477924,13.579192651383874,61.05642916125964,80.05570964779774,2.7753449587049204,0.003291999364230041,0.36966198526942395
2025-09-05T18:23:53+03:00,,287.15,50.998973344594575,15.99912,325.7207769539217,348.7995169417913,-18.299985497580927,5.57928,5.598719999999999,0.20053522829578813,161.7001489418209,-5.001921551492087,24.785051,59.478071,13.219188712415278,70.14620964092872,35.8669865948504,1.8948411408372792,0.0030312874744103887,0.37269327274383435
2025-09-05T18:23:55+03:00,,287.15,82.00171963912342,12.908159999999999,286.18095951194357,309.0992713171765,-18.40002392861077,5.754239999999999,5.50152,0.40107045659157625,120.09768343737186,-3.5007721282493303,24.785117,59.478058,13.381392460460152,107.20524210560383,33.386201617547385,-1.7020780052397242,0.0021609903119469815,0.37485426305578134
2025-09-05T18:23:59+03:00,,287.15,142.99880650875087,10.692,266.99833253096364,265.60031551084444,5.599974898049641,5.326560000000001,5.307119999999999,-0.40107045659157625,87.30157924408354,4.102377813136695,24.784762,59.478106,15.285836092201192,155.10454697046637,62.10287950143004,-4.831602327157037,0.002931185370016506,0.37778544842579787
2025-09-05T18:24:01+03:00,,287.15,150.99729732877717,8.90352,265.9956563894847,281.49989432572477,9.49998401794613,5.151599999999999,5.07384,-1.501149423242757,105.29818358914271,-9.098569786677473,24.784803,59.478091,13.639742328638162,161.5490470980408,67.54470348752545,-4.88678164694309,0.0015425326931414764,0.37932798111893934
2025-09-05T18:24:05+03:00,,287.15,108.99949094568781,9.29232,309.9988150555319,304.69895545057176,4.6999727934581434,4.91832,4.82112,0.49847328176381617,125.79861349892356,-11.60239535139917,24.784547,59.478173,11.844616463395543,132.11681751255315,82.11563256808506,-3.2984436451115253,0.002618293668930206,0.3819462747878695
2025-09-05T18:24:07+03:00,,287.15,93.99945586916286,11.197439999999999,317.9973058755582,313.402184358609,2.7999874490248207,5.52096,4.7628,-1.501149423242757,135.20085091702038,-11.997736230039438,24.784487,59.47821,12.82525895295225,119.43066936128321,77.4279752368414,-2.712834268436503,0.0028811236777559397,0.38482739846562547
2025-09-05T18:24:09+03:00,,287.15,84.99828890765764,11.00304,320.9996047220437,315.4992098887878,4.500010522957486,5.98752,4.91832,1.501149423242757,135.89985942707997,-12.702474318050351,24.784426,59.478251,12.059418046455997,114.64238743829958,75.6419921603433,-2.4965164113240066,0.0030888281669090157,0.3879162266325345
2025-09-05T18:24:11+03:00,,287.15,71.99787653613924,12.091679999999998,331.99466481060426,323.1997626553461,2.7999874490248207,5.57928,5.03496,-0.8995437383553924,144.2020178785256,-17.69866629159113,24.784453,59.478251,11.646372359150465,99.1017510325192,71.09641584312345,-0.8825765049419899,0.0008242189845476695,0.38874044561708215
2025-09-05T18:24:15+03:00,,287.15,65.99900842111953,13.39416,341.9985079135884,326.098929098708,-0.6999825383113268,5.19048,5.19048,-0.8995437383553924,146.20164058353217,-12.599341914926804,24.784387,59.478343,12.238791580527522,88.79383065830285,70.79233857189126,0.10925997497431694,0.0014360061694648064,0.390176451786547
2025-09-05T18:24:17+03:00,,287.15,65.99900842111953,13.00536,335.9996397985687,327.697481347123,3.9999902551468165,5.09328,5.28768,-0.29793805346802804,149.10080702689413,-13.498885653282196,24.784354,59.478387,11.882523878552824,89.05158465854956,65.05122445711822,0.08430506293524777,0.0028300975694135087,0.39300654935596047
2025-09-05T18:24:21+03:00,,287.15,50.998973344594575,13.608,350.99967487509366,337.50078922181143,1.5000035076524951,5.754239999999999,5.48208,-0.8995437383553924,158.49731486703965,-16.902254956359283,24.784241,59.478537,10.942144835297384,75.12082144474405,66.12049631983768,1.4775829105033043,0.0030078653067800313,0.3960144146627405
2025-09-05T18:24:23+03:00,,287.15,48.999350639587995,14.21064,355.9958668486344,338.4003329601668,0.09998113525032865,5.5598399999999994,5.50152,-0.29793805346802804,157.9988415852758,-16.39805209664416,24.784306,59.478543,11.365904015376906,70.66418142392433,66.66004827255875,1.8408871938661822,0.002016722738068744,0.39803113740080925
2025-09-05T18:24:28+03:00,,287.15,46.99972793458143,15.007679999999999,1.9996227050065731,338.49773578533905,0.9999832398418258,5.57928,5.773680000000001,-1.1000789666511805,159.098920551927,-22.797990668255455,24.784298,59.478642,11.922583726119823,67.01325633578108,69.01287904078765,2.1788100696597517,0.0019097961845749827,0.39994093358538424
2025-09-05T18:24:30+03:00,,287.15,43.000482524568284,15.396479999999999,2.9965692685342056,334.80215800674523,-0.6999825383113268,6.10416,5.98752,-0.20053522829578813,153.79906094696688,-26.90036848139215,24.784301,59.478696,11.698052556397512,63.84766930367833,66.84423857221253,2.6904646379852806,0.003247108348592193,0.40318804193397645
2025-09-05T18:24:34+03:00,,287.15,37.998560973076195,16.69896,7.190620328891831,334.0974199187343,2.400005612243992,6.337439999999999,6.1624799999999995,-0.09740282517223994,154.6986046853223,-31.100149119701083,24.784244,59.47887,12.33802652219032,56.43334173697397,63.623962065865804,3.5040134137423786,0.0037511029292937735,0.4069391448632702
2025-09-05T18:24:36+03:00,,287.15,35.00199170454199,16.893359999999998,10.995060088560496,333.50154381179834,2.7000063137744914,5.754239999999999,6.0652800000000004,-0.6990085100596044,154.1027285783862,-30.0000701530499,24.78426,59.478926,12.619182580636418,50.16457739066766,61.15963747922815,3.686077307864364,0.0034012825684682727,0.4103404274317385
2025-09-05T18:24:38+03:00,,287.15,31.999692858056477,17.2044,14.994305498573642,338.19979773187106,4.899992359738313,5.851439999999999,6.1236,-1.3006141949469687,160.39953474687397,-28.699455958102938,24.784327,59.478929,12.628669028921113,46.2130703993528,61.20737589792644,4.049070714030176,0.0020531770808234007,0.4123936045125619
2025-09-05T18:24:42+03:00,,287.15,33.00236899953541,18.60408,19.89882422489349,354.798385056811,-0.09998113525032865,6.454079999999999,6.337439999999999,0.40107045659157625,176.00117550828628,-15.899578814880346,24.784415,59.47903,13.651749863466085,47.92432446518728,67.82314869008077,4.324953608378391,0.0026862814051811924,0.4150798859177431
2025-09-05T18:24:46+03:00,,287.15,28.997394011570965,17.70984,27.99471787009202,0.8995437383553924,-0.6999825383113268,5.67648,6.27912,-0.20053522829578813,-178.90034195164822,-18.59821002994652,24.784449,59.479192,13.038641381440156,41.18120076592513,69.17591863601714,4.272294762243503,0.003255570761480515,0.4183354566792236
2025-09-05T18:24:48+03:00,,287.15,31.999692858056477,17.398799999999998,24.99814860155782,1.3980170201192088,0.9000021045914972,5.67648,6.0652800000000004,-0.49847328176381617,-177.7028601598248,-12.79987714322259,24.784491,59.479242,12.93935711550389,45.4424003530776,70.44054895463542,3.982765633833619,0.0032674267480655318,0.42160288342728913
2025-09-05T18:24:50+03:00,,287.15,35.99893826806962,18.29304,26.997771306564392,6.497341396783535,-2.000023775463165,5.87088,6.0652800000000004,0.40107045659157625,-172.50040338003691,-10.50231638474799,24.784582,59.47923,13.976030695294341,50.293281456505355,77.29105276306974,3.750658851468072,0.0028699600200792685,0.4244728434473684
2025-09-05T18:24:52+03:00,,287.15,41.00085981956171,18.00144,23.995472460078876,7.402614713090236,-2.1000049107134933,5.90976,6.0264,-0.8021409131831525,-173.39994711839236,-9.40223741809681,24.784626,59.47928,14.085484204482242,56.9785717921649,80.97404425224377,3.220539394464365,0.003291860696649571,0.42776470414401796
2025-09-05T18:24:54+03:00,,287.15,43.99742908809592,18.00144,17.996604345059158,3.798710181717358,0.9999832398418258,5.65704,5.96808,0.29793805346802804,-176.09857833345853,-12.301403861458775,24.784658,59.479329,14.4754913858353,59.74863692317439,77.74524126823354,2.849985795001971,0.0031030378131306937,0.43086774195714866
2025-09-05T18:24:56+03:00,,287.15,45.00010522957485,17.398799999999998,17.291866257048248,2.6986312150661775,-0.3999818367808277,5.3654399999999995,5.90976,-0.49847328176381617,-177.3991925284055,-13.097815196690618,24.784683,59.479377,14.123967511840826,60.58212660174095,77.8739928587892,2.6353726992240247,0.0029843914104333716,0.43385213336758205
2025-09-05T18:25:00+03:00,,287.15,48.00240407606037,15.901919999999999,16.592857746988642,0.8021409131831525,-0.2000195662801704,5.3654399999999995,5.79312,-0.6990085100596044,-178.90034195164822,-9.40223741809681,24.784649,59.479532,12.941515094457287,65.94795457211741,82.54081231910605,2.1867725664120843,0.0028572037051033767,0.43670933707268544
2025-09-05T18:25:02+03:00,,287.15,48.999350639587995,16.893359999999998,16.99965778153153,1.501149423242757,-0.9999832398418258,5.20992,5.69592,-0.09740282517223994,-178.29873626676087,-9.700175471564837,24.784665,59.479579,14.037231037613399,65.2659888407587,82.26564662229022,2.1798633332983837,0.002866970647705396,0.43957630772039086
2025-09-05T18:25:04+03:00,,287.15,46.00278137105379,16.407359999999997,8.30215845144563,359.5997713800073,1.4000223724021665,5.307119999999999,5.7153599999999996,-0.20053522829578813,178.60240389818023,-15.802175989708104,24.784692,59.479629,13.281459264653858,62.70834183664178,71.01050028808741,2.433421583747361,0.0031163482543921333,0.44269265597478297
2025-09-05T18:25:06+03:00,,287.15,43.99742908809592,16.407359999999997,14.994305498573642,356.7006049366453,1.2999839413723246,5.50152,5.65704,-0.49847328176381617,176.99812207181392,-17.69866629159113,24.784801,59.479624,13.023038825320777,61.06153222757581,76.05583772614945,2.662020767325775,0.0033408127173968935,0.44603346869217986
2025-09-05T18:25:10+03:00,,287.15,37.001614409548566,15.99912,15.996981640052585,352.7013595266322,1.200002806121996,5.42376,5.6376,-0.40107045659157625,172.79834143350496,-22.001579333023614,24.784844,59.479728,12.115615759990295,52.6315333552742,68.62851499532678,3.291888937931237,0.003949214892819433,0.44998268358499927
2025-09-05T18:25:14+03:00,,287.15,31.002746294528848,16.19352,17.996604345059158,349.0974549952593,-1.2999839413723246,6.337439999999999,5.6376,-1.1000789666511805,167.69901705684066,-25.3992190581494,24.784826,59.479878,11.245617967867082,47.876961983673766,65.87356632873292,4.250678843561932,0.003087361923794614,0.4530700455087939
2025-09-05T18:25:16+03:00,,287.15,28.000447448043335,15.901919999999999,5.998868115019719,345.29874481354193,7.099978405702136,5.48208,5.5598399999999994,-0.09740282517223994,165.20092107007028,-32.80183377123963,24.78486,59.479925,11.357021261780737,41.09855553626946,47.097423651289176,4.131185654078237,0.003009671314091528,0.4560797168228854
2025-09-05T18:25:18+03:00,,287.15,22.998525896551243,17.80704,50.97032545483803,352.30028907004055,10.000004285756797,5.1710400000000005,5.69592,1.0026761414789407,174.9010965416351,-28.29838550151136,24.784921,59.479962,13.202523113876952,31.801006154868986,82.77133160970702,4.394781259105408,0.002900563952676385,0.4589802807755618
2025-09-05T18:25:20+03:00,,287.15,22.001579333023614,18.895680000000002,37.998560973076195,16.99965778153153,11.299988227129122,5.26824,5.48208,-0.29793805346802804,-153.99959617526267,-11.499262948275621,24.785006,59.47998,14.149432185788596,30.01970164266163,68.01826261573783,4.561523638885707,0.002811174770819104,0.4617914555463809
2025-09-05T18:25:22+03:00,,287.15,18.999280486538098,18.50688,79.99636735616555,61.10021927275099,8.200000076573803,4.276800000000001,5.326560000000001,-1.1974817918234204,-111.60071933558174,4.60085109490051,24.785087,59.47998,14.52993336349476,24.49811858696833,104.49448594313388,3.8917805993158443,0.0024725303882287652,0.46426398593460966
2025-09-05T18:25:24+03:00,,287.15,3.9992454100131463,16.19352,86.9979116126642,84.59721845106604,2.400005612243992,2.93544,5.0544,-1.1974817918234204,-93.1973149559797,17.89920151988692,24.785166,59.47997,13.266807611995397,4.8834430725115965,91.8813546851758,2.9247841701168973,0.0024852630645295615,0.4667492489991392
2025-09-05T18:25:26+03:00,,287.15,-10.999930229819109,15.396479999999999,106.99986824068124,88.20112298243895,-3.0000070153049903,3.9463199999999996,4.82112,-1.0026761414789407,-92.29777121762432,23.399596353142822,24.785238,59.47996,11.54724121894496,14.738806446904078,92.26106179377716,3.8164689473574356,0.0022785179261944977,0.4690277669253337
2025-09-05T18:25:28+03:00,,287.15,-18.998421049845405,15.901919999999999,103.99756939419571,84.49981562589382,-2.3000244769936637,3.92688,4.68504,-2.2975607584746007,-96.19961380246522,22.901123071379004,24.785305,59.479958,12.255800266812399,24.98565766917639,79.01191172501932,3.55937723659937,0.0020487108049313204,0.471076477730265
2025-09-05T18:25:30+03:00,,287.15,-22.000719896330917,15.901919999999999,92.99677972768393,86.90050878749194,3.2000265815851607,4.16016,4.548959999999999,-1.1000789666511805,-91.70189511068827,19.297218540006124,24.785374,59.479949,12.145113693575198,29.373293779067524,63.623485948616405,3.6253403653815255,0.0021745937527462332,0.47325107148301127
