time,dpt,mtw,awa,aws,cog,hdg,rot,sog,stw,pitch,yaw,roll,lng,lat,tws,twa,twd,vmg,dist,cum_dist
2026-07-11T12:02:40+03:00,11.13,291.37,56.00089489608667,22.394879999999997,308.99613891405295,297.5255238555339,-1.8175367177139974,6.72624,6.59016,-0.06302535746439056,,-8.835009200917295,22.84164,59.046603,19.450209995916303,72.66135434357592,21.657493257628857,2.004545884284266,0.003752594386295001,0.003752594386295001
2026-07-11T12:02:42+03:00,11.66,291.37,54.99821875460771,21.69504,297.9953492475411,299.07250990238714,0.47584144885614865,7.795439999999999,7.503839999999999,0.5614986392282068,,-11.132569959391894,22.841542,59.046631,18.369153616660004,75.34011925126194,13.335468498803039,1.9728745463212425,0.00346582426354548,0.007218418649840481
2026-07-11T12:02:44+03:00,11.17,291.37,56.99784145961429,22.394879999999997,305.99956964551876,298.29901687896046,0.41728516219377854,6.78456,7.2122399999999995,0.6589014644004466,,-9.694445893613528,22.841438,59.046666,19.54602362027235,73.92173819420185,19.921307839720612,1.8789846437198705,0.0038423482736226243,0.011060766923463104
2026-07-11T12:02:48+03:00,11.55,291.38,58.000517601093236,21.597839999999998,301.99459465755433,297.193208334358,1.0596854420944577,6.337439999999999,6.59016,0.8193296470370772,,-12.209730614237845,22.841223,59.046742,19.01490260406037,74.41870157266077,16.41329623021511,1.7022707719858174,0.003857103168256162,0.014917870091719266
2026-07-11T12:02:50+03:00,11.36,291.37,56.99784145961429,20.9952,300.99764809402666,301.18099458846854,0.982049660854231,7.42608,7.01784,0.5385803274229739,,-18.66696496536222,22.841116,59.046781,18.058340860289476,77.1720476833408,18.16969577736745,1.6487695272755245,0.004054381697603008,0.018972251789322273
2026-07-11T12:02:52+03:00,11.58,291.37,56.99784145961429,20.9952,307.99919235052533,305.00262308199115,-2.127850659556851,6.47352,7.63992,0.7104676659622208,,-14.42707728139413,22.840999,59.046809,18.293425376553206,74.26180204832414,22.260994398849448,1.7558917621961443,0.003989511142658962,0.022961762931981235
2026-07-11T12:02:54+03:00,11.28,291.37,54.99821875460771,20.39256,311.9984377605385,297.8750281105637,-5.5800359667790875,6.82344,6.804,0.716197243913529,,-13.115003930544542,22.840918,59.04685,17.400729843008715,73.7344210350525,25.73285879559097,1.911177618717787,0.003513431403085044,0.02647519433506628
2026-07-11T12:02:56+03:00,11.43,291.37,61.99976301110639,19.90656,299.99497195254776,285.2298495720264,0.11780012267889726,7.095599999999999,6.9984,0.6073352628386726,,-18.151302949744483,22.840809,59.046889,17.719844051915214,82.70498270052666,22.69995465307443,0.9009875695253036,0.004104977079589104,0.030580171414655383
2026-07-11T12:02:58+03:00,11.4,291.38,61.99976301110639,19.90656,290.9995345689938,282.7661310529639,4.260571460372314,6.47352,8.33976,1.0313240312354817,,-18.11692548203663,22.840701,59.046911,17.80952728748558,80.71946529218935,11.718999861183136,1.043975144293584,0.003591211170287507,0.03417138258494289
2026-07-11T12:03:00+03:00,11.28,291.37,67.00168456259847,20.003759999999996,288.9999118639872,286.45597925360636,4.5705416275380895,7.46496,7.73712,0.5614986392282068,,-19.005010064489404,22.840581,59.046935,18.417125201169313,88.90924562210883,17.909157486096035,0.14210376492748267,0.0039804728786629225,0.03815185546360582
2026-07-11T12:03:02+03:00,11.43,291.36,65.0020618575919,19.59552,288.9999118639872,291.55530363027066,-2.5622099640455285,7.62048,7.387199999999999,2.165780465594512,,-21.81250326063044,22.840452,59.046955,17.772141092100387,87.87074458596295,16.87065644995016,0.2831310417333486,0.004165351283312529,0.04231720674691835
2026-07-11T12:03:10+03:00,11.51,291.37,61.002816447578745,20.19816,288.9999118639872,295.8754054055571,0.7222133007624026,7.44552,7.83432,1.6386592940741544,,-17.463753595587495,22.839972,59.04708,17.821262509459686,82.43600788706803,11.43591975105528,0.9800793256253372,0.0036652793206427784,0.045982486067561126
2026-07-11T12:03:12+03:00,11.47,291.37,60.0001403060998,20.39256,305.99956964551876,299.8230846140085,3.6382247033012143,6.24024,7.13448,-1.1688339020668794,,-19.956120004406575,22.839868,59.047111,18.098153766085936,77.37402485068958,23.37359449620834,1.3640269331678687,0.003716121067765066,0.049698607135326194
2026-07-11T12:03:14+03:00,11.66,291.36,58.99746416462087,21.40344,311.9984377605385,304.6874962946692,0.539382468336157,7.348319999999999,7.095599999999999,-0.6589014644004466,,-10.118434662010339,22.839764,59.047148,18.710516683801714,78.66931754152792,30.667755302066382,1.4437335790718633,0.003909426282722144,0.05360803341804834
2026-07-11T12:03:16+03:00,11.62,291.36,56.99784145961429,21.40344,313.99806046554505,303.810870868119,0.44409958700590113,7.1928,7.1150400000000005,1.8105466326134017,,-11.820119313548883,22.839673,59.047193,18.496994514996423,76.03129239180764,30.029352857352706,1.7362838555668083,0.0039026695881218417,0.05751070300617018
2026-07-11T12:03:20+03:00,11.55,291.36,56.00089489608667,19.69272,319.99692858056477,305.1057554851147,3.859386412221712,6.24024,8.08704,-2.1199438419840457,,-10.30751073440351,22.839475,59.04728,17.00916187252545,73.70832178624632,33.70525036681107,1.7505576871256114,0.0037205848520645473,0.06123128785823473
2026-07-11T12:03:22+03:00,11.47,291.36,52.00164948607352,20.10096,309.9988150555319,308.8528994652703,-3.309977182470766,6.37632,7.03728,-0.4812845479098915,,-6.978625944693427,22.839394,59.047318,16.93791645280993,69.25846912198725,19.257284177519182,2.258191632659163,0.003389360214598715,0.06462064807283345
2026-07-11T12:03:24+03:00,11.81,291.37,52.99859604960115,20.7036,307.99919235052533,303.5931469059693,-0.029965692685342056,7.42608,6.68736,0.46982539200727513,,-8.594366926962348,22.839301,59.047364,17.283682611516316,73.06653471008245,21.0657270606078,2.1629274807485386,0.003988890085974206,0.06860953815880766
2026-07-11T12:03:26+03:00,11.58,291.36,54.99821875460771,20.003759999999996,307.99919235052533,300.14394097928175,-0.31426735062925654,6.53184,6.95952,0.9453803619658584,,-11.820119313548883,22.83922,59.047399,17.114909842706087,73.21538026777714,21.21457261830244,1.88623083677996,0.003270550293916439,0.0718800884527241
2026-07-11T12:03:28+03:00,11.55,291.36,54.99821875460771,18.895680000000002,306.99651620904643,302.18940030789884,0.6600473799907085,7.13448,6.57072,0.813600069085769,,-12.25556723784831,22.839129,59.047437,15.915150212750452,76.54146313892645,23.53797934797285,1.6604905009079114,0.0036237548449843653,0.07550384329770847
2026-07-11T12:03:30+03:00,11.55,291.37,56.00089489608667,18.60408,309.9988150555319,302.9285158636176,-1.6671925922716695,6.62904,7.095599999999999,0.8021409131831525,,-9.826226186493619,22.839035,59.047477,15.878657952656807,76.25053631263658,26.249351368168504,1.5755690152314406,0.0037716887819625716,0.07927553207967104
2026-07-11T12:03:32+03:00,11.58,291.36,54.00127219108009,18.60408,303.9999469405122,299.74287052269017,0.38680380749281873,6.940079999999999,6.1624799999999995,0.9511099399171665,,-15.045871700135418,22.838941,59.047514,15.57237177063829,75.13570147029667,19.13564841080887,1.780342792148577,0.0036593754610513445,0.08293490754072239
2026-07-11T12:03:34+03:00,11.55,291.36,56.99784145961429,18.895680000000002,312.9953843240661,302.5446341408799,0.9184513455947095,6.53184,7.542719999999999,0.8250592249883855,,-15.773528099951562,22.838847,59.047547,16.286843821705563,76.65192538246286,29.647309706528972,1.5079811577338356,0.003518435596015939,0.08645334313673833
2026-07-11T12:03:36+03:00,11.58,291.36,54.99821875460771,19.49832,304.9968935040398,304.79635827574407,-1.0244485376939119,7.07616,6.940079999999999,1.0198648753328654,,-18.22005788516018,22.838754,59.047586,16.491607150575717,75.57554468923382,20.572438193273626,1.7626946705994715,0.0037096411913663512,0.09016298432810468
2026-07-11T12:03:38+03:00,11.73,291.34,54.00127219108009,19.90656,315.9976831705516,304.8421948993545,2.949185658876886,6.92064,6.88176,0.7333859777674538,,-10.651285411482005,22.838656,59.04763,16.799331333747382,73.46970225391452,29.46738542446616,1.969076579556206,0.004021630572739561,0.09418461490084425
2026-07-11T12:03:40+03:00,11.66,291.36,52.00164948607352,18.895680000000002,307.99919235052533,303.86243706968077,0.18214328307208869,6.84288,6.006959999999999,0.4354479242994257,,-12.066491165455137,22.838565,59.047671,15.641817872647376,72.16766841011341,20.16686076063877,2.0955124954358637,0.0037400211604228604,0.09792463606126711
2026-07-11T12:03:42+03:00,11.4,291.35,54.00127219108009,19.303919999999998,328.99809554207,301.6279016686706,-2.084363162906422,4.87944,6.0652800000000004,0.3495042550298022,,-14.295296988514039,22.838487,59.047705,16.90337048271666,67.50685005251883,36.50494559458883,1.866741873798191,0.003160887829699601,0.10108552389096671
2026-07-11T12:03:44+03:00,11.7,291.35,52.99859604960115,19.49832,313.99806046554505,310.24518690743815,-0.7460483450398449,5.90976,7.29,0.49847328176381617,,-14.490102638858522,22.83841,59.04774,16.62559696849752,69.49044585283445,23.488506318379507,2.0705645979612637,0.003176846734127946,0.10426237062509466
2026-07-11T12:03:46+03:00,11.73,291.36,50.998973344594575,21.209039999999998,325.9957966955845,310.2738347971947,-2.717366934966955,6.454079999999999,6.5124,0.7047380880109125,,-9.413696573999426,22.838337,59.047784,17.865773727521887,67.30352264152872,33.29931933711322,2.4903023946595986,0.003476737803098634,0.1077391084281933
2026-07-11T12:03:48+03:00,11.73,291.35,48.999350639587995,22.29768,316.9946297340793,305.02554139379635,-3.337765635534611,6.454079999999999,6.6679200000000005,0.590146528984748,,-9.700175471564837,22.838252,59.047833,18.708580504555663,64.09059099840988,21.085220732489176,2.820107068381403,0.003947120172682673,0.11168622860087597
2026-07-11T12:03:50+03:00,11.58,291.35,50.998973344594575,20.898,309.9988150555319,300.47052692250634,-2.7514579237772394,6.454079999999999,6.14304,0.5385803274229739,,-14.06611387046171,22.838175,59.04787,17.567459848998066,67.5883229806922,17.587138036224133,2.4606747518017444,0.003257694835037511,0.11494392343591349
2026-07-11T12:03:52+03:00,11.58,291.35,52.99859604960115,20.29536,306.99651620904643,303.3811525217709,5.808245056579695,5.7153599999999996,6.84288,0.8193296470370772,,-11.310186875882449,22.838071,59.047901,17.46273239895611,68.15054525678468,15.147061465831143,2.1270804896171183,0.0037160571135948766,0.11865998054950837
2026-07-11T12:03:54+03:00,11.7,291.35,50.002026781066945,20.606399999999997,302.99727079903323,305.65579496844026,1.1517024639924678,6.62904,5.98752,0.836518380891002,,-14.725015334862157,22.837978,59.047933,17.11621702395382,67.26121051561493,10.25848131464818,2.5623262518977876,0.003459138500018406,0.12211911904952677
2026-07-11T12:03:56+03:00,11.58,291.35,50.998973344594575,21.50064,318.9999820170371,305.1344033748712,0.40731569655850225,5.754239999999999,6.940079999999999,1.0255944532841736,,-12.77122925346605,22.837897,59.047976,18.43004376406252,65.04123272221462,24.0412147392517,2.4280932382065004,0.0035987168746350905,0.12571783592416186
2026-07-11T12:03:58+03:00,11.43,291.36,52.99859604960115,20.9952,309.9988150555319,304.37236950734723,-2.5414688918617925,6.6095999999999995,6.53184,0.8995437383553924,,-14.799499848229162,22.837807,59.048012,17.817188728553095,70.23185025959894,20.230665315130864,2.2354648060572466,0.0035247177458174296,0.12924255366997928
2026-07-11T12:04:00+03:00,11.77,291.36,50.998973344594575,21.79224,314.99500702907267,308.0794064418437,1.1745634800181877,6.47352,6.88176,0.6531718864491385,,-9.001166961505232,22.83772,59.048048,18.418595301493664,66.84998608149583,21.84499311056851,2.5449989158346065,0.0034519757965258795,0.13269452946650515
2026-07-11T12:04:02+03:00,11.58,291.36,50.002026781066945,20.7036,315.9976831705516,305.6271470786837,-1.742651133890399,6.92064,6.6679200000000005,0.23491269600363757,,-9.889251543958009,22.83763,59.048093,17.098013895929753,68.06580718649724,24.063490357048863,2.5851457456715927,0.003880390728836162,0.13657492019534131
2026-07-11T12:04:04+03:00,11.62,291.35,50.002026781066945,20.10096,314.99500702907267,305.0312709717477,0.37586031360582006,6.337439999999999,7.03728,0.7276563998161455,,-13.172299710057626,22.837545,59.048133,16.7466706970045,66.8541567629489,21.849163792021557,2.491076263564877,0.0035616951419491956,0.14013661533729052
2026-07-11T12:04:06+03:00,11.43,291.35,50.002026781066945,19.20672,309.9988150555319,305.11148506306597,-0.9153573735010032,5.773680000000001,6.0264,-0.8995437383553924,,-9.56839517868475,22.837449,59.048167,16.114515384563845,65.93273888723274,15.931553942764651,2.3545575068719042,0.003603376009508235,0.14373999134679877
2026-07-11T12:04:08+03:00,11.43,291.35,50.002026781066945,20.29536,306.99651620904643,309.2024037203001,1.3851254697287652,6.1236,6.39576,0.14896902673401402,,-11.92325171667243,22.83737,59.0482,17.018657556476867,66.0024163050318,12.998932514078206,2.490456584594478,0.003146271207209129,0.14688626255400788
2026-07-11T12:04:10+03:00,11.58,291.37,46.99972793458143,20.898,311.9984377605385,310.0618404129963,0.08090164067247224,6.492959999999999,6.25968,0.5557690612768985,,-11.144029115294511,22.837293,59.048238,17.140695507016524,63.08324892566863,15.081686686207092,2.939333235716595,0.0032990035992603558,0.15018526615326824
2026-07-11T12:04:12+03:00,11.43,291.35,46.99972793458143,21.40344,318.9999820170371,312.3823194832761,-0.47326313877806,6.08472,6.59016,-0.2807493196141034,,-6.961437210839502,22.83722,59.048279,17.818290897943285,61.46226306297339,20.46224508001046,2.9068987711786862,0.0033415953511336926,0.15352686150440192
2026-07-11T12:04:14+03:00,11.43,291.35,46.99972793458143,21.79224,314.99500702907267,311.76352506453486,0.5023693947707057,6.1624799999999995,5.28768,1.501149423242757,,-7.9984908200262925,22.837152,59.048322,18.157644231123165,61.37141967958834,16.366426708661038,2.9526275291639834,0.003331584537266704,0.15685844604166863
2026-07-11T12:04:16+03:00,11.43,291.35,46.00278137105379,21.90888,317.9973058755582,311.7979025322427,-0.13682232147724058,5.754239999999999,6.1624799999999995,-0.24064227395494575,,-15.022953388330185,22.837088,59.048362,18.383944021848976,59.01544910917558,17.01275498473376,2.9623226373208027,0.003113714442578709,0.15997216048424734
2026-07-11T12:04:18+03:00,11.47,291.34,46.99972793458143,22.51152,321.9965512855714,313.1157054610436,-1.961177236953295,5.307119999999999,5.90976,-2.3663156938903005,,-17.263218367291703,22.837004,59.048398,19.28664596030286,58.60957220588581,20.606123491457197,2.7643038047518296,0.00338019529597425,0.1633523557802216
2026-07-11T12:04:20+03:00,11.66,291.34,46.00278137105379,23.405759999999997,310.9957616190596,315.22991972507634,-4.989832142014826,6.24024,5.7153599999999996,1.6157409822689215,,-11.969088340282898,22.836934,59.048431,19.592350147457854,59.248242128807405,10.244003747866998,3.1907561032342744,0.0029355346597071744,0.16628789043992875
2026-07-11T12:04:22+03:00,11.55,291.34,46.00278137105379,22.997519999999998,315.9976831705516,311.2879700945762,2.3318809304029378,6.045839999999999,5.69592,3.0882425157551374,,-16.186057712445756,22.836859,59.048473,19.29451099163305,59.02989662035556,15.027579790907168,3.1111332775060405,0.003427675479012526,0.16971556591894127
2026-07-11T12:04:24+03:00,11.55,291.35,43.99742908809592,20.9952,311.9984377605385,310.892629215936,1.3329290145923471,6.2208000000000006,6.74568,-0.07448451336700701,,-16.346485895082388,22.836787,59.048513,17.075921449091865,58.65573434247182,10.654172103010296,3.2359301193178585,0.003276426071376247,0.1729919919903175
2026-07-11T12:04:26+03:00,11.4,291.34,46.00278137105379,20.5092,322.9992274270503,315.52212820059304,0.6342642792098213,6.08472,6.6095999999999995,1.873571990077792,,-8.468316212033567,22.836714,59.048558,16.86069914753306,61.049634399493414,24.048861826543714,2.945319483756689,0.0035226450147726697,0.17651463700509018
2026-07-11T12:04:28+03:00,11.66,291.34,43.99742908809592,19.809359999999998,318.9999820170371,310.95565457340035,2.2017622151287273,6.10416,6.318,3.116890405511678,,-5.02483986329732,22.836644,59.048605,15.990608268134348,59.37403469819118,18.374016715228265,3.109650985486759,0.0035586244961979692,0.18007326150128816
2026-07-11T12:04:30+03:00,11.47,291.34,46.99972793458143,18.99288,314.99500702907267,304.7906286977927,-1.0030199161560192,5.7153599999999996,5.326560000000001,0.14896902673401402,,-16.552750701329483,22.836572,59.04865,15.66303510489575,62.47758698860818,17.472594017680876,2.6410424771934418,0.0035029169961498688,0.18357617849743804
2026-07-11T12:04:32+03:00,11.51,291.34,50.002026781066945,18.29304,309.9988150555319,306.6985781555784,1.213123539630492,5.98752,7.01784,-1.5068790011940651,,-23.800666809734395,22.836492,59.048687,15.15528502062758,67.61924380749066,17.618058863022554,2.2798070950393714,0.0033260229872963615,0.1869022014847344
2026-07-11T12:04:34+03:00,11.58,291.34,48.00240407606037,19.10952,310.9957616190596,308.9101952447833,-1.9799129568540728,6.454079999999999,6.72624,0.888084582452776,,-20.042063673676196,22.836397,59.048722,15.549372664744046,65.96938554207279,16.965147161132336,2.6282608784029704,0.003612588217480463,0.19051478970221486
2026-07-11T12:04:36+03:00,11.58,291.35,46.00278137105379,20.7036,316.9946297340793,314.5882069945298,5.717087471374381,6.2208000000000006,6.454079999999999,2.4637185190625397,,-9.843414920347545,22.836309,59.048765,16.98270273849376,61.28110080124384,18.275730535323135,2.989174031346246,0.003752470291863144,0.194267259994078
2026-07-11T12:04:38+03:00,11.62,291.34,45.00010522957485,21.306240000000003,321.9965512855714,314.77728306692296,0.746850485953028,6.39576,7.503839999999999,3.3116960558561583,,-4.3258313532377155,22.836244,59.048806,17.38239482555665,60.08065050124105,22.077201786812452,3.1900801990012906,0.003179787053230854,0.19744704704730887
2026-07-11T12:04:40+03:00,11.73,291.35,46.00278137105379,20.8008,319.99692858056477,309.88422349650574,0.4065708514248322,6.27912,7.251119999999999,0.6760901982543714,,-21.663534233896424,22.836179,59.04885,17.048463031568787,61.36691090189696,21.363839482461742,3.008946927850764,0.003321495867239457,0.20076854291454832
2026-07-11T12:04:42+03:00,11.58,291.34,43.000482524568284,20.19816,308.99613891405295,311.7979025322427,3.285741067736732,6.940079999999999,6.55128,-0.07448451336700701,,-26.682644519242437,22.836092,59.04889,15.845954601951883,60.379942875622945,9.37608178967588,3.4301082662034648,0.0036075083162610245,0.20437605123080935
2026-07-11T12:04:44+03:00,11.66,291.35,41.99780638308934,21.209039999999998,317.9973058755582,318.495779157322,1.302275772552848,6.95952,7.503839999999999,1.1573747461642627,,-20.32854257124161,22.836004,59.048935,16.699321517897936,58.189473299043584,16.18677917460178,3.6684460444023332,0.0038362530550887794,0.20821230428589813
2026-07-11T12:04:46+03:00,11.62,291.34,43.000482524568284,21.69504,339.9988852085818,318.86247214620573,-0.5683741327697767,6.10416,7.13448,-2.200157933302361,,-11.906062982818508,22.835954,59.048985,17.72655399440187,56.58320861609195,36.582093824673734,3.361715842153916,0.003379569479383575,0.2115918737652817
2026-07-11T12:04:48+03:00,11.73,291.34,43.99742908809592,22.20048,333.9942875156107,317.9571988298991,-2.630907603681714,5.98752,6.92064,-1.627200138171538,,-14.71355617895954,22.835891,59.04904,18.370241120423778,57.08285418234665,31.07714169795736,3.2537721435943117,0.003836943139606304,0.21542881690488802
2026-07-11T12:04:50+03:00,11.73,291.34,41.00085981956171,22.20048,320.9996047220437,322.1111428445975,3.6039045313728777,5.90976,6.35688,2.125673419935354,,-8.525611991546649,22.835824,59.049087,18.159132871628128,53.32918662229217,14.328791344335912,3.5294070270179727,0.0035029849701973294,0.21893180187508535
2026-07-11T12:04:52+03:00,11.66,291.34,39.998183678082775,21.79224,334.99696365708974,325.3712726988919,0.8444824942433204,5.38488,6.0652800000000004,2.1199438419840457,,-11.940440450526356,22.835772,59.049134,18.00292733804763,51.082760466677286,26.07972412376705,3.3827664961676738,0.0032503933153595465,0.22218219519044488
2026-07-11T12:04:54+03:00,11.58,291.34,37.998560973076195,22.29768,336.99658636209637,326.4656220875917,2.7834289687455387,5.6376,5.50152,2.0569184845196555,,-9.13867683233663,22.835723,59.049188,18.189303573956643,48.99874970356893,25.9953360656653,3.698691227230405,0.00358187588744237,0.22576407107788726
2026-07-11T12:04:56+03:00,11.55,291.33,39.00123711455514,22.60872,337.99926250357527,326.25935728134465,-1.1335397018868207,5.346,6.337439999999999,-0.7276563998161455,,-8.16464858061423,22.835674,59.04924,18.758353758967665,49.333529037564716,27.332791541139954,3.4837456946173004,0.0034733103850731876,0.22923738146296044
2026-07-11T12:04:58+03:00,11.55,291.33,39.00123711455514,23.094720000000002,339.9988852085818,327.995419400591,-1.3582537491371296,4.996079999999999,6.2208000000000006,-2.114214264032738,,-9.682986737710912,22.835614,59.049282,19.467693012907432,48.295765412614486,28.294650621196297,3.3238197556688234,0.0031326557028005498,0.232370037165761
2026-07-11T12:05:00+03:00,11.88,291.33,35.99893826806962,23.21136,320.9996047220437,330.1440111323317,0.713389750717388,6.045839999999999,5.404319999999999,1.942326925493491,,-10.066868460448564,22.835552,59.049321,18.661568493425552,46.976325139896204,7.975929861939903,4.125079656713395,0.003027995346852406,0.2353980325126134
2026-07-11T12:05:02+03:00,11.85,291.34,33.99931556306306,21.90888,330.99771824707665,330.4705970755562,2.3890048225774803,5.38488,5.13216,3.277318588148309,,-9.49391066531774,22.835513,59.049362,17.702546776600908,43.79271944946413,14.790437696540778,3.8870657877363843,0.002743514565094587,0.238141547077708
2026-07-11T12:05:04+03:00,11.58,291.32,33.00236899953541,21.209039999999998,337.99926250357527,330.6424844140955,-0.2935262784455207,5.07384,5.67648,-2.6241467016991704,,-4.583662361046586,22.835467,59.049409,17.17763830495521,42.26051220296185,20.259774706537087,3.755122367517792,0.003162768112556812,0.2413043151902648
2026-07-11T12:05:06+03:00,11.66,291.33,37.998560973076195,20.39256,336.99658636209637,328.79183073582294,-3.4100156135006077,4.957199999999999,5.46264,-1.111538122553797,,-9.436614885804659,22.835431,59.049449,16.766251736183417,48.486230951407265,25.48281731350363,3.28563223212126,0.002649377202440795,0.2439536923927056
2026-07-11T12:05:08+03:00,11.58,291.33,35.00199170454199,19.40112,342.99545447711597,326.20206150183157,-4.360953666079235,3.61584,4.68504,-0.492743703812508,,-13.160840554155008,22.835404,59.049486,16.569590131181222,42.192732117525736,25.188186594641707,2.678938963806855,0.002375450675919626,0.24632914306862522
2026-07-11T12:05:10+03:00,11.77,291.32,37.001614409548566,20.606399999999997,323.9961739905779,324.51183600619567,-4.61849819499054,4.859999999999999,4.80168,-0.590146528984748,,-14.868254783644863,22.835353,59.04952,16.978947272625316,46.92132975972291,10.917503750300853,3.3193892608154747,0.002581113074537754,0.24891025614316298
2026-07-11T12:05:12+03:00,11.58,291.34,37.001614409548566,20.606399999999997,326.99847283706345,323.37164999388534,-3.0581049357312557,5.326560000000001,5.0544,1.9308677695908742,,-15.49850835828877,22.835306,59.049561,16.663770868406207,48.093141259770874,15.091614096834292,3.5577247463375974,0.002860826118208604,0.25177108226137157
2026-07-11T12:05:14+03:00,11.66,291.34,39.00123711455514,19.59552,326.99847283706345,322.08822453279225,1.2677264175064593,4.996079999999999,5.07384,1.386557864216592,,-9.40223741809681,22.835254,59.049596,16.02440263474556,50.31691241592222,17.315385252985664,3.1902003224091815,0.0026476132161414702,0.25441869547751306
2026-07-11T12:05:16+03:00,11.7,291.33,39.998183678082775,19.69272,324.9988501320569,322.8387992444136,3.0723142890505004,4.82112,6.337439999999999,-0.6760901982543714,,-10.124164239961647,22.83521,59.049631,16.296765037569088,50.959754958352136,15.958605090409037,3.0366600986789942,0.0025051811837898965,0.25692387666130295
2026-07-11T12:05:18+03:00,11.66,291.34,37.998560973076195,19.90656,332.9973409520831,329.55386460334694,4.2640092071431,4.43232,5.38488,-0.5099324376664327,,-11.79720100174365,22.835161,59.049672,16.639048915728623,47.43741835285633,20.434759304939462,2.9979995291942823,0.0028927135126076767,0.2598165901739106
2026-07-11T12:05:20+03:00,11.58,291.33,35.00199170454199,21.597839999999998,336.99658636209637,345.21853072222365,11.349033414392322,4.4712,3.9851999999999994,0.1546986046853223,,-10.324699468257435,22.835124,59.049713,18.117781162749928,43.139956134191635,20.13654249628803,3.262570286679633,0.002716907910169215,0.26253349808407983
2026-07-11T12:05:22+03:00,11.58,291.33,24.99814860155782,22.29768,342.99545447711597,7.081758347816976,13.38297629132723,3.9851999999999994,3.5964,-0.5385803274229739,,-3.179915762976069,22.835095,59.049747,18.76154606642798,30.148148781815138,13.14360325893108,3.4461206736871053,0.0022316425581785987,0.2647651406422584
2026-07-11T12:05:24+03:00,11.55,291.33,9.001166961505232,21.597839999999998,349.9969987336147,30.515732168667643,12.265708590822124,3.81024,3.12984,-1.0255944532841736,,1.4610423775835992,22.835088,59.04978,17.84448272796031,10.915599645345509,0.9125983789601833,3.741302060000598,0.0019953230525728534,0.26676046369483125
2026-07-11T12:05:26+03:00,11.77,291.33,-7.997631383333596,20.898,3.9992454100131463,48.60973933889905,11.905719208141429,2.64384,2.8188,-0.37242256683503505,,4.732631387780601,22.835099,59.049806,18.283575112224256,9.150430195264533,354.84881521474864,2.610195068092521,0.001599367017213235,0.2683598307120445
2026-07-11T12:05:28+03:00,11.58,291.33,-20.00109719132434,18.09864,62.99670957463401,65.83285066053159,4.435839249902834,3.2270399999999997,2.97432,-0.8995437383553924,,14.048925136607787,22.835144,59.049816,15.106613149484206,24.191170126317218,38.80553944831679,2.943651927793872,0.0015153897548293772,0.2698752204668739
2026-07-11T12:05:30+03:00,11.55,291.33,-39.00037767786244,17.009999999999998,80.99904349764448,77.01125724353396,2.945289545869997,3.07152,3.81024,-1.4381240657783663,,18.970632596781556,22.83519,59.049818,14.750198976083,46.53054124799576,34.46850224964872,2.1131069200028527,0.0014270683236730915,0.27130228879054696
2026-07-11T12:05:32+03:00,11.88,291.33,-54.00041275438739,16.69896,96.99602513769707,89.36995688450581,7.974483888410311,4.33512,3.888,-1.380828286265284,,18.099736748182707,22.83526,59.049807,14.579008185214155,67.92032252744558,29.075702610251497,1.6295525525133907,0.0022626663747707327,0.2735649551653177
2026-07-11T12:05:34+03:00,11.51,291.32,-69.00044783091235,16.79616,112.99873635570096,102.50787912685558,1.1687193105078533,5.22936,4.93776,-1.2490479933851946,,17.750232493152904,22.83535,59.049794,15.700487078003459,87.11684816666771,25.881888189033248,0.2630329303929065,0.0028898167047434527,0.2764547718700612
2026-07-11T12:05:36+03:00,11.62,291.32,-82.00086020243072,17.398799999999998,104.99451595772337,112.68933914633031,8.557124670278846,4.510079999999999,5.38488,-0.6073352628386726,,10.14708255176688,22.83542,59.049779,17.355678478363586,96.91276080524541,8.081755152477953,-0.5428239418649787,0.0023442294505369764,0.27879900132059815
2026-07-11T12:05:38+03:00,11.43,291.32,-89.99935102245702,18.50688,125.99914872721935,123.20884426493222,2.326094056672116,5.46264,6.1236,-0.865166270647543,,11.006519244463114,22.835506,59.049755,19.29618493140819,106.44432047370323,19.55482825351612,-1.5463829133697404,0.0030246932704905386,0.2818236945910887
2026-07-11T12:05:40+03:00,11.58,291.32,-101.00014068896883,17.70984,134.99458611077327,128.76653487770122,3.209766864102385,7.13448,7.1928,-1.1344564343590302,,13.275432113181173,22.835587,59.04971,20.31643350753901,121.16459041002766,13.829995700745613,-3.69208115330342,0.003685917966070122,0.2855096125571588
2026-07-11T12:05:42+03:00,11.55,291.32,-102.9997633939754,17.70984,132.9949634057667,129.44262507595556,-2.9139487544763405,5.98752,6.804,-1.065701498943331,,11.877415093061966,22.835664,59.049669,19.929744217620474,120.02132700066883,12.973636405097864,-2.9956899145500775,0.0034262524677416873,0.2889358650249005
2026-07-11T12:05:44+03:00,11.28,291.32,-102.00281683044777,15.804720000000001,135.99726225225223,120.20081584049541,-0.9888105628367746,7.23168,7.6788,-1.283425461093044,,14.398429391637588,22.835742,59.049621,18.698228838774625,124.23135823154516,11.765904020707069,-4.068080040172212,0.0037600800388056838,0.29269594506370616
2026-07-11T12:05:46+03:00,11.73,291.32,-97.00089527895568,15.70752,132.9949634057667,119.0090636266233,-0.032429411204404596,7.40664,7.46496,-1.449583221680983,,16.621505636745184,22.83583,59.04957,18.164378737966924,120.87423784547933,12.120725560287369,-3.800757198122572,0.004098486956329474,0.29679443202003564
2026-07-11T12:05:48+03:00,11.47,291.32,-93.99859643247017,17.009999999999998,131.99801684223905,114.53426324665156,-2.347236199312444,7.01784,6.940079999999999,-1.948056503444799,,17.65855924593197,22.835918,59.049528,18.84777140638481,115.8028554407473,16.19516140149176,-3.054697098404151,0.003711278299202556,0.3005057103192382
2026-07-11T12:05:50+03:00,11.4,291.33,-91.99897372746359,17.5932,121.9999033172062,115.93228026677077,-0.7020451863737978,7.29,7.46496,-2.0225410168118056,,18.661235387410912,22.836018,59.04949,19.277246288495707,114.20486058572114,7.7950427314850685,-2.9889029922311057,0.003843612912911998,0.3043493232321502
2026-07-11T12:05:52+03:00,11.58,291.32,-93.99859643247017,17.80704,122.99684988073382,120.55032009552522,5.227666922773632,6.53184,7.387199999999999,-1.948056503444799,,16.844959176846203,22.836117,59.049455,19.39012777879505,113.6346439855428,9.362205895191025,-2.6186345098007946,0.003713755087907265,0.30806307832005747
2026-07-11T12:05:54+03:00,11.43,291.32,-95.00127257394911,19.20672,119.9945510342483,130.55416319850937,3.9971254661711626,6.6679200000000005,6.88176,-1.4896902673401402,,11.424778434908614,22.83622,59.049422,20.8731596315235,113.55738612792346,6.437164906324838,-2.6649500826660932,0.0037513712612934616,0.3118144495813509
2026-07-11T12:05:56+03:00,11.28,291.32,-102.9997633939754,18.195839999999997,140.99918380374427,135.52743686024493,0.03323155211758775,7.40664,8.6508,-1.5641747807071475,,13.051978573080152,22.836315,59.049375,21.132419369223566,122.96832299523257,18.030860808511704,-4.030510378495159,0.004074993962534222,0.31588944354388515
2026-07-11T12:06:04+03:00,11.58,291.32,-99.00051798396224,14.21064,131.99801684223905,133.04652960732844,2.3304485359151106,6.39576,6.25968,-0.836518380891002,,8.51988241359534,22.836658,59.049144,16.470751059457868,121.55295899612992,10.445057846109137,-3.346814508720445,0.0037141801821720397,0.3196036237260572
2026-07-11T12:06:06+03:00,11.43,291.32,-102.00281683044777,14.79384,139.99650766226534,131.14430972749415,-3.4991678464229636,6.62904,7.6593599999999995,-0.7104676659622208,,7.61460909728864,22.836724,59.049095,17.42385349465854,123.85047046497108,16.146037197294262,-3.692556873792926,0.0035829418564462313,0.32318656558250347
2026-07-11T12:06:10+03:00,11.73,291.31,-97.99784184248331,13.802399999999999,137.99688495725877,124.33184154338863,1.1339980681229254,6.95952,6.68736,-1.0313240312354817,,13.057708151031461,22.836887,59.048984,16.299429431007837,123.010992439539,14.985892517719776,-3.7915459915323555,0.004149309606327584,0.32733587518883106
2026-07-11T12:06:12+03:00,11.43,291.31,-97.00089527895568,16.50456,137.99688495725877,122.66453435955793,-7.793028154692379,6.39576,6.9984,-1.6615776058793876,,16.180328134494445,22.836966,59.048944,18.412994947846965,117.16807657213303,20.82880838512574,-2.92031873245077,0.0034270924475953294,0.3307629676364264
2026-07-11T12:06:14+03:00,11.4,291.31,-89.99935102245702,16.50456,127.99877143222591,105.64768784417251,-7.85066770888254,7.270560000000001,6.7068,-2.7158199489201023,,21.35413702452578,22.837063,59.048898,18.034933466344302,113.77382385066234,14.224947581563569,-2.9309608281270547,0.004078821639620495,0.33484178927604685
2026-07-11T12:06:16+03:00,11.7,291.32,-78.99856135594521,16.893359999999998,111.99606021422201,95.54071233806476,0.45573063024705673,6.95952,7.542719999999999,-2.4751776749651566,,20.609291890855715,22.837175,59.048868,16.998471438599005,102.6953325912965,9.300727622925507,-1.5294709873616656,0.003903777170815875,0.3387455664468627
2026-07-11T12:06:18+03:00,11.55,291.31,-76.99893865093864,18.701279999999997,96.99602513769707,102.79435802442099,6.1776309471005355,6.62904,6.804,-1.3693691303626676,,13.842660330360689,22.837307,59.048857,18.382124893175106,97.57068219777263,359.42534293992446,-0.8733705558547633,0.0041338422170754,0.3428794086639381
2026-07-11T12:06:20+03:00,11.47,291.31,-78.00161479241758,19.10952,111.99606021422201,108.50101766392399,3.6510016621326318,6.78456,7.776,-2.274642446669368,,16.512643655670328,22.837422,59.048835,18.902375164228154,98.55530918565343,13.440751028568585,-1.0092987331200127,0.0037930630975071284,0.3466724717614453
2026-07-11T12:06:24+03:00,11.55,291.33,-72.9996932409255,18.195839999999997,103.99756939419571,102.98916367476548,3.863339821008115,7.83432,9.078479999999999,-3.0710537819012123,,20.993173613593363,22.837666,59.048778,17.581448788394717,98.22191174067208,5.7756576535236235,-1.120366089561131,0.004066860050084248,0.3507393318115295
2026-07-11T12:06:26+03:00,11.51,291.31,-76.99893865093864,19.10952,109.99643750921543,110.37458965400177,9.845878638866605,7.814879999999999,8.67024,1.088619810748564,,16.85641833274882,22.837788,59.048753,18.948692819245142,100.69288783202859,9.303549677186837,-1.4500091079185469,0.004059835744558052,0.35479916755608754
2026-07-11T12:06:28+03:00,11.77,291.32,-84.0004829074373,19.10952,121.9999033172062,117.6110466065041,-3.706693159819348,6.318,7.542719999999999,-1.6386592940741544,,17.790339538812063,22.837892,59.048722,19.489808482607074,102.80824120991463,19.191662107291577,-1.4006295676795582,0.003715988140294988,0.35851515569638254
2026-07-11T12:06:30+03:00,11.1,291.32,-84.0004829074373,17.5932,124.99647258574039,113.94984629561812,-2.0369222574695893,7.15392,9.31176,-1.6902254956359284,,23.93244710261449,22.837993,59.048686,18.286317032101316,106.8973961057425,18.09907647999789,-2.079349154655337,0.003798839749818348,0.3623139954462009
2026-07-11T12:06:34+03:00,11.55,291.31,-84.0004829074373,18.09864,126.99609529074696,117.74855647733548,0.0930483459292457,6.8623199999999995,7.503839999999999,-1.753250853100319,,15.888119658977729,22.838218,59.048611,18.673234796249297,105.4377394291415,21.558355861605463,-1.8266884241812833,0.003940932935916761,0.36625492838211765
2026-07-11T12:06:36+03:00,11.28,291.31,-80.99818406095179,17.2044,125.99914872721935,113.40553639024384,-1.385813019082922,7.17336,7.950959999999999,-1.0255944532841736,,19.079494577856416,22.838319,59.048575,17.573518206648703,104.77430396724117,21.224844759978183,-1.829293819625959,0.0037988480398393216,0.37005377642195697
2026-07-11T12:06:38+03:00,11.43,291.31,-82.00086020243072,16.407359999999997,123.99952602221278,115.27910838032165,4.235647796284124,7.44552,7.85376,-3.3059664779048505,,19.881635491039564,22.838418,59.048535,17.048100224119946,107.62633512896966,16.37319089324312,-2.2545628586720405,0.0038919569185164055,0.3739457333404734
2026-07-11T12:06:40+03:00,11.58,291.31,-84.99742947096492,17.107200000000002,121.9999033172062,113.58315330673439,0.6548907598345309,7.698239999999999,8.1648,0.47555496995858326,,15.487049202386151,22.838522,59.048497,18.137017678784936,110.01095751626765,11.988945800938552,-2.634336560468053,0.0039438242827856155,0.377889557623259
2026-07-11T12:06:42+03:00,11.55,291.31,-84.99742947096492,16.69896,121.9999033172062,119.31273125804263,0.9455522493043976,6.55128,6.88176,-1.0026761414789407,,15.452671734678303,22.838629,59.048463,17.398136554383523,107.02893113326424,14.970972183941967,-1.918572138835065,0.0038882122199691196,0.3817777698432281
2026-07-11T12:06:44+03:00,11.62,291.31,-84.99742947096492,17.5932,121.9999033172062,120.01746934605355,4.5987311510585265,6.6095999999999995,6.648479999999999,-0.7104676659622208,,4.95608492788162,22.838728,59.048427,18.24630003047657,106.15066186409054,15.849241453115667,-1.8385533124552305,0.003748206985062791,0.3855259768282909
2026-07-11T12:06:46+03:00,11.62,291.31,-89.99935102245702,17.2044,137.99688495725877,126.1882247996125,-7.030994287168384,5.79312,8.1648,-3.0252171582907463,,12.226919348091768,22.838806,59.048391,18.153494453564132,108.60898849358311,29.38789646367566,-1.848630879902194,0.0032398733186360233,0.3887658501469269
2026-07-11T12:06:48+03:00,11.25,291.31,-89.00240445892939,16.50456,128.99571799575352,126.64659103571715,6.186740976043117,6.95952,6.84288,-0.22345354010102106,,15.613099917314935,22.838894,59.048349,17.799880860916133,112.01463561818437,16.98108237756915,-2.6087302837943973,0.0037113467217003582,0.39247719686862725
2026-07-11T12:06:52+03:00,11.62,291.31,-95.00127257394911,17.496,132.9949634057667,116.25886620999535,-4.311851183036524,5.773680000000001,5.67648,-1.5183381570966814,,18.517995938628204,22.839083,59.048254,18.895982884249392,112.72258201986499,20.27238138590171,-2.2301971382102566,0.003734071998367529,0.39621126886699476
2026-07-11T12:06:54+03:00,11.43,291.31,-87.99972831745043,16.09632,132.9949634057667,110.55793614844364,-4.360151525166052,6.5124,7.93152,-1.0485127650894066,,16.82204086504097,22.839166,59.048216,17.151826469471125,110.29996496354696,22.69499844221974,-2.259380002310629,0.0034352423826092687,0.39964651124960404
2026-07-11T12:06:56+03:00,11.47,291.32,-84.99742947096492,17.496,119.9945510342483,107.29207671619795,-0.6613078871399962,7.095599999999999,8.1648,-1.0026761414789407,,16.17459855654314,22.839272,59.048181,18.29772187359278,107.72244694808073,12.272104086167573,-2.1599450923295547,0.003894111192604208,0.40354062244220823
2026-07-11T12:07:04+03:00,11.51,291.32,-72.9996932409255,18.895680000000002,101.99794668918915,98.33101680035188,1.6711460010580719,6.4152,7.1928,-1.2891550390443522,,16.071466153419593,22.83977,59.048077,18.091929966175,92.82141665104137,9.176530038147774,-0.315776102934929,0.003657049953695465,0.4071976723959037
2026-07-11T12:07:06+03:00,11.58,291.33,-72.9996932409255,18.99288,108.99949094568781,98.93262248523924,-2.0546266533391324,7.056719999999999,8.514719999999999,0.022918311805232933,,19.916012958747416,22.83989,59.04806,18.225085882751813,94.73250898144556,14.266981964242248,-0.5822074593833181,0.0038478999037753073,0.41104557229967903
2026-07-11T12:07:08+03:00,11.55,291.33,-72.9996932409255,19.59552,103.99756939419571,97.2939631911651,-3.0189719183238206,7.348319999999999,8.242560000000001,0.13178029288008933,,18.970632596781556,22.840017,59.048039,18.809069761321684,94.9380076905075,9.059561703688203,-0.6325275077451166,0.004124067931385472,0.4151696402310645
2026-07-11T12:07:10+03:00,11.58,291.32,-74.00236938240442,20.003759999999996,98.99564784270365,99.79778875588678,-1.5475017088688403,6.47352,7.5816,-2.6527945914557116,,15.33235059770083,22.840127,59.048029,19.253051574570733,92.85966442228045,6.1359834204232016,-0.32296288039622134,0.003453314837749754,0.41862295506881425
2026-07-11T12:07:12+03:00,11.36,291.31,-69.00044783091235,19.69272,107.99681480420887,92.1373430349877,-6.479808888252532,6.92064,8.30088,-6.216592077169432,,23.674616094805618,22.840248,59.048011,18.38529949244218,89.57474589475765,18.422068909451212,0.05136510185166758,0.0038939891633432305,0.42251694423215747
2026-07-11T12:07:14+03:00,11.66,291.33,-61.99890357441368,19.59552,95.99907857416943,64.98487312373797,-16.09730654997999,7.2122399999999995,7.85376,-3.116890405511678,,20.007686205968348,22.840375,59.047996,17.41543746310987,83.44653077288461,12.552547801284817,0.8231356887256046,0.004028347435270884,0.42654529166742833
2026-07-11T12:07:16+03:00,11.73,291.32,-46.0019219343611,22.103279999999998,63.999385716112954,33.420628189980924,-13.536643571981317,5.98752,6.318,-4.205510216260243,,11.201324894807593,22.840488,59.048011,18.45384158817136,59.49948627712162,4.499899438991335,3.0389423554651662,0.0036078237405869572,0.43015311540801526
2026-07-11T12:07:18+03:00,11.7,291.31,-27.002641447823002,23.405759999999997,30.99701671657754,5.202456779787875,-11.87025312062283,5.57928,5.151599999999999,-0.246371851906254,,3.707036934496426,22.840561,59.048054,18.607933274742287,34.82683054719857,356.17018616937895,4.579929769344558,0.0034312242706954653,0.43358433967871074
2026-07-11T12:07:20+03:00,11.58,291.31,-9.000307524812538,22.394879999999997,4.996191973540778,342.8522150283333,-8.57975650318651,4.93776,3.8491199999999997,2.2803720246206765,,-1.0370536091867901,22.84059,59.048104,17.53493896049199,11.5251604091645,353.4710315643763,4.838200247828502,0.003136254746730502,0.43672059442544126
2026-07-11T12:07:22+03:00,11.62,291.32,7.9984908200262925,20.39256,339.9988852085818,321.6814244982494,-4.740767388471458,4.19904,3.6935999999999996,0.6818197762056798,,-18.495077626822972,22.840578,59.048148,16.244880323832376,10.059707794029379,350.05859300261113,4.134485050631444,0.0026706307541283602,0.43939122517956963
2026-07-11T12:07:24+03:00,11.55,291.32,26.997771306564392,19.49832,321.9965512855714,314.02097877735025,-6.716898823877666,3.888,5.1127199999999995,-0.6474423084978302,,-25.81174867064359,22.840528,59.048174,16.13086755207688,33.279441899249576,355.275993184821,3.250384720512196,0.0021980907290200385,0.4415893159085897
2026-07-11T12:07:26+03:00,11.96,291.31,37.998560973076195,18.701279999999997,313.99806046554505,311.85519831175577,-2.66373808534271,4.393439999999999,5.5404,3.3689918353692403,,-16.0771957313709,22.840452,59.048204,15.477308194603504,48.063141651103535,2.0612021166485874,2.936185301451493,0.002961718134536346,0.444551034043126
2026-07-11T12:07:28+03:00,12.0,291.32,46.00278137105379,19.49832,305.99956964551876,310.07902914685025,5.53305342757836,5.307119999999999,6.492959999999999,1.552715624804531,,-10.69712203509247,22.840376,59.048238,16.266248548592902,59.57713054482946,5.57670019034822,2.6874087784353398,0.003113948626147954,0.44766498266927396
2026-07-11T12:07:30+03:00,11.47,291.31,50.998973344594575,20.003759999999996,308.99613891405295,306.933490851582,-6.2087998511556535,5.7348,6.18192,-0.544309905374282,,-15.338080175652138,22.840299,59.048271,16.98961292153276,66.20672929338319,15.202868207436154,2.313635285193844,0.0030985190337507454,0.4507635017030247
2026-07-11T12:07:32+03:00,11.62,291.31,54.00127219108009,19.69272,311.9984377605385,300.97472978222146,-2.2886799126500734,5.832,6.78456,-2.3548565379876836,,-23.97828372622495,22.840212,59.048306,16.935398335718375,70.17815404367369,22.176591804212194,1.977611594398498,0.0034146023915810216,0.45417810409460574
2026-07-11T12:07:34+03:00,11.88,291.31,52.99859604960115,19.20672,299.99497195254776,308.46901774253257,1.1397849418537467,5.851439999999999,6.72624,-1.2204001036286536,,-17.63564093412674,22.840118,59.048335,16.3664507778261,69.58901386673116,9.58398581927895,2.040699994414672,0.0033886564040722846,0.457566760498678
2026-07-11T12:07:36+03:00,11.73,291.31,52.00164948607352,19.90656,309.9988150555319,310.8296038584716,-1.5983803610764578,5.57928,6.57072,1.1688339020668794,,-8.250592249883853,22.840036,59.048378,17.048417768638522,66.94660085497058,16.945415910502504,2.184783899365909,0.0036202754335431632,0.46118703593222116
2026-07-11T12:07:38+03:00,11.58,291.32,54.00127219108009,20.19816,315.9976831705516,301.8742735205768,1.0303500029837593,6.804,6.492959999999999,2.5725805001373967,,-10.880468529534333,22.839958,59.048424,17.108722557635044,72.76974066016624,28.76742383071786,2.0154299539065845,0.0036687042176581468,0.4648557401498793
2026-07-11T12:07:40+03:00,11.58,291.32,52.99859604960115,19.40112,298.9980253890201,304.20621174675927,5.106142574426384,7.07616,5.890319999999999,1.3521803965087429,,-18.225787463111487,22.839852,59.048457,16.162588184923393,73.4641999032888,12.462225292308858,2.0139769487569623,0.0038304818516914254,0.46868622200157073
2026-07-11T12:07:42+03:00,11.7,291.31,52.00164948607352,19.59552,308.99613891405295,304.5442568458864,1.2996401666952462,6.68736,6.72624,1.6443888720254627,,-14.169246273585257,22.839765,59.048491,16.351016672307132,70.80334617166436,19.799485085717322,2.198880825695715,0.00337788968142463,0.47206411168299534
2026-07-11T12:07:44+03:00,11.55,291.32,54.00127219108009,18.99288,303.9999469405122,302.7623581030296,6.008035439741812,7.056719999999999,7.9120800000000004,0.962569095819783,,-19.113872045564264,22.839662,59.048531,15.905121889130864,75.03682443731743,19.03677137782961,1.8220322872061143,0.003989930423918832,0.47605404210691415
2026-07-11T12:07:46+03:00,11.58,291.32,54.99821875460771,19.49832,314.99500702907267,302.92278628566623,-1.5821083596947423,6.78456,6.55128,1.5355268909506061,,-14.42134770344282,22.839571,59.048567,16.566652912702647,74.59878957788752,29.593796606960154,1.8018195954677458,0.003549135588030802,0.479603177694945
2026-07-11T12:07:48+03:00,11.62,291.32,56.00089489608667,18.99288,296.9984026840135,295.8009208921901,0.15343809753603446,7.07616,6.37632,1.1745634800181877,,-22.419838523469114,22.839472,59.0486,16.139941048491874,77.31465369085143,14.313056374864914,1.5539013788620375,0.003647067591474824,0.4832502452864198
2026-07-11T12:07:50+03:00,11.58,291.32,58.000517601093236,20.10096,301.99459465755433,297.4052027185564,2.294065715924303,7.23168,7.251119999999999,2.039729750665731,,-17.647100090029355,22.83937,59.048634,17.386372678496798,78.65543766260315,20.650032320157493,1.422534858142038,0.003757582211100035,0.4870078274975198
2026-07-11T12:07:52+03:00,11.85,291.32,56.99784145961429,19.49832,294.99877997900694,297.3249886272381,0.8636192846006899,7.36776,7.75656,1.4266649098757496,,-18.28308324262457,22.839259,59.048663,16.6725749978542,78.75089621108032,13.749676190087257,1.4372656398875179,0.0038488129119750906,0.4908566404094949
2026-07-11T12:07:54+03:00,11.47,291.32,56.00089489608667,19.303919999999998,304.9968935040398,300.21842549264875,10.864998669065802,6.6095999999999995,7.56216,2.182969199448437,,-18.374756489845502,22.839164,59.0487,16.54192456256565,75.34611568071084,20.343009184750656,1.6720922273450136,0.003683893075018615,0.4945405334845135
2026-07-11T12:07:56+03:00,11.58,291.32,54.00127219108009,18.60408,301.99459465755433,305.5068259417062,1.8182242670681543,7.056719999999999,8.88408,1.627200138171538,,-13.945792733484236,22.839056,59.048734,15.542858904338845,75.55128768418317,17.545882341737524,1.7607453334256111,0.003914525870062038,0.4984550593545755
2026-07-11T12:07:58+03:00,11.58,291.32,52.99859604960115,19.809359999999998,314.99500702907267,300.31009873986966,-0.15538615403947925,6.82344,7.03728,-0.790681757280536,,-20.15665523270236,22.838967,59.04878,16.62144835670166,72.13692354874694,27.131930577819617,2.09304457735315,0.003900619865352909,0.5023556792199284
2026-07-11T12:08:00+03:00,11.43,291.31,54.99821875460771,19.303919999999998,308.99613891405295,304.58436389154565,1.5629142735578598,6.25968,8.30088,1.873571990077792,,-15.693314008633246,22.83887,59.048818,16.528792662983886,73.07054747220481,22.066686386257743,1.8227812519856494,0.0037694768563354495,0.5061251560762638
2026-07-11T12:08:02+03:00,11.58,291.32,56.00089489608667,18.701279999999997,309.9988150555319,298.5396591529154,-5.47839325392288,7.5816,7.36776,0.9167324722093171,,-17.00538735948283,22.838769,59.048859,15.768676991715555,79.49198913564668,29.490804191178597,1.3826791249592398,0.003977698843240684,0.5101028549195046
2026-07-11T12:08:04+03:00,11.66,291.31,60.0001403060998,18.29304,301.99459465755433,293.43460519829983,2.8950984430165367,7.056719999999999,6.76512,0.5786873730821314,,-22.093252580244545,22.838658,59.048896,15.979496108944867,82.4854670398676,24.480061697421945,0.9228613714204104,0.004089111752141751,0.5141919666716463
2026-07-11T12:08:06+03:00,11.43,291.31,58.000517601093236,18.00144,298.9980253890201,297.9265943121254,4.274207855896428,7.23168,7.698239999999999,-0.45836623610465854,,-25.783100780887047,22.838551,59.048926,15.439577714361915,81.4047688494735,20.402794238493584,1.0807966082626177,0.003767360848074119,0.5179593275197205
2026-07-11T12:08:08+03:00,11.43,291.31,54.99821875460771,18.99288,306.99651620904643,300.5335522799707,-3.911983937814722,7.44552,7.950959999999999,-0.005729577951308233,,-18.718531166923995,22.83844,59.048963,15.935401654168393,77.50081051906524,24.49732672811166,1.6114026448430734,0.004089106136854985,0.5220484336565755
2026-07-11T12:08:12+03:00,11.77,291.31,54.99821875460771,21.306240000000003,300.99764809402666,303.1691581375725,4.330758790275841,7.251119999999999,7.75656,2.6184171237478617,,-22.935500539086856,22.838218,59.049046,18.146580433678576,74.10408137632398,15.10172947035062,1.9860144039441632,0.004124880492854403,0.5261733141494299
2026-07-11T12:08:14+03:00,11.55,291.32,54.99821875460771,21.79224,311.9984377605385,304.2864258380776,2.4826834220813705,7.1150400000000005,8.10648,1.2891550390443522,,-18.638317075605677,22.838129,59.049087,18.645335013073275,73.2130458708517,25.211483631390195,2.0549218400349116,0.0036936528162660777,0.529866966965696
2026-07-11T12:08:16+03:00,11.58,291.33,54.00127219108009,21.092399999999998,315.9976831705516,298.3391239246196,-7.678493891445727,7.15392,7.5816,0.739115555718762,,-19.32013685181136,22.838027,59.049132,17.85182253531353,72.91898141703327,28.916664587584876,2.10127560961535,0.004154369001176047,0.5340213359668721
2026-07-11T12:08:18+03:00,11.66,291.32,56.00089489608667,21.50064,308.99613891405295,299.45639162512475,5.483492578299544,6.92064,7.387199999999999,0.6130648407899808,,-19.73839604225686,22.837935,59.049175,18.540842726196452,74.02720150963727,23.02334042369023,1.9044283597387301,0.003843035642966211,0.5378643716098382
2026-07-11T12:08:20+03:00,11.58,291.32,52.00164948607352,20.29536,308.99613891405295,304.61301178130213,1.3477686214862354,6.84288,7.776,0.6245239966925973,,-22.013038488926227,22.83782,59.049211,16.962558733402894,70.53757599555324,19.533714909606203,2.279969468837918,0.004161823842887049,0.5420261954527253
2026-07-11T12:08:22+03:00,11.47,291.32,50.998973344594575,21.40344,318.9999820170371,307.2772655286605,-3.2722192637716447,7.348319999999999,8.184239999999999,0.2807493196141034,,-19.400350943129673,22.837733,59.049257,17.724065453515763,69.79479387863944,28.794775895676537,2.5379882805850036,0.003857232009994983,0.5458834274627203
2026-07-11T12:08:24+03:00,11.58,291.32,50.002026781066945,21.597839999999998,310.9957616190596,306.4063696800617,-1.1648231975009637,7.03728,8.33976,0.8479775367936184,,-18.655505809459605,22.837632,59.049301,17.90540703896814,67.5247412872912,18.52050290635077,2.690242713455285,0.004091837877433972,0.5499752653401543
2026-07-11T12:08:26+03:00,11.51,291.32,50.002026781066945,22.00608,312.9953843240661,308.8815473550268,-0.2763948403711091,7.32888,7.73712,0.6016056848873644,,-21.45153984969802,22.837546,59.049351,18.183820057621237,67.98647264300423,20.981856967070314,2.7470510241377966,0.004012510772619972,0.5539877761127743
2026-07-11T12:08:30+03:00,11.62,291.32,39.998183678082775,23.30856,331.99466481060426,341.5286825215811,6.429331306501506,6.37632,5.832,-0.44117750225073393,,-14.180705429487874,22.837378,59.049446,18.8742409628498,52.53963862129811,24.534303431902345,3.8781570314703315,0.0035981405749806058,0.5575859166877549
2026-07-11T12:08:32+03:00,11.73,291.31,28.000447448043335,23.405759999999997,342.99545447711597,11.224243206612828,16.576986816063517,5.57928,4.80168,-1.180293057969496,,-8.19902604832208,22.837356,59.049492,18.664282994593286,36.06798802241232,19.063442499528264,4.509837752827222,0.002847367354917318,0.5604332840426722
2026-07-11T12:08:34+03:00,11.58,291.31,13.00041237151838,21.092399999999998,15.996981640052585,39.304904745974476,12.903124137905166,3.9074399999999994,3.18816,-1.9308677695908742,,1.6100114043176132,22.837371,59.049532,17.307449741470208,15.911600853872102,31.908582493924687,3.7577296423174094,0.0024486151880264684,0.5628818992306986
2026-07-11T12:08:36+03:00,11.21,291.31,-9.997254088340169,20.5092,72.99482309966687,63.139949023416726,12.212709994772524,2.5855200000000003,3.96576,-1.919408613688258,,14.862525205693554,22.837405,59.049547,17.968545272610157,11.428634155352285,61.56618894431459,2.5342550099084766,0.0013847796833147844,0.5642666789140134
2026-07-11T12:08:38+03:00,11.81,291.31,-29.999210716357208,18.00144,61.99976301110639,77.60713335047001,9.198149851471209,2.916,3.2270399999999997,-2.217346667156286,,20.540536955440015,22.837457,59.049562,15.544613833494891,35.381024518589896,26.618738492516492,2.3774719537211326,0.0018430740032080249,0.5661097529172214
2026-07-11T12:08:40+03:00,11.4,291.32,-56.00003545939396,17.70984,83.99561276617868,96.91008146842744,1.5897859941494952,3.5964,3.92688,-2.274642446669368,,23.5944020034873,22.837532,59.049571,15.979384624800348,66.75373133335816,17.24188143282052,1.4194416100319949,0.002380763855038736,0.5684905167722601
2026-07-11T12:08:42+03:00,11.7,291.32,-69.00044783091235,17.496,111.99606021422201,104.46166520825169,5.9505677728901905,4.80168,4.859999999999999,-2.3147494923285254,,23.76628934202655,22.837599,59.049557,16.399824738465146,84.86370584922498,27.132354364997028,0.42987147576511725,0.002235606269021031,0.5707261230412812
2026-07-11T12:08:44+03:00,11.47,291.32,-76.001992087411,17.5932,122.99684988073382,108.99949094568781,4.5010991427682345,5.42376,5.38488,-2.727279104822719,,22.941230117038163,22.837692,59.04952,17.11067784037038,93.91471923825326,29.082130642480564,-0.37028873352534597,0.003634738298901061,0.5743608613401823
2026-07-11T12:08:46+03:00,11.58,291.31,-84.99742947096492,17.5932,113.99568291922859,118.61945232593433,1.5103740437443631,6.43464,6.2208000000000006,-1.730332541295086,,18.495077626822972,22.837798,59.049491,18.1984084191595,105.62155095400875,8.374131965219831,-1.7327332486323033,0.003711592253852906,0.5780724535940351
2026-07-11T12:08:48+03:00,11.4,291.32,-91.00202716393596,18.50688,130.99534070076012,119.72526087053681,-1.6897098336203107,6.74568,6.88176,-2.3720452718416083,,21.58904972052942,22.837882,59.049452,19.808463026209054,110.90895699891608,20.086383701844042,-2.4074255196503263,0.00349831427721864,0.5815707678712538
2026-07-11T12:08:50+03:00,11.66,291.31,-95.99821913747672,17.70984,133.99763954724563,120.25811162000849,7.319249353898702,7.01784,6.940079999999999,-2.733008682774027,,23.909528790809254,22.837968,59.049405,19.719620447855817,116.7262648075124,17.271374739733233,-3.1561225120087935,0.003879282883934117,0.585450050755188
2026-07-11T12:08:52+03:00,11.62,291.32,-99.00051798396224,17.5932,125.99914872721935,125.80434307687486,-3.1916613977762505,5.773680000000001,7.2122399999999995,-2.498095986770389,,20.597832734953094,22.838052,59.049369,19.355576119689395,116.1354202749691,9.863728452250243,-2.543272822743296,0.0033801368307094276,0.5888301875858974
2026-07-11T12:08:54+03:00,11.17,291.32,-97.00089527895568,17.5932,137.99688495725877,114.39102379786885,-4.769816348684591,7.7176800000000005,10.12824,-3.9075721627922144,,26.098227568209,22.838139,59.049321,20.054475846623777,119.4564436768431,18.540441280415678,-3.7952599955596393,0.003944290089581158,0.5927744776754786
2026-07-11T12:08:58+03:00,11.7,291.3,-84.99742947096492,17.70984,120.99722717572726,110.42042627761226,1.2477874862359069,6.6679200000000005,7.60104,-3.7528735581068924,,21.594779298480727,22.838371,59.04923,18.3713084800054,106.19409754034264,14.803129635384622,-1.859630729152566,0.003943768370905171,0.5967182460463838
2026-07-11T12:09:00+03:00,11.28,291.31,-87.99972831745043,18.50688,114.99835906070751,116.78025780356438,2.1745467198600137,6.0652800000000004,10.53648,-1.552715624804531,,10.891927685436949,22.838468,59.049202,19.27320080255583,106.33086924436164,8.667489816345878,-1.7054583717853722,0.003438633263613826,0.6001568793099976
2026-07-11T12:09:02+03:00,11.47,291.31,-91.00202716393596,18.195839999999997,132.9949634057667,125.37462473052675,1.8430906353768324,7.98984,8.61192,-1.0255944532841736,,11.14975869324582,22.838567,59.049161,20.000273714602542,114.54429216656871,18.450671239197987,-3.318952042193582,0.00392933010043457,0.6040862094104322
2026-07-11T12:09:06+03:00,11.58,291.31,-93.99859643247017,15.610319999999998,135.99726225225223,123.947959820651,-0.8771983843452904,7.01784,6.29856,-1.822005788516018,,18.426322691407275,22.838753,59.049059,17.555926620800157,117.49983308002973,18.497429172222496,-3.240459752871019,0.003906167729696564,0.6079923771401288
2026-07-11T12:09:08+03:00,11.36,291.31,-95.00127257394911,16.893359999999998,136.99993839373113,125.71266982965393,1.0831194159153081,6.39576,6.92064,-1.7246029633437776,,17.131438074411616,22.838838,59.049016,18.577668758526013,115.05862998035387,21.941308413377257,-2.7088950636855693,0.0036857729422665286,0.6116781500823953
2026-07-11T12:09:10+03:00,11.4,291.31,-95.99821913747672,17.2044,136.99993839373113,121.18630324812042,-3.482265591466604,7.01784,8.04816,-1.0943493886998723,,15.939685860539502,22.838919,59.04897,19.24772846930635,117.25878942453213,19.741148969199003,-3.214242925627816,0.0037302866458427493,0.6154084367282381
2026-07-11T12:09:12+03:00,11.43,291.31,-91.00202716393596,17.3016,130.99534070076012,117.10684374678895,0.013063437728982769,7.251119999999999,7.542719999999999,0.0,,13.309809580889024,22.839015,59.048927,18.87622836599806,113.58876104905927,17.406579651700852,-2.9016754273071554,0.003935438355910048,0.6193438750841481
2026-07-11T12:09:14+03:00,11.32,291.31,-91.99897372746359,18.50688,125.99914872721935,119.9200665208813,0.44203693894343016,7.52328,8.242560000000001,0.7104676659622208,,13.235325067522018,22.839115,59.048889,20.219239567443974,113.82927243591931,12.169876291300042,-3.039500642437615,0.0038436564012808315,0.6231875314854289
2026-07-11T12:09:18+03:00,11.32,291.3,-95.00127257394911,17.90424,134.99458611077327,126.07936281853765,3.4996262126590687,7.07616,6.8623199999999995,-1.1344564343590302,,13.928603999630313,22.839323,59.048798,19.81725380392371,115.83831180351062,19.15627430726265,-3.0840241515433124,0.004091869703422217,0.6272794011888512
2026-07-11T12:09:20+03:00,11.43,291.31,-97.99784184248331,18.09864,136.99993839373113,127.88990945115106,-3.295653237592495,6.95952,7.75656,-1.0542423430407146,,13.888496953971154,22.839406,59.048753,20.2742738521663,117.87043015138644,19.129508242344684,-3.2533922047062256,0.00372824353169618,0.6310076447205474
2026-07-11T12:09:22+03:00,11.43,291.3,-97.99784184248331,17.398799999999998,135.99726225225223,125.73558814145917,4.671611382599167,7.60104,7.950959999999999,-1.3922874421679003,,14.55312799632291,22.839493,59.048703,19.932264910213366,120.18506479158515,15.812197460667079,-3.821762172507978,0.004033090607703092,0.6350407353282504
2026-07-11T12:09:26+03:00,11.58,291.31,-95.99821913747672,17.496,129.99839413723248,115.14159850949022,0.9558654896167524,7.32888,7.42608,-1.2662367272391195,,16.32929716122846,22.839678,59.048606,19.66268348436195,117.75638203538631,12.242012101846171,-3.4131553805295796,0.00394346227473158,0.6389841976029821
2026-07-11T12:09:28+03:00,11.58,291.32,-89.99935102245702,17.3016,113.99568291922859,107.42385700907806,-3.9944325645340473,5.404319999999999,7.40664,-1.3349916626548182,,15.796446411756795,22.839777,59.048574,18.12594601765986,107.34610183514533,6.649581084083252,-1.6112602090012313,0.003614727863961856,0.642598925466944
2026-07-11T12:09:30+03:00,11.43,291.32,-84.0004829074373,17.2044,112.99873635570096,101.91773259787082,-2.6007127278783195,5.81256,8.02872,-1.4266649098757496,,15.154733681210274,22.839869,59.04855,17.57477968307962,103.20381234218618,9.794924013514773,-1.3276796677945792,0.0031890330691347764,0.6457879585360787
