time,dpt,mtw,awa,aws,cog,hdg,rot,sog,stw,pitch,yaw,roll,lng,lat,tws,twa,twd,vmg,dist,cum_dist
2026-07-14T11:04:37+03:00,7.83,293.59,54.00127219108009,13.608,268.99795523597015,269.3302707571461,-0.4615175039778781,6.24024,7.52328,-0.1546986046853223,,-12.79987714322259,23.441692,58.557355,11.148774415905523,80.92691434067358,349.92486957664374,0.9840497684815841,0.003263122230613139,0.003263122230613139
2026-07-14T11:04:39+03:00,7.68,293.58,56.00089489608667,13.5108,273.99987678746226,268.93492987850584,0.7334432735469668,6.14304,6.76512,-0.6302535746439055,,-8.846468356819912,23.441579,58.55736,11.28971697121904,82.81559243232543,356.8154692197877,0.7682684584738406,0.0035558243403537157,0.006818946570966855
2026-07-14T11:04:41+03:00,7.68,293.59,52.99859604960115,13.608,272.99720064598336,269.2672453996817,-0.899944808811984,6.18192,6.9984,-0.2807493196141034,,-7.643256987045181,23.441469,58.557364,11.051554331528687,79.53237626540412,352.5295769113875,1.1231305220138992,0.003457405749366383,0.010276352320333238
2026-07-14T11:04:43+03:00,7.53,293.6,50.002026781066945,13.19976,273.99987678746226,265.54874930928264,-2.6699833253096363,5.96808,6.492959999999999,-0.10886198107485642,,-10.508045962699299,23.44136,58.557367,10.420262272976942,76.02654820409364,350.0264249915559,1.4411258827649982,0.0034224343106110575,0.013698786630944296
2026-07-14T11:04:45+03:00,7.53,293.6,46.99972793458143,12.908159999999999,263.9960336844781,265.090383073178,2.476495477893957,5.7348,6.9984,-0.10313240312354818,,-13.928603999630313,23.441258,58.557362,9.926589428920726,71.99330002056593,335.98933370504403,1.7727884338954618,0.0032122865044075448,0.01691107313535184
2026-07-14T11:04:47+03:00,7.38,293.6,46.00278137105379,13.296959999999999,263.9960336844781,266.74050152315476,-0.6159869255451481,6.0652800000000004,6.7068,-0.6187944187412892,,-15.641747807071475,23.441143,58.557355,10.077415450836456,71.6588678000458,335.6549014845239,1.9085856776525822,0.0036302758756948093,0.02054134901104665
2026-07-14T11:04:49+03:00,7.35,293.61,46.99972793458143,13.9968,267.99527909449125,267.72598893077975,1.0172292694752634,6.2208000000000006,7.07616,-0.21772396214971285,,-17.744502915201593,23.441033,58.557352,10.76304787000352,72.0051575811722,340.0004366756634,1.9218003416721372,0.0034537472005543354,0.023995096211600987
2026-07-14T11:04:51+03:00,6.41,293.59,48.00240407606037,14.502239999999999,269.9949017994978,269.7256116357864,-1.9539006729551336,6.1236,7.095599999999999,-0.12032113697747288,,-14.71355617895954,23.440932,58.557351,11.356648551070114,71.6259168535395,341.6208186530373,1.93027993901184,0.0031674132338988187,0.027162509445499805
2026-07-14T11:04:53+03:00,6.37,293.6,52.00164948607352,15.007679999999999,275.99949949246883,267.34210720804214,0.346639466054148,6.37632,7.52328,0.045836623610465865,,-15.309432285895596,23.440819,58.557356,12.168086217189606,76.39147136283992,352.39097085530875,1.5002638623427251,0.003555824743526094,0.0307183341890259
2026-07-14T11:04:55+03:00,6.93,293.6,52.00164948607352,14.502239999999999,269.9949017994978,270.8657976480967,4.811756859288167,6.24024,7.23168,-0.26929016371148695,,-10.101245928156414,23.440709,58.557356,11.740019982685558,76.76461844214393,346.7595202416418,1.4287156502126317,0.003449036327735851,0.03416737051676175
2026-07-14T11:04:57+03:00,6.78,293.59,50.002026781066945,14.30784,274.9968233509899,272.5961301893918,0.06525989286540076,6.43464,6.7068,-0.005729577951308233,,-9.024085273310467,23.440601,58.557361,11.303378105209472,75.85712949611745,350.8539528471074,1.5722440059883525,0.0033996366693218832,0.03756700718608363
2026-07-14T11:04:59+03:00,6.56,293.6,50.002026781066945,13.8996,274.9968233509899,270.94601173941504,0.052712117152035734,6.0264,7.93152,0.040107045659157625,,-11.808660157646267,23.440486,58.557367,11.03790233145082,74.72631928528205,349.723142636272,1.5875342193187392,0.0036238005827895366,0.04119080776887316
2026-07-14T11:05:01+03:00,6.67,293.6,50.002026781066945,13.39416,270.9975779409768,274.16030497009893,1.2699036571279565,5.90976,7.503839999999999,-0.32658594322456924,,-9.969465635276324,23.440381,58.557371,10.609982796014496,75.26030350281161,346.2578814437884,1.5036086546842327,0.0033010282790122193,0.04449183604788538
2026-07-14T11:05:03+03:00,6.63,293.6,48.00240407606037,13.296959999999999,277.99912219747546,279.05336454051616,2.2378585562219695,5.754239999999999,6.35688,-0.6359831525952138,,-7.94119504051321,23.440284,58.557381,10.369648574307778,72.35780240437983,350.35692460185527,1.7439479964137075,0.003100247847390009,0.04759208389527539
2026-07-14T11:05:05+03:00,6.78,293.59,43.99742908809592,13.5108,283.9979903124951,278.87001804607434,-2.749108796817203,5.67648,6.0264,-0.7047380880109125,,-5.878546978042246,23.440187,58.557395,10.218687560915356,66.6948633654548,350.6928536779499,2.2457735256308395,0.0031556888923995057,0.050747772787674894
2026-07-14T11:05:07+03:00,6.63,293.59,45.00010522957485,13.9968,278.9960687610031,278.0506883990372,-1.0610032450232585,5.151599999999999,5.7348,-0.08021409131831525,,-5.385803274229739,23.440106,58.55741,10.97617498647534,64.38283533950009,343.3789041005032,2.227324655743951,0.002695032124205368,0.05344280491188026
2026-07-14T11:05:09+03:00,6.52,293.6,41.00085981956171,13.7052,281.99836760748855,278.7554264870481,1.1641356481468066,4.7628,5.7153599999999996,-0.22918311805232927,,-7.660445720899108,23.440021,58.557421,10.582557793999475,58.17470186660813,340.1730694740967,2.511572096813989,0.002745950251495827,0.05618875516337609
2026-07-14T11:05:11+03:00,6.52,293.6,39.998183678082775,13.9968,287.9972357225083,279.3054659703737,0.6495622523398142,4.78224,5.65704,-0.09740282517223994,,-1.6558480279280792,23.43994,58.557429,10.780793711607462,56.56436384772576,344.5615995702341,2.635013677564082,0.0025848611018426467,0.05877361626521874
2026-07-14T11:05:13+03:00,6.52,293.61,41.00085981956171,13.5108,286.9945595810294,281.23633373996455,2.9808129291681076,4.91832,5.57928,-0.7047380880109125,,-3.185645340927377,23.439856,58.55744,10.316556237368218,59.22742247700096,346.2219820580304,2.5163684093900707,0.0027155270488191307,0.06148914331403787
2026-07-14T11:05:15+03:00,6.6,293.61,41.00085981956171,13.10256,284.9949368760228,292.1683684710607,9.5156257657532,4.49064,5.2488,-0.05156620156177409,,-4.142484858795853,23.439782,58.55745,10.150445893325912,57.87383580920394,342.86877268522676,2.3880566243173296,0.002396847219338922,0.06388599053337679
2026-07-14T11:05:17+03:00,6.63,293.61,35.99893826806962,12.49992,293.99610383752804,311.3624546079433,10.945900309738274,3.61584,4.04352,-0.8766254265501595,,-4.27999472962725,23.439722,58.557464,9.807644067297247,48.51402099293651,342.5101248304645,2.3952652965186942,0.002060916540490989,0.06594690707386779
2026-07-14T11:05:19+03:00,6.78,293.6,24.99814860155782,12.59712,322.9992274270503,335.0657185925054,14.577364111056944,3.3242399999999996,3.7519199999999997,-1.008405719430249,,0.23491269600363757,23.439689,58.557491,9.68669406780905,33.33672227111711,356.3359496981674,2.777253951494032,0.0019246949641555165,0.0678716020380233
2026-07-14T11:05:21+03:00,6.93,293.61,11.997736230039438,12.402719999999999,342.99545447711597,2.2517241348641353,9.010849948242944,2.89656,3.3047999999999997,0.4354479242994257,,3.5695270636650287,23.439671,58.557521,9.588357126886695,15.598088397448521,358.5935428745645,2.78988415137665,0.0018894905754676733,0.06976109261349096
2026-07-14T11:05:23+03:00,6.93,293.6,-5.001062114799391,11.80008,22.998525896551243,18.24297619696541,6.633361577347593,3.2464799999999996,2.56608,0.46982539200727513,,6.732254092787173,23.439678,58.557551,8.570632956691819,6.893359727410456,16.105166169140787,3.223012035215696,0.0018165397329298362,0.0715776323464208
2026-07-14T11:05:25+03:00,6.78,293.6,-20.00109719132434,11.29464,50.998973344594575,30.332385674225783,4.816913479444344,4.1796,3.6547199999999997,-0.8823550045014679,,11.235702362515443,23.439729,58.557578,7.504550807208739,30.982795278801802,20.016178065792772,3.5832626850870968,0.002278358527586762,0.07385599087400756
2026-07-14T11:05:27+03:00,6.78,293.59,-37.00075497285587,10.692,58.99746416462087,47.14296738336413,9.424811955224964,4.101839999999999,3.73248,0.3609634109324186,,14.702097023056925,23.439788,58.557594,7.816222760211784,55.411639614225976,3.5858245503948964,2.328518230214886,0.0020849787653390247,0.07594096963934659
2026-07-14T11:05:29+03:00,6.9,293.6,-52.997736612908454,11.29464,64.99633227964058,57.622365456306895,3.568610331192819,4.97664,3.9463199999999996,-0.16615776058793874,,14.759392802570007,23.439867,58.557613,9.202011766968054,78.58631043668159,346.410021842959,0.9848349980187762,0.0027276156355397463,0.07866858527488634
2026-07-14T11:05:31+03:00,7.01,293.6,-59.00233430587948,12.30552,77.99674465115896,55.39355963324799,-2.7737459820078287,5.22936,4.14072,-0.9167324722093171,,11.671150286814868,23.439946,58.557626,10.60618352109088,84.00340290894091,353.99334174221804,0.5463080831430078,0.0025973443040033417,0.08126592957888967
2026-07-14T11:05:33+03:00,7.16,293.59,-59.00233430587948,11.99448,70.99520039466032,49.73273661735546,-3.8755438220444014,4.859999999999999,4.704479999999999,-1.0026761414789407,,11.035167134219655,23.440025,58.557637,10.36555907634251,82.69944661059728,348.29575378406304,0.6175805574478948,0.0025637418412683645,0.08382967142015804
2026-07-14T11:05:35+03:00,7.23,293.59,-54.00041275438739,11.89728,67.99863112612611,44.71362633200945,-1.1293571099823656,4.996079999999999,4.91832,-0.9281916281119336,,11.802930579694959,23.440102,58.557657,9.830114334150645,78.27932051573347,349.71931061039265,1.01490722952258,0.002697043839097044,0.08652671525925508
2026-07-14T11:05:37+03:00,7.27,293.6,-52.00079004938082,12.091679999999998,60.99708686962744,43.59062905355304,-0.31472571686536116,4.84056,4.80168,-0.7276563998161455,,10.777336126410784,23.440174,58.557678,9.877806802051671,74.71681842379068,346.2802684458368,1.2759227526552832,0.0025864554085081584,0.08911317066776324
2026-07-14T11:05:39+03:00,7.38,293.59,-50.00116734437425,12.49992,59.994410728148495,42.47336135304793,-1.0320688763691521,5.03496,4.80168,-0.3781521447863433,,9.711634627467454,23.440245,58.557699,10.034493361447696,72.60648764251481,347.3879230856337,1.5051143937128595,0.002559132822279328,0.09167230349004257
2026-07-14T11:05:41+03:00,7.46,293.6,-48.99849120289531,12.69432,58.99746416462087,40.76594712355807,1.212607877614874,4.996079999999999,5.01552,-0.8766254265501595,,10.645555833530695,23.440313,58.557721,10.143328619915838,70.82037668528889,348.177087479332,1.641365997894314,0.002508895145293904,0.09418119863533647
2026-07-14T11:05:43+03:00,7.38,293.6,-48.99849120289531,12.49992,59.994410728148495,43.99169951014461,0.49348854894617805,4.74336,5.38488,-0.7104676659622208,,12.713933473952968,23.44039,58.557749,10.047263378580876,69.87124822836438,350.12316249978414,1.6323367509283195,0.002943022971736587,0.09712422160707306
2026-07-14T11:05:45+03:00,7.38,293.6,-48.99849120289531,12.30552,57.99478802314193,42.13531625392074,-3.7624419532855766,5.42376,5.346,-1.0542423430407146,,15.349539331554757,23.440468,58.557775,9.657469293629587,74.07606781479748,343.91872020834444,1.4880677277618088,0.0029023368710684376,0.10002655847814149
2026-07-14T11:05:47+03:00,7.53,293.6,-48.00154463936767,12.908159999999999,58.99746416462087,35.87861713109215,-3.0614280909430147,6.0652800000000004,6.35688,-1.1745634800181877,,12.032113697747286,23.440556,58.557803,9.931602858203378,74.99272323445767,344.0047409301632,1.5705540293709366,0.0032319807968243675,0.10325853927496585
2026-07-14T11:05:49+03:00,7.65,293.6,-46.99886849788874,13.10256,50.998973344594575,33.311766208906064,-0.8135427733062558,6.006959999999999,5.38488,-0.8307888029396938,,13.659313835918825,23.440643,58.557836,10.020124361726932,73.00267375497656,337.99629958961805,1.7559970623688688,0.0033727718106843028,0.10663131108565016
2026-07-14T11:05:51+03:00,7.68,293.61,-44.999245792882164,13.296959999999999,51.995919908122204,32.05698863756956,-1.7868261798949854,5.307119999999999,5.19048,-0.836518380891002,,12.072220743406445,23.440718,58.557865,10.255453977792143,66.46331029147801,345.5326096166442,2.1193253048923353,0.002927186477418875,0.10955849756306904
2026-07-14T11:05:53+03:00,7.76,293.61,-44.999245792882164,13.19976,48.999350639587995,30.53865048047288,-0.7489704297950122,5.851439999999999,5.42376,-0.5385803274229739,,10.937764309047413,23.440796,58.557897,9.9619832203918,69.5395223655184,339.4598282740696,2.045436305153172,0.0031114017665296065,0.11266989932959864
2026-07-14T11:05:55+03:00,7.83,293.6,-42.999623087875584,13.00536,47.996674498109066,30.492813856862416,0.20752531339638416,5.773680000000001,5.57928,-0.5042028597151245,,11.946170028477665,23.440867,58.557932,9.625028372854407,67.14802128595998,340.8486532121491,2.242218679099188,0.003062946280246481,0.11573284560984512
2026-07-14T11:05:57+03:00,7.83,293.61,-39.997324241390075,13.10256,47.996674498109066,30.521461746618954,0.03844546805327824,5.6181600000000005,5.890319999999999,-0.888084582452776,,12.014924963893364,23.440945,58.557966,9.510826841482857,62.311264325651024,345.68541017245803,2.61057899523208,0.003187115544484044,0.11891996115432917
2026-07-14T11:05:59+03:00,7.83,293.6,-41.00000038286902,13.5108,47.996674498109066,31.214740678727246,1.3164278300925794,5.81256,6.24024,-0.246371851906254,,6.153566719705042,23.441032,58.558005,9.888850233497303,63.682513151310204,344.31416134679887,2.5769681379751006,0.0035967079666023552,0.12251666912093152
2026-07-14T11:06:01+03:00,7.83,293.6,-42.999623087875584,13.608,45.997051793102486,34.199850791358834,0.2274642446669368,5.9292,5.67648,-0.6245239966925973,,9.866333232152776,23.441107,58.558039,10.115060988140382,66.56328934561171,339.4337624474908,2.358255309688025,0.003115516307552697,0.12563218542848423
2026-07-14T11:06:03+03:00,7.91,293.6,-42.999623087875584,12.908159999999999,52.99859604960115,33.50657185925054,-1.1843037625354116,5.81256,5.57928,-1.558445202755839,,16.163139400640524,23.441182,58.55807,9.521535410323862,67.60290653674203,345.3956895128591,2.2147218092693213,0.0030003181125758246,0.12863250354106004
2026-07-14T11:06:05+03:00,7.98,293.6,-42.002676524347955,12.49992,52.99859604960115,31.78196889590676,0.7274272166980933,6.337439999999999,6.1236,-1.1229972784564135,,13.178029288008934,23.44127,58.558106,8.8699469108875,70.56460012601298,342.43399592358816,2.108744078553584,0.0035064788533803945,0.13213898239444044
2026-07-14T11:06:07+03:00,7.98,293.6,-42.999623087875584,12.69432,49.99629720311564,32.69870136811608,1.751703867053466,6.006959999999999,6.940079999999999,-1.5469860468532228,,8.961059915846075,23.441351,58.558147,9.256940942952866,69.2666543031365,340.7296428999791,2.126579203762528,0.003538837187882982,0.13567781958232342
2026-07-14T11:06:09+03:00,7.98,293.6,-44.00229922935453,12.69432,46.99972793458143,32.72161967992132,-1.688964988486641,6.318,6.0652800000000004,-0.5042028597151245,,5.28267087110619,23.441425,58.558186,9.256421966206826,72.30703373411889,334.69269420046254,1.920141971471219,0.003298278206880445,0.13897609778920386
2026-07-14T11:06:11+03:00,8.13,293.61,-41.00000038286902,12.49992,49.99629720311564,30.286549050615314,-1.9533850109395154,5.46264,5.48208,-1.1631043241155712,,13.074896884885387,23.441488,58.558216,9.111609488727938,64.16148501669933,345.8348121864163,2.3808162989972526,0.002674601189744585,0.14165069897894844
2026-07-14T11:06:13+03:00,8.13,293.61,-37.00075497285587,12.091679999999998,51.995919908122204,30.699078663109514,3.047734399639388,5.151599999999999,5.65704,-0.9339212060632418,,10.376265669819208,23.441563,58.558245,8.558755171068334,58.238875504111036,353.75704440401114,2.7116941457221877,0.0029271659848443686,0.14457786496379282
2026-07-14T11:06:15+03:00,8.17,293.61,-41.00000038286902,12.49992,46.99972793458143,34.348819818092856,1.4098772464784168,5.52096,5.57928,-0.13750987083139757,,9.499640243269049,23.441632,58.558279,9.086343131747231,64.49247014865149,342.50725778592994,2.377489411884112,0.002976069091280953,0.14755393405507378
2026-07-14T11:06:17+03:00,8.25,293.62,-42.002676524347955,12.30552,48.999350639587995,37.586031360582005,2.432435023448397,5.42376,5.69592,-0.6703606203030631,,12.289944705556158,23.441702,58.558309,9.035980605521814,65.68467162027949,343.3146790193085,2.2332775042019315,0.0028405482173507104,0.1503944822724245
2026-07-14T11:06:19+03:00,8.28,293.61,-46.99886849788874,12.20832,52.99859604960115,45.842353188417164,5.04770087932304,5.890319999999999,5.67648,-0.4239887683968092,,7.895358416902745,23.441792,58.55834,9.254762143679704,74.7396093758698,338.25898667373133,1.5503685961022033,0.0033815575356322125,0.1537760398080567
2026-07-14T11:06:21+03:00,8.28,293.61,-52.997736612908454,12.20832,59.994410728148495,50.695305713175244,1.8181669712886412,5.773680000000001,6.901199999999999,-1.2318592595312698,,11.60239535139917,23.441879,58.558366,9.87592122298839,80.83008086021022,339.16432986793825,0.9201104416985321,0.003143758868983134,0.15691979867703984
2026-07-14T11:06:23+03:00,8.28,293.62,-57.00271160087291,11.99448,66.99595498464716,51.31982970986784,-0.4298329379071436,5.9292,5.94864,-0.985487407625016,,10.244485376939119,23.441969,58.558386,10.077781972290918,86.56976145242756,340.4261935322196,0.3547630008779954,0.0030672544688336583,0.1599870531458735
2026-07-14T11:06:25+03:00,8.28,293.61,-57.00271160087291,12.49992,66.99595498464716,51.394314223234844,0.8167513369589885,5.9292,6.318,-0.7620338675239948,,7.053110458060434,23.442072,58.558405,10.52035972072227,85.21132842958836,341.7846265550588,0.49497445854871447,0.0034254428752154395,0.16341249602108893
2026-07-14T11:06:27+03:00,8.43,293.62,-59.00233430587948,12.908159999999999,63.999385716112954,54.37942433586644,0.18913336817268475,5.9292,6.14304,-0.25210142985756223,,6.4056681495626036,23.442163,58.558428,11.08803005742933,86.28442960070069,337.7149561154123,0.3842328775720845,0.0031704945903377442,0.16658299061142667
2026-07-14T11:06:29+03:00,8.43,293.61,-57.99965816440055,12.402719999999999,67.99863112612611,54.557041252356996,0.4841493368855456,6.29856,5.65704,-0.7047380880109125,,9.75747125107792,23.442264,58.558449,10.521630689295025,88.50806851265878,339.4905626134673,0.1639904053273837,0.003409043379723213,0.1699920339911499
2026-07-14T11:06:31+03:00,8.58,293.62,-59.00233430587948,11.702879999999999,75.99712194615239,56.48790902194786,3.321608225711921,5.7348,5.52096,0.005729577951308233,,9.763200829029229,23.442363,58.55846,10.035826906227271,88.33144344842854,347.66567849772383,0.16698412567105209,0.003173673100630247,0.17316570709178014
2026-07-14T11:06:33+03:00,8.58,293.63,-63.99852627942025,11.508479999999999,73.99749924114583,65.29999991105991,3.330718254654502,5.57928,5.81256,0.045836623610465865,,8.577178193108423,23.442458,58.558474,10.35739997391605,92.95548546344652,341.0420137776993,-0.2876681234037144,0.0030952068222682705,0.1762609139140484
2026-07-14T11:06:35+03:00,8.58,293.62,-69.99739439443997,11.29464,78.9994207926379,69.23049038565738,0.41631113394205616,5.832,5.832,-1.5870930925123803,,8.938141604040842,23.44256,58.558485,10.794328159180305,100.50762733763271,338.4917934550052,-1.063560943297117,0.0032657274071145807,0.179526641321163
2026-07-14T11:06:37+03:00,8.66,293.62,-72.00274667739787,11.29464,88.99753431767077,69.29351574312176,2.4551241521355776,5.81256,6.25968,-3.20856365273261,,12.284215127604849,23.442665,58.558487,10.990283161237874,102.20170625243469,346.7958280652361,-1.2285072455379442,0.0032943498980660298,0.18282099121922904
2026-07-14T11:06:39+03:00,8.62,293.62,-74.99931594593207,11.10024,90.99715702267736,67.00168456259847,0.7951508280825564,6.10416,6.08472,-0.9396507840145503,,8.531341569497958,23.442768,58.55849,11.19824087503378,106.77023708511264,344.22691993756473,-1.761260557951623,0.0032344782407467635,0.1860554694599758
2026-07-14T11:06:41+03:00,8.73,293.62,-74.99931594593207,11.197439999999999,80.99904349764448,67.97571281432087,-0.7776756153310664,5.87088,5.90976,-0.9052733163067008,,4.108107391088002,23.442868,58.558495,11.216927283337496,105.36777076948981,335.63127272815467,-1.555864017783653,0.003149756794286241,0.18920522625426206
2026-07-14T11:06:43+03:00,8.73,293.62,-74.99931594593207,11.197439999999999,80.99904349764448,66.89282258152362,-1.712112483409926,5.598719999999999,5.52096,-0.985487407625016,,7.878169683048821,23.442967,58.558505,11.147890440069899,104.01886508478914,336.98017841285537,-1.3562415468272342,0.0031616932539536486,0.19236691950821572
2026-07-14T11:06:45+03:00,8.73,293.62,-69.99739439443997,10.808639999999999,82.99866620265107,65.34010695671908,0.6901276642350765,5.90976,5.346,-0.8078704911344607,,7.16197243913529,23.443068,58.558512,10.394826832389247,102.28934652209911,340.70931968055197,-1.2578848067904143,0.0031945680706818307,0.19556148757889755
2026-07-14T11:06:47+03:00,8.73,293.63,-69.99739439443997,11.10024,82.99866620265107,65.7698253030672,-0.4219834161138513,5.5598399999999994,5.346,-0.29793805346802804,,5.649363859989916,23.443171,58.558521,10.57856067759291,99.59278574628728,343.4058804563638,-0.9265172916688029,0.0032744410701468275,0.19883592864904437
2026-07-14T11:06:49+03:00,8.85,293.63,-67.00082512590576,10.692,83.99561276617868,65.92452390775252,-0.3301382815543803,5.7348,5.19048,-0.888084582452776,,7.8036851696818115,23.443271,58.55853,9.96453233264102,98.99096623749571,345.004646528683,-0.8962272915579146,0.003181709264877878,0.20201763791392224
2026-07-14T11:06:51+03:00,8.81,293.64,-65.0012024208992,10.5948,81.99599006117212,62.555532072383286,-0.884646835681991,5.443199999999999,5.22936,-0.9682986737710912,,10.731499502800318,23.443368,58.558539,9.650696443307709,95.7438002470975,346.25218981407465,-0.5447576298062623,0.003089057963669565,0.2051066958775918
2026-07-14T11:06:53+03:00,8.85,293.63,-67.00082512590576,10.4976,76.99979808763133,62.27478275276918,0.9500213201064179,5.87088,5.22936,-1.260507149287811,,9.935088167568475,23.443462,58.55855,9.823789273522634,100.37567717649281,336.6241209111385,-1.0573548213707245,0.0030205127166104974,0.2081272085942023
2026-07-14T11:06:55+03:00,8.88,293.64,-69.00044783091235,10.90584,76.99979808763133,62.67585320936076,-1.5915048675348877,5.7348,5.151599999999999,-1.0943493886998723,,8.594366926962348,23.443557,58.558566,10.344056837347253,100.17074411300682,336.8290539746245,-1.012663460675799,0.003130021634541718,0.21125723022874401
2026-07-14T11:06:57+03:00,8.88,293.63,-67.9977716894334,11.00304,79.99636735616555,62.10862499218124,-1.4263784309781844,5.28768,5.42376,-1.0427831871380984,,7.683364032704339,23.443647,58.558578,10.268038491205386,96.51739313317808,343.47897422298746,-0.6001771910103392,0.002912567398603135,0.21416979762734714
2026-07-14T11:06:59+03:00,8.88,293.63,-65.0012024208992,10.692,75.99712194615239,58.45315425924658,-1.5461266101605264,5.6181600000000005,4.91832,-1.0313240312354817,,8.090164067247223,23.44374,58.558588,9.752540599070658,96.47463382353472,339.5224881226177,-0.6335224035519008,0.002977209127342996,0.21714700675469015
2026-07-14T11:07:01+03:00,8.88,293.63,-59.999280869407116,10.303199999999999,69.99825383113267,57.4218302280111,-0.03976327098207913,5.404319999999999,5.22936,-1.008405719430249,,8.456857056130952,23.443838,58.558601,8.9263432938177,91.62163886989312,338.37661496123957,-0.15293771097596265,0.003170470371077883,0.22031747712576802
2026-07-14T11:07:03+03:00,8.88,293.63,-54.00041275438739,10.303199999999999,77.99674465115896,56.304562527506,0.6485882240880918,4.957199999999999,4.78224,-0.9797578296737078,,8.898034558381685,23.443928,58.55861,8.407619568881023,82.4904154506831,355.5063292004759,0.6478665867144338,0.0028732244178789838,0.223190701543647
2026-07-14T11:07:05+03:00,8.92,293.63,-50.00116734437425,10.1088,75.99712194615239,54.76903563655539,-1.4354311641412512,5.1127199999999995,5.22936,-0.7333859777674538,,5.557690612768986,23.444019,58.558622,7.866789437428329,79.8603411007814,356.136780845371,0.9000848250360396,0.002942951283603561,0.22613365282725056
2026-07-14T11:07:07+03:00,8.96,293.64,-48.00154463936767,10.4976,70.99520039466032,53.33091157077702,1.1603541266989432,5.03496,5.13216,-0.6187944187412892,,3.810169337619975,23.444109,58.558636,8.051009542763923,75.6963005133287,355.29889988133164,1.2439451719894439,0.002944638465374013,0.22907829129262458
2026-07-14T11:07:09+03:00,8.96,293.63,-44.00229922935453,10.206,65.99900842111953,55.02113706641296,0.11264350252271983,5.1710400000000005,4.996079999999999,-0.6589014644004466,,5.082135642810402,23.444187,58.558653,7.414701929225112,72.98053775626207,353.01847066485743,1.5135454421086245,0.0026504813001581775,0.23172877259278277
2026-07-14T11:07:11+03:00,9.03,293.63,-42.999623087875584,10.303199999999999,69.99825383113267,54.90654550738679,-1.1718132826015597,5.2488,4.84056,-0.8537071147449266,,7.946924618464517,23.444276,58.558673,7.389381219047741,71.97484421934203,358.0234096117906,1.6241599457415539,0.0030384128550345942,0.23476718544781736
2026-07-14T11:07:13+03:00,9.03,293.63,-42.999623087875584,10.808639999999999,70.99520039466032,52.861086178769746,-0.11814389735597575,5.20992,4.74336,-0.8193296470370772,,8.084434489295916,23.44437,58.558689,7.848647113071391,69.91707212127068,1.0781282733896376,1.788981612570345,0.003100189663476309,0.23786737511129366
2026-07-14T11:07:15+03:00,9.03,293.64,-44.999245792882164,11.39184,67.99863112612611,54.35077644610989,0.6319724480292981,5.2488,4.704479999999999,-0.8250592249883855,,6.480152662929611,23.444458,58.558701,8.530066982182191,70.79076180224679,357.2078693238793,1.7269544592455308,0.0028518460754225245,0.24071922118671618
2026-07-14T11:07:17+03:00,9.03,293.64,-44.999245792882164,11.702879999999999,72.99482309966687,54.30493982249942,0.7769307701973962,5.3654399999999995,4.704479999999999,-0.7792226013779195,,6.176485031510275,23.444547,58.558714,8.771781569818847,70.62624478220472,2.368578317462152,1.779872295248641,0.00289781716375816,0.24361703835047435
2026-07-14T11:07:19+03:00,9.03,293.63,-44.999245792882164,11.80008,72.99482309966687,64.42337448450978,6.470068605735308,5.48208,4.91832,-0.7276563998161455,,5.557690612768986,23.44463,58.558724,8.820989083910831,71.06790454706875,1.9269185525981243,1.7786462585448517,0.002670868234225529,0.24628790658469987
2026-07-14T11:07:21+03:00,9.03,293.65,-48.00154463936767,12.091679999999998,77.99674465115896,68.32521706935066,-3.3660697506140735,5.50152,4.82112,-1.3178029288008932,,8.823550045014677,23.444712,58.55873,9.351656099702275,73.92678347700327,4.069961174155694,1.5231810708804914,0.0025961707502791176,0.248884077334979
2026-07-14T11:07:23+03:00,9.03,293.64,-48.00154463936767,11.99448,92.99677972768393,48.5753618711912,-13.611414564245889,5.79312,4.4712,-1.8277353664673262,,12.696744740099042,23.444817,58.558728,9.189171640329468,75.93925611856588,17.05752360911805,1.4074411009498358,0.003294327076152772,0.25217840441113176
2026-07-14T11:07:25+03:00,9.18,293.64,-41.00000038286902,12.59712,78.9994207926379,22.96414842884339,-13.261509238759494,4.957199999999999,4.93776,-1.6386592940741544,,9.877792388055392,23.444899,58.558742,9.43416168599909,61.16516826364433,17.834252528993574,2.390789729826937,0.0027052115551393857,0.2548836159662711
2026-07-14T11:07:27+03:00,9.18,293.64,-29.999210716357208,13.5108,33.99931556306306,357.75484727968603,-12.919224251948341,3.9851999999999994,3.96576,-1.277695883141736,,5.689470905649074,23.444959,58.558766,10.254928881506114,41.20315779602612,352.79615776703696,2.9983792157815525,0.002370660497900339,0.2572542764641715
2026-07-14T11:07:29+03:00,9.18,293.64,-14.002229076304623,13.39416,20.99890319154467,333.8281297550228,-11.817197228793717,3.9463199999999996,3.61584,-0.888084582452776,,2.5267438765269303,23.444987,58.558804,9.612641230578667,19.702978213409864,1.2959249781348063,3.7152748876220785,0.002446996425322255,0.25970127288949374
2026-07-14T11:07:31+03:00,9.18,293.65,3.9992454100131463,13.00536,356.9985429901134,313.27613364368017,-8.828362890493777,3.2464799999999996,3.53808,-0.7219268218648373,,0.2119943841984046,23.444982,58.558841,9.769409443528208,5.327277764077849,2.325820754191227,3.2324571832610345,0.0022295039102909315,0.26193077679978466
2026-07-14T11:07:33+03:00,9.18,293.64,18.999280486538098,12.402719999999999,330.99771824707665,290.2317711235185,-13.97094558069048,2.916,3.44088,-0.5672282171795151,,-4.463341224069113,23.444951,58.558868,9.692179690284243,24.62025532231354,355.6179735693902,2.6509031967882652,0.0018917021151990058,0.26382247891498367
2026-07-14T11:07:35+03:00,9.18,293.64,39.998183678082775,11.10024,298.9980253890201,263.3600505318829,-11.617292254072572,2.89656,3.6547199999999997,-0.1776169164905552,,-7.116135815524825,23.4449,58.558884,9.074335928611442,51.83777024380373,350.8357956328238,1.789756073295486,0.0018659599803495263,0.2656884388953332
2026-07-14T11:07:37+03:00,9.03,293.64,63.002439152585325,10.1088,257.9971655694584,242.9570234472743,-9.562952079631005,3.57696,3.92688,0.22345354010102106,,-7.757848546071346,23.444844,58.558882,9.063870273401156,83.58972195923435,341.5868875286927,0.3993575617801902,0.0017599071308539405,0.26744834602618717
2026-07-14T11:07:39+03:00,9.03,293.64,80.99904349764448,9.60336,244.99675319794,238.60827378223135,2.169447395483349,4.21848,3.9851999999999994,0.20626480624709637,,-5.924383601652713,23.444777,58.558864,9.866303537766607,105.97887700142597,350.975630199366,-1.1612756303528968,0.0023629371955644824,0.26981128322175163
2026-07-14T11:07:41+03:00,9.03,293.64,88.99753431767077,8.80632,232.9990169679006,236.42530458278293,-4.089830037423329,4.6655999999999995,4.64616,-0.6245239966925973,,-8.932412026089535,23.44471,58.55884,9.893504619920368,117.12988988369904,350.1289068515996,-2.1275567505786697,0.002548320573687017,0.27235960379543867
2026-07-14T11:07:43+03:00,9.0,293.65,90.99715702267736,8.90352,237.99520894144138,235.2220932130082,-2.5599181328650054,4.68504,4.7628,0.08021409131831525,,-6.566096332199234,23.444641,58.558821,10.13282417831079,118.53230653955364,356.527515480995,-2.2378290810982993,0.0024463339826643065,0.27480593777810297
2026-07-14T11:07:45+03:00,9.03,293.64,91.99983316415629,9.00072,236.99826237791373,229.29770961135546,-1.4687200120383521,4.7628,4.74336,0.10313240312354818,,-4.205510216260243,23.444568,58.558796,10.329044584358554,119.44029638719692,356.43855876511066,-2.3409941235271585,0.0027380178745762974,0.27754395565267925
2026-07-14T11:07:47+03:00,9.03,293.64,93.00250930563523,9.097919999999998,229.99671812141503,229.26906172159892,0.44071913601462925,4.87944,4.7628,0.13750987083139757,,-5.546231456866368,23.444494,58.558766,10.546641203104862,120.5199337653525,350.51665188676753,-2.4779655459807284,0.002938505748456138,0.28048246140113536
2026-07-14T11:07:49+03:00,9.03,293.64,93.99945586916286,8.90352,222.99517386491638,232.28854930193833,1.3979024285601824,4.74336,5.13216,0.544309905374282,,-9.814767030591003,23.444434,58.558737,10.376094008436372,121.13067181563149,344.12584568054785,-2.4522774432138212,0.002564655953249193,0.28304711735438454
2026-07-14T11:07:51+03:00,9.03,293.65,99.99832398418258,8.203679999999999,236.99826237791373,231.57808163597613,0.17097060606703768,4.82112,5.1710400000000005,0.11459155902616464,,-4.938896194027696,23.44436,58.558704,10.211619715321708,127.70536248191877,4.70362485983253,-2.94860224925884,0.0030524874822261566,0.2860996048366107
2026-07-14T11:07:53+03:00,9.03,293.65,97.00175471564837,8.90352,236.99826237791373,233.20528177414766,1.3984753863553134,4.45176,4.93776,-0.011459155902616466,,-5.402992008083663,23.444295,58.558686,10.428525936307949,122.07012489026994,359.06838726818364,-2.363692252027967,0.0023073775206004575,0.28840698235721113
2026-07-14T11:07:55+03:00,8.96,293.65,95.00213201064179,8.70912,232.9990169679006,234.87258895797837,-1.0148801425152272,4.89888,5.46264,-0.017188733853924696,,-4.63522856260836,23.444227,58.558664,10.357989549323957,123.11145223451763,356.11046920241824,-2.676108202268007,0.0025088452328834534,0.2909158275900946
2026-07-14T11:07:57+03:00,9.0,293.65,93.00250930563523,8.59248,237.99520894144138,234.28244242899365,0.6115178547431277,4.97664,4.957199999999999,-0.24064227395494575,,-3.5695270636650287,23.444153,58.558638,10.152701386583864,122.3106270680017,0.30583600944305545,-2.6600594525372983,0.0027974198775577693,0.29371324746765237
2026-07-14T11:07:59+03:00,9.0,293.65,86.00096504913657,8.203679999999999,236.99826237791373,235.06166503037153,0.9319158537802841,4.859999999999999,4.957199999999999,-0.02864788975654116,,-1.822005788516018,23.444076,58.55861,9.238990215748945,117.65243005820867,354.6506924361224,-2.255558978364292,0.002942972710698051,0.2966562201783504
2026-07-14T11:08:01+03:00,8.88,293.65,82.99866620265107,8.30088,237.99520894144138,237.00399195586502,4.122832406422864,4.74336,4.97664,-0.011459155902616466,,-6.073352628386726,23.444009,58.558584,9.044626644401587,114.36640712996383,352.3616160714052,-1.9569700245023924,0.002618261971615743,0.29927448214996616
2026-07-14T11:08:03+03:00,8.88,293.65,80.00209693411685,8.203679999999999,234.99863967290713,245.60408846077868,4.5014429174453126,4.93776,4.68504,-0.32658594322456924,,-6.89841185337511,23.443939,58.558557,8.810025370917618,113.50363229142486,348.502271964332,-1.9692142673022832,0.0027296200848562525,0.30200410223482244
2026-07-14T11:08:05+03:00,8.88,293.65,75.00017538262475,8.70912,247.99905204442555,254.38753146013417,3.9938023109594036,4.704479999999999,4.89888,0.246371851906254,,-8.743335953696363,23.443863,58.558538,8.761994029274042,106.24018851064602,354.23924055507155,-1.3156765565009287,0.0026424293468364315,0.3046465315816589
2026-07-14T11:08:07+03:00,8.88,293.65,69.00130726760504,9.29232,255.99754286445182,253.8031145091008,-1.9526401658058454,4.4712,5.01552,-0.1546986046853223,,-3.850276383279132,23.443786,58.558529,8.749959740068798,97.49491012309922,353.492452987551,-0.5832149069033642,0.0024741106237713114,0.30712064220543017
2026-07-14T11:08:09+03:00,8.88,293.65,69.00130726760504,10.303199999999999,261.99641097947153,249.48301273381435,-1.9631252934567398,4.723920000000001,5.0544,-0.08594366926962349,,-4.234158106016784,23.4437,58.558526,9.674131378025715,96.12257617657346,358.118987156045,-0.5038337533767896,0.002702451946955304,0.30982309415238546
2026-07-14T11:08:11+03:00,8.85,293.65,67.00168456259847,10.1088,248.99599860795314,251.71754813482457,3.1537315917385906,4.7628,5.26824,0.38388172273765153,,-9.642879692051755,23.443616,58.558514,9.340785565449766,94.99475178922731,343.9907503971805,-0.4146707643288929,0.002730705920930376,0.31255380007331585
2026-07-14T11:08:13+03:00,8.88,293.64,65.99900842111953,9.79776,243.9998066344124,253.063998953382,-0.4620904617730089,4.82112,5.1127199999999995,0.20626480624709637,,-6.697876625079324,23.44353,58.558495,8.989573826469645,95.33510936155777,339.33491599597016,-0.44827122919981516,0.0029283118171339684,0.31548211189044983
2026-07-14T11:08:15+03:00,8.73,293.65,67.00168456259847,10.5948,255.99754286445182,251.2935593664278,-1.5563825546933683,4.957199999999999,5.2488,0.03437746770784939,,-5.935842757555329,23.443439,58.558483,9.786911667832445,94.79307300488526,350.7906158693371,-0.41421058394769916,0.0029429613120532574,0.3184250732025031
2026-07-14T11:08:17+03:00,8.73,293.65,67.00168456259847,10.4976,255.99754286445182,251.8092213820455,-0.6489892945446835,5.1710400000000005,5.26824,0.03437746770784939,,-6.308265324390364,23.443356,58.55847,9.722226332208326,96.3161463596594,352.3136892241112,-0.5688889251445954,0.0027171535805542175,0.3211422267830573
2026-07-14T11:08:19+03:00,8.73,293.65,69.00130726760504,9.89496,250.9956213129597,252.08997070165958,0.09167324722093173,4.91832,5.3654399999999995,-0.022918311805232933,,-7.757848546071346,23.443273,58.558456,9.33922339184452,98.45080721690351,349.4464285298632,-0.7227973471201782,0.0027350462729165445,0.32387727305597386
2026-07-14T11:08:21+03:00,8.73,293.64,69.00130726760504,9.60336,250.9956213129597,253.1728609344569,2.4055060070772485,5.07384,5.79312,0.011459155902616466,,-11.814389735597574,23.443187,58.558442,9.113003951241428,100.31970064625281,351.3153219592125,-0.9089302583417137,0.0028246943970764893,0.32670196745305036
2026-07-14T11:08:23+03:00,8.73,293.66,67.00168456259847,9.79776,253.99792015944524,257.0861626752004,1.174219705341109,5.151599999999999,5.65704,0.05729577951308232,,-12.364429218923165,23.443102,58.558428,9.115600910620019,98.34879798165764,352.3467181411029,-0.7480067215431095,0.0027947807925816507,0.329496748245632
2026-07-14T11:08:25+03:00,8.73,293.65,63.999385716112954,10.5948,259.99678827446496,258.6159599881997,-0.6510519426071544,5.3654399999999995,6.35688,0.011459155902616466,,-11.424778434908614,23.443008,58.558418,9.549740971508326,94.3292166101812,354.3260048846462,-0.40502208382323335,0.0030079371067135733,0.3325046853523456
2026-07-14T11:08:27+03:00,8.73,293.65,65.0020618575919,10.90584,263.9960336844781,254.23856243340018,0.04755549699585833,5.3654399999999995,6.08472,-0.8708958485988514,,-8.370913386861329,23.442911,58.55841,9.91314313493204,94.37833071927244,358.3743644037505,-0.40960808247756353,0.003079110715581133,0.33558379606792677
2026-07-14T11:08:29+03:00,8.58,293.66,63.002439152585325,11.80008,264.998709825957,255.72252312278903,-2.019618932056639,5.26824,6.454079999999999,-0.011459155902616466,,-5.202456779787875,23.442814,58.558402,10.514548237399158,89.51808630481467,354.5167961307717,0.04431054245830173,0.00307911140163426,0.338662907469561
2026-07-14T11:08:31+03:00,8.58,293.66,63.999385716112954,11.60568,261.99641097947153,255.3386414000514,4.348176707247817,5.5404,5.67648,-0.25210142985756223,,-9.488181087366433,23.442714,58.558394,10.440880027560485,92.4849942553982,354.4814052348697,-0.24021919772424874,0.0031720538249274412,0.3418349612944885
2026-07-14T11:08:33+03:00,8.58,293.66,61.002816447578745,11.197439999999999,253.99792015944524,266.22483950753696,5.103621560127808,5.307119999999999,6.08472,-0.5042028597151245,,-16.976739469726294,23.442618,58.558379,9.794516280889148,89.2920109246329,343.28993108407815,0.0655770354429786,0.003142115161062898,0.34497707645555137
2026-07-14T11:08:35+03:00,8.58,293.66,56.00089489608667,11.29464,265.9956563894847,275.46664874299717,0.0673798367073848,5.28768,6.0652800000000004,-0.13750987083139757,,-11.659691130912252,23.442526,58.558379,9.42004605301989,83.73454818008476,349.7302045695694,0.5770707088368727,0.002884564327417258,0.3478616407829686
2026-07-14T11:08:37+03:00,8.43,293.66,52.99859604960115,12.20832,284.9949368760228,277.6496179424457,-0.4356198116379649,4.93776,5.754239999999999,-0.10886198107485642,,-9.396507840145501,23.442444,58.558388,10.043169875603203,76.11775828833372,1.1126951643565235,1.1847027656269293,0.0026273207627772978,0.3504889615457459
2026-07-14T11:08:39+03:00,8.43,293.65,48.00240407606037,12.20832,285.99761301750175,277.46627144800374,-1.2014924963893363,5.2488,5.9292,-0.18334649444186346,,-7.116135815524825,23.44236,58.558401,9.531132907377442,72.1611205737573,358.1587335912591,1.6079243455194137,0.0027472036632160113,0.3532361652089619
2026-07-14T11:08:41+03:00,8.43,293.65,46.99972793458143,12.59712,287.9972357225083,274.39521766610255,-3.138720097506163,5.09328,5.90976,-0.395340878640268,,-2.9335439110698154,23.442273,58.558419,9.854621195245565,69.20911538637726,357.2063511088856,1.8079016701021429,0.002934525785420834,0.35617069099438275
2026-07-14T11:08:43+03:00,8.43,293.65,48.00240407606037,12.20832,281.99836760748855,270.6366145300443,-0.008307888029396937,4.41288,5.7153599999999996,-0.5672282171795151,,-3.030946736242055,23.442197,58.558434,9.819504139294585,67.51302014238335,349.5113877498719,1.6878095531185213,0.0025477661920397187,0.3587184571864225
2026-07-14T11:08:45+03:00,8.43,293.66,46.99972793458143,11.39184,272.99720064598336,270.5392117048721,0.31163174477165473,4.29624,5.151599999999999,-0.1776169164905552,,-5.597797658428142,23.442122,58.558437,9.026323836163854,67.37083244592097,340.3680330919043,1.653043863390951,0.002358446930083638,0.3610769041165061
2026-07-14T11:08:47+03:00,8.4,293.65,50.002026781066945,11.10024,273.99987678746226,273.1862767183765,3.731674119687051,4.4712,5.3654399999999995,-0.1546986046853223,,-6.285347012585132,23.442038,58.558437,8.910934760696524,72.60766149254027,346.60753828000253,1.3365006560966328,0.0026337282862177766,0.3637106324027239
2026-07-14T11:08:49+03:00,8.4,293.65,50.002026781066945,11.10024,271.99452450450445,280.1534435071673,4.122202152848221,4.52952,4.87944,-0.12032113697747288,,-6.583285066053159,23.441957,58.558438,8.893676275966115,72.966201502712,344.96072600721646,1.3268584437515787,0.0025403777274828946,0.3662510101302068
2026-07-14T11:08:51+03:00,8.28,293.65,43.99742908809592,11.508479999999999,279.998744902482,285.25849746178295,1.4074708237388673,4.393439999999999,5.0544,-0.12032113697747288,,-2.910625599264582,23.441886,58.558446,8.888308118768942,64.07851783269254,344.0772627351745,1.920544112919136,0.002277470119917118,0.3685284802501239
2026-07-14T11:08:53+03:00,8.28,293.65,39.00123711455514,12.091679999999998,284.9949368760228,284.8574270051914,1.2020081584049542,4.393439999999999,4.91832,-0.21772396214971285,,-7.71201192246088,23.441812,58.558454,9.107259202044759,56.67513541758481,341.67007229360763,2.413692146024579,0.002369494028973794,0.3708979742790977
2026-07-14T11:08:55+03:00,8.28,293.65,41.00085981956171,12.69432,284.9949368760228,288.61030056329827,0.7836916721799401,4.31568,4.49064,0.08594366926962349,,-8.015679553880217,23.441742,58.558463,9.852866248613175,57.7012540886447,342.6961909646675,2.3060139019615438,0.002260458595465142,0.37315843287456285
2026-07-14T11:08:57+03:00,8.28,293.65,39.998183678082775,13.10256,289.9968584275149,288.9254273506202,1.3721193277792956,3.92688,4.68504,0.06875493541569878,,-6.961437210839502,23.441678,58.558475,10.40509749410282,54.036967853828315,344.0338262813432,2.3061118929743016,0.0021323462122906957,0.37529077908685354
2026-07-14T11:08:59+03:00,8.21,293.66,39.998183678082775,13.296959999999999,293.99610383752804,287.9284807870926,-1.6430710690966617,4.04352,4.52952,-0.3666929888837269,,-4.004974987964455,23.441622,58.558494,10.525298792632663,54.294183641697316,348.29028747922536,2.359893887847519,0.0020945553142864572,0.37738533440114
2026-07-14T11:09:01+03:00,8.13,293.66,43.000482524568284,13.7052,288.9999118639872,288.1060977035832,-0.6736264797353089,4.19904,4.58784,0.1776169164905552,,-3.3804509912718568,23.441564,58.55851,11.013093132686265,58.072484515604756,347.07239637959196,2.2206454253986747,0.002057167715017819,0.3794425021161578
2026-07-14T11:09:03+03:00,8.13,293.65,41.00085981956171,13.19976,284.9949368760228,286.9487229574189,0.37912617303806573,3.73248,4.548959999999999,0.44117750225073393,,-4.738360965731908,23.441498,58.558518,10.667718553083487,54.271410302642735,339.2663471786655,2.1795680935900297,0.002124488517233351,0.38156699063339117
2026-07-14T11:09:05+03:00,8.13,293.66,41.00085981956171,12.908159999999999,286.9945595810294,286.72526941731786,2.4889286620482958,3.61584,4.02408,-0.09740282517223994,,-1.0427831871380984,23.441434,58.558528,10.452053494468586,54.119286479421135,341.11384606045056,2.1192425704772666,0.002094735950346306,0.3836617265837375
2026-07-14T11:09:07+03:00,8.13,293.66,41.99780638308934,13.7052,292.99915727400037,287.42427792737743,-4.4884940712753565,3.61584,4.31568,-0.12605071492878112,,-1.7417916971977028,23.441371,58.558541,11.280513234825449,54.382421852134215,347.38157912613457,2.1057654161806862,0.0021242315942053497,0.3857859581779428
2026-07-14T11:09:09+03:00,8.13,293.66,39.998183678082775,13.296959999999999,293.99610383752804,281.5858379949944,-0.5780571195074876,3.44088,4.1796,-0.08594366926962349,,-7.9984908200262925,23.441314,58.558555,10.88801633055379,51.71817590234144,345.7142797398695,2.1317285464813827,0.001975373892741579,0.3877613320706844
2026-07-14T11:09:11+03:00,8.13,293.66,39.00123711455514,12.79152,277.99912219747546,286.24398486940794,2.913834162917315,3.402,3.92688,-0.27501974166279514,,-8.439668322277026,23.44125,58.558562,10.371115460456997,50.91500010798259,328.914122305458,2.144867839235755,0.0020502806452565568,0.38981161271594095
2026-07-14T11:09:13+03:00,8.06,293.65,39.998183678082775,13.00536,287.9972357225083,289.4525485221406,-1.2527722190535449,3.53808,4.00464,-0.6589014644004466,,-8.468316212033567,23.441191,58.558569,10.543148452969024,52.45473127431208,340.4519669968204,2.1560637007370445,0.0018971207138838001,0.39170873342982476
2026-07-14T11:09:15+03:00,8.02,293.66,41.00085981956171,13.608,287.9972357225083,293.25125870385796,0.9061900487789101,3.6741599999999996,3.8296799999999998,-0.34377467707849396,,-6.978625944693427,23.441128,58.55858,11.100009341728297,53.54329610255063,341.54053182505896,2.1832416269119097,0.0020830098300642203,0.39379174325988897
2026-07-14T11:09:17+03:00,7.98,293.66,39.998183678082775,13.802399999999999,296.9984026840135,291.0740190823608,-2.9698121395015957,3.3242399999999996,3.6741599999999996,0.005729577951308233,,-4.113836969039311,23.441076,58.558594,11.456827406283006,50.74678825505927,347.7451909390728,2.1034086600017705,0.0018347554806468405,0.3956264987405358
2026-07-14T11:09:19+03:00,7.98,293.66,41.00085981956171,13.8996,299.99497195254776,282.91510007969794,-8.568068164165844,2.99376,3.8491199999999997,0.22345354010102106,,-5.09359479871302,23.441031,58.55861,11.804755312749547,50.5784773911511,350.5734493436988,1.9010996856510447,0.0017075142959430685,0.39733401303647886
2026-07-14T11:09:21+03:00,7.98,293.66,45.00010522957485,13.00536,289.9968584275149,272.16641184304365,1.4896329715606274,3.1687199999999995,3.6935999999999996,0.09167324722093173,,-7.975572508221059,23.440985,58.558623,10.995456076541418,56.7580547819404,346.7549132094553,1.7370151676356678,0.0016403463298731845,0.39897435936635206
2026-07-14T11:09:23+03:00,7.98,293.65,48.00240407606037,12.59712,264.998709825957,279.55183782228,5.181944890722192,2.89656,3.46032,0.2119943841984046,,-9.413696573999426,23.440921,58.55862,10.874229742048257,59.42000002784896,324.418709853806,1.4735986243710013,0.002014725474714581,0.40098908484106666
2026-07-14T11:09:25+03:00,7.98,293.66,50.002026781066945,13.00536,280.99569146600965,287.1320694518608,0.9991238031491294,2.99376,3.5575200000000002,0.3093972093706446,,-8.880845824527759,23.440864,58.558621,11.315932178787426,61.69527391550004,342.69096538150967,1.4195237391625037,0.0017881739203484098,0.40277725876141507
2026-07-14T11:09:27+03:00,7.98,293.66,48.00240407606037,13.19976,286.9945595810294,289.13742173481864,0.19090953733759028,3.09096,3.7713599999999996,-0.11459155902616464,,-6.909871009277728,23.440812,58.558628,11.36614614623676,59.66229307185783,346.65685265288727,1.5612306784449443,0.0016838112010388688,0.40446106996245396
2026-07-14T11:09:29+03:00,7.98,293.66,48.00240407606037,13.7052,295.9957265425346,292.6496530189706,1.1826994807090454,2.99376,3.7519199999999997,0.09167324722093173,,-5.202456779787875,23.440762,58.55864,11.911704360735282,58.76739652608916,354.76312306862377,1.552305455411642,0.001725660529083872,0.4061867304915378
2026-07-14T11:09:31+03:00,7.98,293.66,43.99742908809592,13.7052,296.9984026840135,292.82154035750983,-4.380147752216118,3.09096,3.81024,-0.06302535746439056,,-3.6039045313728777,23.440715,58.558655,11.680677678646557,54.589369960747234,351.5877726447608,1.7910023475117456,0.0017275650756305222,0.40791429556716835
2026-07-14T11:09:33+03:00,7.98,293.66,41.00085981956171,13.39416,295.9957265425346,288.6905146546166,-0.5453985251850306,3.0132,3.42144,0.09740282517223994,,-5.9644906473118695,23.440674,58.55867,11.294450678066337,51.08128172976106,347.07700827229564,1.8929442858768357,0.0015701675840022742,0.4094844631511706
2026-07-14T11:09:35+03:00,7.95,293.66,41.00085981956171,13.00536,285.99761301750175,291.7672980144691,0.3845692720918086,2.916,3.44088,0.12032113697747288,,-5.958761069360561,23.44062,58.558682,10.972717898468204,51.04173547406765,337.0393484915694,1.8334470558043083,0.0018403393416296014,0.4113248024928002
2026-07-14T11:09:37+03:00,7.95,293.66,39.998183678082775,12.908159999999999,287.9972357225083,293.2856361715658,3.6649245365543104,2.56608,3.18816,0.05156620156177409,,-5.844169510334397,23.440569,58.558687,11.065986732583482,48.57004356705329,336.5672792895616,1.6979853022430325,0.0016270359629648745,0.41295183845576505
2026-07-14T11:09:39+03:00,7.95,293.66,39.00123711455514,12.79152,293.99610383752804,292.21993467262246,-2.5092113679959276,2.76048,3.44088,0.09740282517223994,,-5.809792042626548,23.440522,58.558697,10.787075737283201,48.26916035570966,342.2652641932377,1.8374642064068842,0.0015914956414981576,0.4145433340972632
2026-07-14T11:09:41+03:00,7.83,293.65,39.998183678082775,12.49992,294.99877997900694,289.28639076155264,-2.5171754813482456,2.916,3.1687199999999995,0.18334649444186346,,-5.626445548184684,23.440477,58.558707,10.43576964443626,50.34483316887025,345.3436131478772,1.860890823484674,0.0015336151543121897,0.41607694925157535
2026-07-14T11:09:43+03:00,7.83,293.66,37.001614409548566,12.091679999999998,294.99877997900694,284.54802979582075,1.4332539245197542,3.0326400000000002,3.6741599999999996,0.2119943841984046,,-6.846845651813337,23.440426,58.558721,9.84049822206712,47.69038321173397,342.68916319074094,2.0413811215472295,0.0018069460545556504,0.417883895306131
2026-07-14T11:09:45+03:00,7.83,293.66,35.00199170454199,11.80008,280.99569146600965,286.3012806489211,0.13430130717866498,3.1104000000000003,3.44088,0.07448451336700701,,-5.454558209645438,23.440365,58.558724,9.422702155449338,45.916548226918934,326.91223969292855,2.163921944222046,0.0019210547087516673,0.41980495001488266
2026-07-14T11:09:47+03:00,7.83,293.66,35.99893826806962,12.20832,286.9945595810294,281.82648026894935,-1.1484939003397352,2.89656,3.5964,0.045836623610465865,,-5.666552593843842,23.440311,58.558732,10.010756027649363,45.79072593559272,332.78528551662214,2.0197166443770174,0.0017600583443914992,0.4215650083592742
2026-07-14T11:09:49+03:00,7.83,293.66,37.001614409548566,12.59712,278.9960687610031,288.8566724152045,6.499002974389415,2.95488,3.1687199999999995,0.12605071492878112,,-6.955707632888194,23.440265,58.558737,10.3906124253166,46.85632797560723,325.85239673661033,2.0206359446410014,0.0014732477928818535,0.423038256152156
2026-07-14T11:09:51+03:00,7.68,293.67,33.99931556306306,12.69432,284.9949368760228,294.0763179288463,-0.31781968895906765,2.6632800000000003,3.44088,0.10313240312354818,,-6.222321655120741,23.440221,58.558742,10.591566835602036,42.082355887976604,327.07729276399937,1.9766391753404369,0.0014119169100934006,0.4244501730622494
2026-07-14T11:09:53+03:00,7.76,293.66,33.00236899953541,12.908159999999999,297.9953492475411,292.72986711028886,-3.0464738924901007,2.48832,3.36312,-0.045836623610465865,,-4.9446257719790045,23.440174,58.558752,10.905878987138033,40.14122911326737,338.13657836080847,1.9022153890591282,0.00159149349867856,0.42604166656092796
2026-07-14T11:09:55+03:00,7.72,293.67,33.00236899953541,13.00536,291.99648113252147,286.92007506766237,-1.0726342882644142,2.41056,3.44088,0.14896902673401402,,-7.551583739824251,23.440127,58.558762,11.06194463724682,39.819011775502446,331.8154929080239,1.8514814258138097,0.0015914931093596264,0.4276331596702876
2026-07-14T11:09:57+03:00,7.65,293.67,35.00199170454199,12.59712,287.9972357225083,285.1725537925133,0.7748108263554123,3.05208,3.8296799999999998,0.3609634109324186,,-11.499262948275621,23.440079,58.558773,10.247711730432007,44.83847783695961,332.83571355946793,2.164221897764893,0.0016438097093257372,0.42927696937961335
2026-07-14T11:09:59+03:00,7.53,293.67,35.99893826806962,12.49992,277.99912219747546,289.04574848759773,1.5063060433989341,3.3047999999999997,3.4992,0.4297183463481174,,-14.23227163104965,23.440019,58.558778,10.01639889714863,47.181062622639445,325.1801848201149,2.246218953620613,0.0019050717180438123,0.4311820410976572
2026-07-14T11:10:01+03:00,7.53,293.67,37.001614409548566,12.69432,278.9960687610031,292.397551589113,1.2081388068128538,3.05208,3.92688,0.44117750225073393,,-14.06611387046171,23.439963,58.558785,10.420051348953187,47.154822973379225,326.1508917343823,2.0754743125869592,0.0018055118846466622,0.43298755298230385
2026-07-14T11:10:03+03:00,7.53,293.67,35.00199170454199,13.10256,293.99610383752804,291.75010928061516,-0.34973343814785446,3.14928,3.9851999999999994,0.418259190445501,,-14.117680072023486,23.439916,58.558794,10.676812005057357,44.74289678376246,338.73900062129053,2.2368474513383787,0.0015697772050772558,0.43455733018738113
2026-07-14T11:10:05+03:00,7.38,293.67,35.00199170454199,13.39416,291.99648113252147,291.01672330284777,0.04004974987964454,3.38256,4.43232,0.4297183463481174,,-13.21813633366809,23.439852,58.558809,10.799126591532715,45.352390062344085,337.3488711948655,2.377075329976488,0.0021998799678680423,0.43675721015524915
2026-07-14T11:10:07+03:00,7.31,293.67,35.99893826806962,13.5108,291.99648113252147,291.79021632627433,0.8998875130324709,3.57696,4.548959999999999,0.1776169164905552,,-11.642502397058328,23.439793,58.558825,10.823105913486673,47.20008103520121,339.1965621677227,2.4303306557453004,0.0020849210880110242,0.43884213124326016
2026-07-14T11:10:09+03:00,7.23,293.67,35.99893826806962,13.8996,293.99610383752804,293.8700531225992,2.278080193440153,3.888,4.374,0.26356058576017866,,-10.834631905923866,23.439736,58.558839,10.994227068263237,47.99586108927235,341.9919649268004,2.6017885102906697,0.001975360784524742,0.4408174920277849
2026-07-14T11:10:11+03:00,7.23,293.67,35.99893826806962,14.21064,300.99764809402666,293.9559967918688,-1.0843799230645959,3.57696,4.276800000000001,0.4812845479098915,,-10.995060088560496,23.439682,58.558855,11.510417702061421,46.52335919867525,347.52100729270194,2.4611587589008233,0.0019471697188315033,0.44276466174661644
2026-07-14T11:10:13+03:00,7.01,293.67,37.001614409548566,14.094,292.99915727400037,294.4659292295353,0.8354870568597663,3.7908,3.9851999999999994,0.590146528984748,,-10.737229080751627,23.439626,58.55887,11.299316748657736,48.650290667599876,341.6494479416002,2.5044041879888845,0.0019737618706104987,0.44473842361722693
2026-07-14T11:10:15+03:00,6.93,293.67,39.00123711455514,14.59944,293.99610383752804,295.89832371736236,2.5378592577524683,3.9074399999999994,4.0824,0.693278932108296,,-10.788795282313401,23.439568,58.558884,11.8214411789463,51.00758664328595,345.003690480814,2.4586295584771505,0.0020037694356106668,0.4467421930528376
2026-07-14T11:10:17+03:00,6.78,293.66,41.00085981956171,14.502239999999999,292.99915727400037,295.2394222529619,-1.0911981208266528,3.5964,4.510079999999999,0.6875493541569879,,-9.602772646392598,23.439511,58.558898,12.021856623838811,52.31959630131408,345.3187535753144,2.1983224815978977,0.001975358061358829,0.4487175511141964
2026-07-14T11:10:19+03:00,6.63,293.67,46.00278137105379,15.007679999999999,306.99651620904643,292.31160791984337,0.13309809580889023,3.6352800000000003,4.704479999999999,0.6302535746439055,,-9.413696573999426,23.439458,58.558913,12.753525445597383,57.835270642728545,4.83178685177495,1.9352604588851345,0.0018905750075920874,0.4506081261217885
2026-07-14T11:10:21+03:00,6.41,293.66,46.99972793458143,15.007679999999999,291.99648113252147,293.44606435420246,1.3206104219970345,3.7908,4.52952,0.693278932108296,,-8.863657090673835,23.439399,58.558925,12.727958849569575,59.580748183840456,351.5772293163619,1.9193713007532154,0.0019855042200520923,0.45259363034184064
2026-07-14T11:10:23+03:00,5.96,293.67,46.99972793458143,15.29928,293.99610383752804,295.25088140886453,3.4643893082585224,3.6935999999999996,4.58784,0.6302535746439055,,-8.938141604040842,23.439336,58.558939,13.062602827285437,58.9344822399235,352.93058607745155,1.9059637498502369,0.0021470492846461116,0.45474067962648673
2026-07-14T11:10:25+03:00,5.58,293.67,48.00240407606037,14.91048,293.99610383752804,302.25242566536315,1.9116163876744785,3.71304,4.49064,0.5213915935690492,,-6.159296297656351,23.439272,58.55895,12.72879011567496,60.52276646085346,354.5188702983815,1.8271041299760267,0.002112745486787497,0.4568534251132742
2026-07-14T11:10:27+03:00,5.55,293.67,46.00278137105379,14.91048,305.99956964551876,299.6511972754692,-3.5345766381620485,3.9074399999999994,4.510079999999999,0.4526366581533504,,-5.683741327697766,23.439212,58.55897,12.516008463402182,58.981262465254844,4.9808321107735765,2.0135756047237376,0.0022325126117262173,0.4590859377250004
2026-07-14T11:10:29+03:00,5.62,293.67,41.00085981956171,14.91048,301.99459465755433,296.5514956038115,-0.4301767125842221,3.86856,4.33512,0.6245239966925973,,-8.124541534955073,23.439159,58.558988,12.256543538629067,52.95196804979399,354.94656270734833,2.3307467420329764,0.001982912779547224,0.4610688505045476
2026-07-14T11:10:31+03:00,5.92,293.67,41.00085981956171,14.59944,297.9953492475411,298.8490563622861,3.603618052475313,3.1687199999999995,4.29624,0.6130648407899808,,-9.006896539456541,23.439105,58.559002,12.383751231147084,50.665060709882056,348.6604099574232,2.0085015594929403,0.0018906796232219776,0.4629595301277696
2026-07-14T11:10:33+03:00,6.15,293.68,45.00010522957485,14.502239999999999,303.9999469405122,310.8868996379847,4.917295685151264,3.2270399999999997,3.6935999999999996,0.4812845479098915,,-6.589014644004467,23.439056,58.559016,12.43159912660481,55.57692705295396,359.57687399346617,1.8242432268561166,0.0017516860127263366,0.46471121614049593
2026-07-14T11:10:35+03:00,6.18,293.67,39.998183678082775,14.094,311.9984377605385,314.1126520245712,-0.550555145341208,3.14928,3.888,0.0,,-1.180293057969496,23.439008,58.559038,11.855537415214963,49.82916421537351,1.827601975911989,2.031502343209665,0.002003390411643395,0.4667146065521393
2026-07-14T11:10:37+03:00,6.45,293.67,33.00236899953541,13.608,316.9946297340793,311.3624546079433,-0.5256887770325304,3.42144,3.09096,-0.08021409131831525,,0.1432394487827058,23.43897,58.559061,10.899117456678491,42.84737131835385,359.84200105243315,2.508489848341819,0.0018250325718723462,0.46853963912401164
2026-07-14T11:10:39+03:00,6.93,293.67,28.000447448043335,13.296959999999999,315.9976831705516,308.42891069687346,-2.461025617425425,2.46888,2.44944,-0.040107045659157625,,-0.017188733853924696,23.438937,58.559083,11.17733824250547,33.95270000308108,349.9503831736327,2.047933309637529,0.0016790424481614849,0.4702186815721731
2026-07-14T11:10:41+03:00,7.08,293.67,26.00082474303676,13.10256,325.9957966955845,299.92621701713205,0.5774841617123567,2.17728,2.4299999999999997,0.06302535746439056,,0.37242256683503505,23.438911,58.559099,11.186442608574062,30.8955472924238,356.8913439880083,1.8683344465666114,0.001260730294363959,0.4714794118665371
2026-07-14T11:10:43+03:00,7.23,293.67,28.000447448043335,12.69432,314.99500702907267,293.1252079889291,-3.1048582918139314,2.00232,2.54664,0.32658594322456924,,-2.904896021313274,23.438882,58.559109,10.966747367109013,32.917753283061586,347.91276031213425,1.6808505672601337,0.0010899642602992907,0.47256937612683636
2026-07-14T11:10:45+03:00,7.35,293.67,31.999692858056477,12.091679999999998,311.9984377605385,284.6511621989443,-0.405081161157492,1.57464,3.07152,0.7333859777674538,,-6.881223119521186,23.438863,58.559116,10.788621957994668,36.43555314653051,348.43399090706896,1.266837898607586,0.0007293199865129604,0.4732986961133493
2026-07-14T11:10:47+03:00,7.35,293.67,35.99893826806962,12.091679999999998,282.99531417101616,281.5514605272865,1.1884863544398667,2.2356,2.7799199999999997,0.865166270647543,,-7.156242861183982,23.438827,58.55912,10.366633511328779,43.28103525088119,326.27634942189735,1.6275161780977192,0.0011540420357386365,0.47445273814908795
2026-07-14T11:10:49+03:00,7.35,293.67,41.99780638308934,12.49992,280.99569146600965,280.4914886062945,-0.582526190309508,2.46888,3.09096,0.7620338675239948,,-5.133701844372176,23.438793,58.559122,10.792297991436094,50.80244901703398,331.79814048304365,1.560322724723194,0.0010727690654088325,0.47552550721449677
