time,dpt,mtw,awa,aws,cog,hdg,rot,sog,stw,pitch,yaw,roll,lng,lat,tws,twa,twd,vmg,dist,cum_dist
2026-07-13T11:04:13+03:00,14.73,293.15,24.99814860155782,23.30856,290.9995345689938,284.3589537234276,-10.816526439597734,5.307119999999999,6.24024,0.21772396214971285,,-24.293410513546903,23.482054,58.522524,18.634059284171475,31.91082702223332,322.9103615912271,4.5050645866464505,0.0032014058303179603,0.0032014058303179603
2026-07-13T11:04:15+03:00,14.7,293.15,26.997771306564392,22.394879999999997,272.99720064598336,284.50219317221024,-3.2849962226030622,6.25968,7.03728,-0.2119943841984046,,-33.65554088598456,23.481951,58.522529,17.055737494323058,36.588416842490176,309.58561748847353,5.026134903102508,0.003246702433520802,0.006448108263838763
2026-07-13T11:04:17+03:00,14.88,293.14,30.0000701530499,22.80312,275.99949949246883,280.7722379259086,-1.0721759220283096,6.10416,6.14304,0.011459155902616466,,-31.01993502838277,23.481838,58.522534,17.780672842334756,39.88394870897807,315.88344820144687,4.683995571474316,0.0035593333581332267,0.01000744162197199
2026-07-13T11:04:19+03:00,14.81,293.14,37.001614409548566,23.30856,276.9964460559965,271.87993294547823,-1.8022960403635173,5.9292,6.14304,0.1432394487827058,,-29.6505658980201,23.481724,58.522543,18.91307576118748,47.87705387946906,324.8734999354656,3.9768550547945827,0.0036186720341910856,0.013626113656163076
2026-07-13T11:04:21+03:00,14.62,293.15,39.998183678082775,22.394879999999997,266.99833253096364,269.4792397838801,-2.373764145227001,6.35688,7.03728,-0.08594366926962349,,-32.1543914627418,23.481611,58.522538,17.995116022717053,53.122221266236934,320.12055379720056,3.814827479734742,0.003559332451471555,0.01718544610763463
2026-07-13T11:04:23+03:00,14.73,293.15,41.00085981956171,21.597839999999998,257.9971655694584,269.22713835402254,-3.560474330501962,7.03728,6.95952,-1.558445202755839,,-33.959208517403894,23.481487,58.522523,16.928564776722062,56.82772438487886,314.82488995433727,3.8505059107783506,0.003994941160316652,0.02118038726795128
2026-07-13T11:04:25+03:00,14.7,293.15,45.00010522957485,21.90888,263.9960336844781,268.6369918250378,-1.2161029201651723,6.5124,6.37632,0.20053522829578813,,-24.654373924479327,23.481374,58.522512,17.90618939460014,59.90243018756868,323.8984638720468,3.2657995479032302,0.003607728648613312,0.024788115916564595
2026-07-13T11:04:27+03:00,14.73,293.15,46.99972793458143,21.50064,253.99792015944524,268.01246782834517,4.58727199515591,6.72624,6.39576,1.942326925493491,,-21.88698777399745,23.481256,58.522502,17.614190553162754,63.21678799848917,317.2147081579344,3.030951286311019,0.003752014766846172,0.028540130683410766
2026-07-13T11:04:29+03:00,14.73,293.14,50.002026781066945,20.8008,257.9971655694584,268.8432566312849,7.3027481693989325,7.03728,6.72624,0.716197243913529,,-24.940852822044736,23.481138,58.522491,17.147030893392248,68.32663256116452,326.3237981306229,2.598971884310262,0.0037621130645488572,0.032302243747959626
2026-07-13T11:04:31+03:00,14.55,293.14,48.00240407606037,20.8008,263.9960336844781,274.33792188658947,0.5036871976995068,6.6095999999999995,7.7176800000000005,0.5844169510334397,,-20.248328479923295,23.481027,58.522486,17.099060424453455,64.69708912771951,328.6931228121976,2.8249681176261943,0.0034967937207671246,0.03579903746872675
2026-07-13T11:04:33+03:00,14.55,293.14,46.00278137105379,20.898,265.9956563894847,276.62975306711274,4.050181358000276,6.47352,7.01784,0.5614986392282068,,-21.58332014257811,23.480913,58.522488,17.04964850560033,61.85376529964712,327.8494216891318,3.0537118876930758,0.003580031939403493,0.03937906940813024
2026-07-13T11:04:35+03:00,14.58,293.14,43.99742908809592,20.898,270.9975779409768,282.39943806408013,5.302208731920151,6.62904,6.78456,1.3750987083139758,,-21.434351115844095,23.480792,58.52249,16.77368066113318,59.930816763371425,330.9283947043482,3.321449597371767,0.0037996175362964867,0.043178686944426725
2026-07-13T11:04:37+03:00,14.43,293.15,39.998183678082775,20.9952,278.9960687610031,286.04344964111215,2.3675762010395878,6.25968,7.3094399999999995,0.6531718864491385,,-25.588295130542566,23.480681,58.522497,16.692051562306403,53.94625747530216,332.94232623630523,3.6840960956722086,0.0035091698972503503,0.046687856841677075
2026-07-13T11:04:39+03:00,14.32,293.16,35.00199170454199,21.79224,283.9979903124951,288.86813157110714,0.7137908211739796,5.851439999999999,7.03728,-0.5271211715203573,,-23.158954079187875,23.480579,58.522508,17.327325243279727,46.17115981481163,330.16915012730675,4.052159582797246,0.003268943339801073,0.04995680018147815
2026-07-13T11:04:41+03:00,14.28,293.16,33.00236899953541,22.00608,277.99912219747546,284.82304953748354,-6.450129674464756,6.47352,7.3094399999999995,-1.4839606893888322,,-30.108932134124757,23.480471,58.522518,16.94791389249101,45.01027256141833,323.0093947588938,4.576649121914715,0.0034425744992238228,0.05339937468070197
2026-07-13T11:04:43+03:00,14.36,293.16,33.00236899953541,21.69504,277.99912219747546,283.70005225902713,-0.823340351602993,6.1624799999999995,6.8623199999999995,-1.455312799632291,,-30.830858955989598,23.480367,58.522528,16.864293619170052,44.48275118642792,322.48187338390335,4.396691759714463,0.0033190301999070984,0.05671840488060907
2026-07-13T11:04:45+03:00,14.47,293.16,35.00199170454199,21.90888,272.99720064598336,293.14812630073436,4.352645778049838,6.53184,6.25968,-0.29793805346802804,,-29.862560282218507,23.480254,58.522537,16.977033527224325,47.751672497605455,320.7488731435888,4.391651269498342,0.003587642365329931,0.060306047245939
2026-07-13T11:04:47+03:00,14.43,293.16,33.00236899953541,22.51152,287.9972357225083,298.6714394457955,3.4507529127344094,6.35688,7.270560000000001,0.8938141604040842,,-27.204036112811487,23.480148,58.522554,17.52576104923923,44.39679989852243,332.39403562103075,4.542065493580382,0.0034803056928626335,0.06378635293880164
2026-07-13T11:04:49+03:00,14.28,293.16,31.002746294528848,23.405759999999997,300.99764809402666,297.9609717798333,3.3531209044441166,5.94864,7.1150400000000005,2.790304462287109,,-17.091331028752457,23.480057,58.522579,18.561567926159423,40.50424276292213,341.50189085694876,4.523095250318982,0.0032273124606310532,0.0670136653994327
2026-07-13T11:04:51+03:00,14.4,293.15,33.00236899953541,23.60016,289.9968584275149,294.16226159811595,-1.4737620406355034,5.79312,7.13448,0.18907607239317165,,-21.88698777399745,23.479972,58.522607,19.005533042605897,42.55905069368751,332.5559091212024,4.267100167461973,0.003154321796222117,0.07016798719565481
2026-07-13T11:04:53+03:00,14.32,293.16,31.002746294528848,22.70592,288.9999118639872,296.2249096605869,2.6760566779380226,5.96808,6.7068,0.08021409131831525,,-16.976739469726294,23.479877,58.522626,17.857007317467747,40.91543104577735,329.9153429097646,4.50994141852499,0.00319289922724176,0.07336088642289658
2026-07-13T11:04:55+03:00,14.25,293.16,30.0000701530499,22.00608,292.99915727400037,296.59160264947064,-2.5508653997019377,5.5404,6.6095999999999995,0.26356058576017866,,-17.813257850617294,23.479784,58.522646,17.429509422498004,39.14531119009422,332.1444684640946,4.296842856176792,0.003156756403159572,0.07651764282605615
2026-07-13T11:04:57+03:00,14.28,293.16,28.000447448043335,22.00608,289.9968584275149,291.4177937594393,-1.8628003835293323,5.598719999999999,6.29856,-1.5928226704636885,,-28.172334786582578,23.479693,58.522667,17.26399302899331,36.757906570235235,326.75476499775016,4.485533438375744,0.003122614824936267,0.07964025765099242
2026-07-13T11:04:59+03:00,14.32,293.16,26.997771306564392,22.51152,285.99761301750175,292.8272699354612,-3.0713975565782907,5.22936,7.270560000000001,0.3495042550298022,,-29.40419404611385,23.479588,58.522679,18.009178332705755,34.5723180748989,320.5699310924007,4.305910564502145,0.0033735323300033357,0.08301378998099576
2026-07-13T11:05:01+03:00,14.4,293.16,26.997771306564392,22.70592,286.9945595810294,296.6890054746429,6.076045530023841,4.996079999999999,6.84288,0.985487407625016,,-23.342300573629736,23.479502,58.522689,18.394645835676467,34.080176069777195,321.0747356508066,4.138024553991961,0.002765304246401466,0.08577909422739723
2026-07-13T11:05:03+03:00,14.36,293.16,26.00082474303676,23.9112,296.9984026840135,299.6340085416153,1.6456493791747506,5.50152,6.35688,0.7276563998161455,,-26.00082474303676,23.479424,58.522703,19.119227190501746,33.24765897451539,330.2460616585289,4.6009682560543315,0.002588692186835728,0.08836778641423296
2026-07-13T11:05:05+03:00,14.4,293.16,24.001202038030186,24.90264,295.9957265425346,300.2012367587948,1.4437963479501614,5.326560000000001,6.76512,0.8766254265501595,,-23.875151323101406,23.479347,58.522723,20.153430669415968,30.17275357598521,326.1684801185198,4.604885213680166,0.0026991988331551116,0.09106698524738807
2026-07-13T11:05:07+03:00,14.4,293.16,24.99814860155782,25.408079999999998,298.9980253890201,302.0690791709213,-0.33770132445010725,5.42376,5.9292,0.3609634109324186,,-19.1367903573695,23.479256,58.522746,20.62018984451396,31.3800043473546,330.3780297363747,4.630440577049511,0.00317310976440401,0.09424009501179208
2026-07-13T11:05:09+03:00,14.36,293.18,24.99814860155782,25.09704,295.9957265425346,299.45066204717347,-1.0436426238307945,5.26824,6.27912,0.6990085100596044,,-20.68377640422272,23.479177,58.52277,20.443902469302742,31.24994276454194,327.2456693070766,4.503883643696479,0.002868602174156078,0.09710869718594815
2026-07-13T11:05:11+03:00,14.43,293.17,24.001202038030186,25.09704,294.99877997900694,301.09505091919885,5.377266203082289,5.326560000000001,5.6376,1.747521275149011,,-18.718531166923995,23.479087,58.522795,20.346714750706948,30.113902247048657,325.1126822260556,4.607632644352319,0.0031995542985457574,0.1003082514844939
2026-07-13T11:05:13+03:00,14.55,293.18,22.998525896551243,25.19424,294.99877997900694,303.77649340041114,3.2658594322456924,4.82112,6.2208000000000006,2.4006931615981495,,-14.94846887496318,23.479006,58.522809,20.841622914519903,28.183943690924565,323.18272366993153,4.249507971107999,0.0026779037650934436,0.10298615524958735
2026-07-13T11:05:15+03:00,14.62,293.18,22.998525896551243,25.408079999999998,297.9953492475411,302.99727079903323,-0.8080996742525132,5.1127199999999995,5.52096,0.38388172273765153,,-17.240300055486472,23.478924,58.522832,20.79789807314971,28.51011565925262,326.50546490679375,4.492715046722365,0.0029214441509339147,0.10590759940052126
2026-07-13T11:05:17+03:00,14.55,293.18,20.99890319154467,24.90264,291.99648113252147,302.60192992039293,0.6018348680054167,5.20992,5.890319999999999,0.6703606203030631,,-19.457646722642757,23.478849,58.522854,20.12550851845555,26.321691569087136,318.3181727016086,4.66974832622012,0.0026999366212784428,0.1086075360217997
2026-07-13T11:05:19+03:00,14.58,293.18,20.99890319154467,25.09704,286.9945595810294,307.25434721685525,6.265981039109709,4.82112,5.42376,0.3609634109324186,,-18.363297333942885,23.47877,58.522871,20.668436228908174,25.793780515558723,312.7883400965882,4.34077258123158,0.0026817771576960196,0.11128931317949572
2026-07-13T11:05:21+03:00,14.55,293.19,20.00195662801704,25.60248,304.9968935040398,325.37700227684314,11.797315593302676,3.71304,3.92688,-0.29220847551671986,,-9.551206444830822,23.478713,58.522888,22.149848959823988,23.289051101326777,328.2859446053666,3.4105087452249796,0.0020602455129551606,0.11334955869245089
2026-07-13T11:05:23+03:00,14.47,293.18,16.002711218003892,25.19424,333.9942875156107,347.5160914806982,8.008231102543517,2.31336,3.44088,-0.45836623610465854,,1.8391945223699424,23.478685,58.522906,22.9793774094694,17.59306264110822,351.5873501567189,2.2051578412086226,0.0013938726988371516,0.11474343139128804
2026-07-13T11:05:25+03:00,14.43,293.18,5.001921551492087,23.69736,12.99468279356707,7.32813019972323,5.684715355949488,2.2356,3.53808,-1.432394487827058,,15.487049202386151,23.478685,58.522923,21.471158451439777,5.522072839317872,18.516755632884944,2.2252250287025976,0.0010218311792047385,0.11576526257049277
2026-07-13T11:05:27+03:00,14.7,293.18,-12.002606371298052,20.8008,38.995507536603824,19.268570650249586,-5.119034124816827,2.93544,4.02408,-2.733008682774027,,26.699833253096365,23.478706,58.522947,17.939922970796914,13.9525899478231,25.042917588780725,2.8488315310679577,0.001586021388934679,0.11735128395942745
2026-07-13T11:05:29+03:00,14.73,293.19,-25.99996530634406,19.809359999999998,47.996674498109066,16.243353491958835,-7.463233647815078,4.58784,4.957199999999999,-4.2456172619194,,35.695270636650285,23.478749,58.522972,15.814242222997438,33.30633444007219,14.690340058036874,3.8342719475994937,0.0020197675188218015,0.11937105147824925
2026-07-13T11:05:30+03:00,14.58,293.19,-31.00188685783615,20.10096,33.99931556306306,8.433938744325717,-10.56161751654403,3.57696,4.16016,-3.9075721627922144,,37.74072996526732,23.478782,58.522998,17.134306273949317,37.174566841205746,356.8247487218573,2.850115348381393,0.0018748530434717075,0.12124590452172096
2026-07-13T11:05:32+03:00,14.7,293.18,-27.002641447823002,21.79224,20.99890319154467,0.3036676314193363,-5.144759929818201,4.60728,5.1710400000000005,-3.134079139365603,,31.95385623444601,23.478811,58.523038,17.81049091301838,33.74762636871969,347.251276822825,3.8309193531758563,0.002570823275274155,0.12381672779699511
2026-07-13T11:05:34+03:00,14.47,293.19,-29.999210716357208,23.094720000000002,11.997736230039438,4.566473627192661,6.549022189904335,3.92688,4.78224,-0.5271211715203573,,12.398806686631014,23.478821,58.523082,19.791543780924826,35.692525006504496,336.3052112235349,3.1892534889927853,0.002663297301986005,0.12648002509898112
2026-07-13T11:05:36+03:00,14.28,293.2,-35.00113226784929,23.30856,21.995849755072307,20.51188906568347,9.208520387563079,4.23792,5.01552,-1.1631043241155712,,13.03478983922623,23.478833,58.523118,19.98548982905583,41.987329192417974,340.0085205626543,3.150015354060858,0.002196409458501806,0.12867643455748293
2026-07-13T11:05:38+03:00,14.28,293.19,-37.00075497285587,21.40344,44.99437565162355,37.31674119687052,15.183553458305354,4.16016,5.6376,-1.088619810748564,,33.46073523564007,23.478883,58.523148,18.25354224400039,44.88440579911267,0.1099698525108792,2.947606188323863,0.0023904535083734886,0.13106688806585642
2026-07-13T11:05:40+03:00,14.51,293.2,-46.99886849788874,18.99288,36.99588483159726,49.22280417968903,7.079466516636452,4.41288,6.1624799999999995,-2.4293410513546903,,25.886233184010592,23.478943,58.52317,16.305812241656064,58.414473191449204,338.5814116401481,2.3113374183009663,0.002301050916140637,0.13336793898199706
2026-07-13T11:05:42+03:00,14.43,293.21,-61.00195701088606,20.5092,53.995542613128784,56.442072398337395,3.09145107940787,4.859999999999999,6.337439999999999,-0.8938141604040842,,16.151680244737907,23.479004,58.523195,18.644203428068092,74.18084771940056,339.81469489372824,1.3248451016802962,0.0024338129421085115,0.13580175192410557
2026-07-13T11:05:44+03:00,14.43,293.2,-67.9977716894334,21.40344,70.99520039466032,57.39318233825457,3.3626892996228013,7.07616,7.23168,-1.0198648753328654,,11.109651647586663,23.479114,58.523214,19.866980223484617,87.28089075857812,343.7143096360822,0.33569017882002894,0.003636388704807072,0.13943814062891263
2026-07-13T11:05:46+03:00,14.4,293.2,-74.00236938240442,21.40344,74.99444580467346,63.38632087532298,-2.723497583374855,7.348319999999999,7.251119999999999,-1.0542423430407146,,10.863279795680409,23.479242,58.523228,20.625553076670247,94.03012352476152,340.9643222799119,-0.516446822738505,0.004104522930265307,0.14354266355917794
2026-07-13T11:05:48+03:00,14.28,293.2,-78.99856135594521,21.092399999999998,81.99599006117212,63.180056069075874,-3.401765021250724,6.940079999999999,7.42608,-1.386557864216592,,13.670772991821442,23.479367,58.523237,20.9089566316813,98.01377009578253,343.9822199653896,-0.9675241281677476,0.003960298174450649,0.1475029617336286
2026-07-13T11:05:50+03:00,14.28,293.2,-78.00161479241758,20.10096,76.99979808763133,61.237729143582385,-3.285569180398193,6.55128,7.542719999999999,0.24064227395494575,,15.017223810378876,23.479487,58.523244,19.804458648039827,96.88066334172609,340.1191347459052,-0.7848550574190121,0.0037896783723000214,0.1512926401059286
2026-07-13T11:05:52+03:00,14.36,293.2,-80.00123749742416,20.8008,76.99979808763133,56.38477661882432,-7.314780283096681,6.29856,6.55128,-0.9339212060632418,,13.716609615431908,23.479601,58.523254,20.660340026783942,97.47277309321167,339.52702499441966,-0.8191594962147302,0.003628073114686474,0.15492071322061507
2026-07-13T11:05:54+03:00,14.32,293.21,-74.99931594593207,20.898,75.99712194615239,52.053215687635294,-1.6532697178499904,6.2208000000000006,7.095599999999999,-2.543932610380855,,18.775826946437075,23.479712,58.523269,20.202168871461296,92.30286493857759,343.69425700757483,-0.24996266032868833,0.0035985578981445093,0.15851927111875957
2026-07-13T11:05:56+03:00,14.43,293.21,-72.00274667739787,20.10096,65.99900842111953,46.68460114725947,0.935296304771556,6.97896,7.1150400000000005,-2.521014298575622,,21.021821503349905,23.479819,58.523291,19.132880429873275,92.30150278948581,333.6975056316337,-0.28026107577307346,0.0036092105602517814,0.16212848167901137
2026-07-13T11:05:58+03:00,14.43,293.21,-69.00044783091235,20.29536,56.99784145961429,42.43898388534007,0.48025322387865604,5.832,7.698239999999999,-1.5469860468532228,,20.96452572383682,23.479912,58.523317,19.00212903147736,85.65070231615428,331.34713914346,0.44227954069887954,0.003310884667479816,0.16543936634649117
2026-07-13T11:06:00+03:00,14.4,293.21,-65.0012024208992,20.606399999999997,56.99784145961429,42.39314726172961,2.0659712176827223,5.87088,7.32888,-0.6531718864491385,,14.879713939547477,23.480005,58.523349,18.89022982900854,81.36130965850523,335.6365318011091,0.8818237336020937,0.003495603735144763,0.16893497008163594
2026-07-13T11:06:02+03:00,14.25,293.21,-65.0012024208992,20.606399999999997,55.99516531813535,43.61927694330957,0.40817513325119853,6.6679200000000005,6.901199999999999,-0.38388172273765153,,14.255189942854882,23.480093,58.523389,18.787045072513695,83.76521044976107,332.2299548683743,0.7241559588513343,0.0036618058484951424,0.1725967759301311
2026-07-13T11:06:04+03:00,14.21,293.21,-65.0012024208992,20.10096,56.99784145961429,43.710950190530504,0.8544519598785966,6.59016,7.387199999999999,-0.25210142985756223,,17.423646549928336,23.480198,58.523423,18.317111958109475,84.03198317439696,332.96585828521734,0.6852006382744652,0.0038777002646220066,0.1764744761947531
2026-07-13T11:06:06+03:00,14.25,293.21,-65.99814898442683,19.809359999999998,61.99976301110639,44.67351928635029,-0.9049868374091353,6.76512,7.29,-1.753250853100319,,19.47483545649668,23.480303,58.523455,18.14259993853835,85.91422333603265,336.08553967507373,0.4820136729189569,0.0038157084728391607,0.18029018466759225
2026-07-13T11:06:08+03:00,14.28,293.22,-65.0012024208992,20.7036,58.99746416462087,48.76443794358437,2.3916977242145956,6.25968,7.62048,-1.1917522138721122,,14.862525205693554,23.480406,58.523488,18.92846240361378,82.44203169011251,336.55543247450834,0.8233307499564531,0.0037927139647887845,0.18408289863238103
2026-07-13T11:06:10+03:00,14.21,293.22,-67.00082512590576,20.8008,71.99787653613924,50.91302967532494,-0.2642481351143357,6.8623199999999995,6.62904,-1.948056503444799,,22.030227222780155,23.480514,58.523516,19.189091015961235,86.22038297799708,345.77749355814217,0.4523567798056569,0.003784431347007175,0.1878673299793882
2026-07-13T11:06:12+03:00,14.43,293.21,-65.0012024208992,18.895680000000002,64.99633227964058,49.893164799992086,4.22218328809855,7.095599999999999,7.814879999999999,-2.807493196141034,,24.900745776385577,23.480627,58.523533,17.148564724385864,87.02605117017202,337.97028110946854,0.3681331761250653,0.0036907935952137055,0.19155812357460192
2026-07-13T11:06:14+03:00,14.66,293.22,-63.99852627942025,18.99288,66.99595498464716,53.015784783455075,6.689568737049926,7.29,8.47584,-2.5496621883321633,,24.76896548350549,23.48074,58.523553,17.101904016802887,86.52576629184719,340.4701886928,0.44177156179847693,0.003744726981922307,0.19530285055652422
2026-07-13T11:06:16+03:00,14.58,293.21,-69.00044783091235,19.40112,70.99520039466032,51.881328349096044,2.2145964697396576,7.056719999999999,8.53416,-1.9996227050065731,,20.678046826271412,23.480857,58.523572,18.11285950269317,90.32936724681865,340.6658331478417,-0.040565634268950136,0.003845553941529959,0.19914840449805418
2026-07-13T11:06:18+03:00,14.58,293.22,-69.99739439443997,19.10952,69.99825383113267,50.305694412486275,-0.9662933214881335,7.01784,8.0676,-1.9938931270552647,,19.778503087916018,23.480973,58.52359,17.96322358493604,91.53497121604904,338.46328261508364,-0.187987561521698,0.00379803653146843,0.2029464410295226
2026-07-13T11:06:20+03:00,14.43,293.23,-71.00007053591892,19.20672,65.99900842111953,57.141080908396994,3.188280946784979,6.78456,7.270560000000001,-2.211617089204978,,22.700587843083216,23.481076,58.52362,18.168093893273223,91.67635902672157,334.32264939439796,-0.19847423159404512,0.003701588102028184,0.2066480291315508
2026-07-13T11:06:22+03:00,14.58,293.22,-72.9996932409255,19.40112,75.99712194615239,52.50585234578864,-4.024054482542311,6.6679200000000005,8.43696,-2.6527945914557116,,26.82015439007384,23.48119,58.523639,18.580040114200504,93.07126618048711,342.9258557656653,-0.3572540865278757,0.0037557440694191845,0.21040377320097
2026-07-13T11:06:24+03:00,14.73,293.22,-67.9977716894334,20.003759999999996,71.99787653613924,42.10093878621289,-4.980435634174681,7.17336,7.1928,-2.1027551081301215,,22.500052614787425,23.481307,58.523657,18.549647799864584,89.00875580416346,342.9891207319758,0.12409634400208065,0.0038281249584301625,0.21423189815940016
2026-07-13T11:06:26+03:00,14.73,293.22,-67.00082512590576,21.69504,52.99859604960115,37.51727642516631,-3.4811196758763425,6.37632,7.3094399999999995,-1.604281826366305,,20.145196076799746,23.481405,58.523689,20.08065439042326,83.99621313962021,329.00238290998095,0.6669260520799819,0.0036276402497658227,0.217859538409166
2026-07-13T11:06:28+03:00,14.58,293.22,-63.99852627942025,21.50064,52.99859604960115,37.3052820409679,-2.3600131581438606,6.940079999999999,6.804,-2.4751776749651566,,23.193331546895728,23.481508,58.523727,19.483613932148437,82.67035306688406,330.3282429827171,0.8854003745491706,0.003958172703342568,0.22181771111250856
2026-07-13T11:06:30+03:00,14.58,293.22,-59.999280869407116,20.9952,59.994410728148495,33.55813806081232,-6.390771246889202,6.53184,8.1648,-2.5783100780887045,,23.714723140464773,23.481608,58.523761,18.60975788124004,77.69513365681007,342.29927707133845,1.3920224321739523,0.0037452248700130582,0.2255629359825216
2026-07-13T11:06:32+03:00,14.58,293.23,-57.00271160087291,20.9952,47.996674498109066,34.11963670004053,1.2336927244756886,6.29856,7.46496,-2.0053522829578814,,15.080249167843267,23.481705,58.523804,18.342168958902576,73.74108114884943,334.25559334925964,1.763461098696077,0.003993533604608613,0.22955646958713022
2026-07-13T11:06:34+03:00,14.66,293.22,-59.00233430587948,21.306240000000003,48.999350639587995,39.465332928611105,-3.5405353992314095,6.27912,9.00072,-1.2261296815799616,,14.914091407255329,23.481786,58.523839,18.856945579826373,75.5870466534091,333.41230398617887,1.5629285801653525,0.0032997735795984038,0.23285624316672862
2026-07-13T11:06:36+03:00,14.62,293.22,-59.00233430587948,20.8008,57.99478802314193,39.998183678082775,-0.744042992756887,6.78456,7.42608,-1.627200138171538,,20.179573544507594,23.481877,58.52388,18.25772826419664,77.57642002724462,340.4183679958973,1.4596116259894487,0.0037722945870362463,0.23662853775376486
2026-07-13T11:06:38+03:00,14.81,293.22,-59.00233430587948,20.5092,55.99516531813535,39.12728782948392,6.094838545704133,7.348319999999999,7.29,-1.4667719555349077,,18.833122725950158,23.481962,58.523919,17.87161805241969,79.6397197470873,336.35544557104805,1.3215016644682414,0.0035513308563543075,0.24017986861011917
2026-07-13T11:06:40+03:00,14.73,293.23,-57.99965816440055,20.898,53.995542613128784,41.768623265037014,3.934271996045311,5.98752,7.503839999999999,-1.7818987428568602,,20.185303122458905,23.482046,58.523955,18.43802900287483,73.98503536848638,340.0105072446424,1.6518873771499334,0.003410653737893716,0.24359052234801287
2026-07-13T11:06:42+03:00,14.73,293.22,-59.999280869407116,20.9952,63.999385716112954,43.87710795111844,0.5448828631694129,6.78456,7.4844,-2.0511889065683473,,21.801044104727822,23.482146,58.523983,18.557542582897035,78.4574958875115,345.5418898286015,1.3575553364700266,0.003561259635105585,0.24715178198311846
2026-07-13T11:06:44+03:00,14.73,293.23,-59.00233430587948,20.8008,66.99595498464716,40.58833020706752,-4.936489771288147,6.27912,7.6593599999999995,-2.0741072183735803,,21.17079053008392,23.482243,58.524009,18.373098929616507,76.03694868243926,350.9590063022079,1.5151273228703739,0.0034220201724352735,0.25057380215555375
2026-07-13T11:06:46+03:00,14.62,293.23,-59.00233430587948,21.092399999999998,60.99708686962744,39.12155825153261,-3.021836707299475,6.6095999999999995,7.42608,-2.217346667156286,,20.55199611134263,23.482335,58.52404,18.57365268640543,76.76279025792502,344.2342966117024,1.5134866693704974,0.003436432684005955,0.2540102348395597
2026-07-13T11:06:48+03:00,14.66,293.23,-59.00233430587948,20.8008,57.99478802314193,37.67770460780294,-5.548007626031275,6.337439999999999,7.60104,-1.850653678272559,,18.22005788516018,23.482426,58.524076,18.359113776888606,76.21357807413315,341.78120994900877,1.5102329253895204,0.0035831736168428757,0.25759340845640255
2026-07-13T11:06:50+03:00,14.66,293.23,-56.00003545939396,20.8008,53.995542613128784,35.06501706200638,-3.546551456080283,6.1236,8.00928,-1.6673071838306956,,17.584074732564968,23.4825,58.524111,18.102945204020962,72.28619467092221,341.7093479422066,1.8631824230797223,0.0031336376777667055,0.26072704613416925
2026-07-13T11:06:52+03:00,14.62,293.23,-54.00041275438739,20.606399999999997,47.996674498109066,36.23958054202457,1.8078537309762863,5.754239999999999,7.60104,-1.3349916626548182,,17.979415611205233,23.482578,58.52415,17.842199496459962,69.12479075831546,338.8718837397936,2.0504299406987636,0.003389392183421818,0.2641164383175911
2026-07-13T11:06:54+03:00,14.58,293.23,-57.00271160087291,20.898,48.999350639587995,35.804132617725145,-0.9466408691151461,6.18192,7.44552,-1.2662367272391195,,17.578345154613658,23.482663,58.524189,18.281936917977262,73.4778818040591,335.5214688355289,1.7580481742470706,0.0035513154317406226,0.2676677537493317
2026-07-13T11:06:56+03:00,14.58,293.23,-57.99965816440055,21.209039999999998,47.996674498109066,34.933236769126296,1.2183947513456954,6.2208000000000006,7.46496,-1.409476176021825,,18.586750874043908,23.48275,58.524232,18.673196608397934,74.41021468585849,333.58645981225055,1.6718282042196262,0.003759747924028572,0.27142750167336027
2026-07-13T11:06:58+03:00,14.58,293.22,-57.99965816440055,20.898,49.99629720311564,37.9298060376605,3.5717615990660385,6.57072,7.1150400000000005,-1.552715624804531,,18.959173440878942,23.48283,58.524272,18.285725233150423,75.74176570455852,334.2545314985571,1.6183196079100524,0.003476293394398294,0.2749037950677586
2026-07-13T11:07:00+03:00,14.55,293.23,-59.999280869407116,20.8008,50.998973344594575,36.801079181252774,-3.659596029059594,5.69592,7.62048,-2.177239621497128,,22.167737093611553,23.482914,58.524309,18.61812334508876,75.36295595481832,335.63601738977627,1.4393303263510338,0.003449081512362725,0.2783528765801213
2026-07-13T11:07:02+03:00,14.55,293.23,-57.00271160087291,20.898,48.999350639587995,26.69410367514505,-1.2626270931297952,6.57072,7.29,-1.8162762105647094,,20.254058057874598,23.483001,58.524347,18.175190493537556,74.6530164593853,334.3463341802027,1.7390324802289947,0.0035598335335577315,0.281912710113679
2026-07-13T11:07:04+03:00,14.43,293.23,-52.997736612908454,20.898,42.99475294661698,28.39005874873229,0.1779606911676337,6.27912,7.387199999999999,-1.0943493886998723,,15.825094301513339,23.483081,58.52439,17.838269930909693,69.32441114617352,333.67034180044345,2.217008213351145,0.003603358897682389,0.2855160690113614
2026-07-13T11:07:06+03:00,14.43,293.23,-52.997736612908454,20.39256,40.9951302416104,31.455382952682196,0.22568807550203127,6.43464,7.270560000000001,-1.0485127650894066,,16.930902846115824,23.483154,58.524436,17.30069208988043,70.27688368058483,330.7182465610256,2.1715306024982257,0.0035908108391518203,0.2891068798505132
2026-07-13T11:07:08+03:00,14.43,293.22,-52.00079004938082,20.898,43.99742908809592,31.501219576292662,4.871802836217876,6.648479999999999,7.62048,-1.9308677695908742,,20.55199611134263,23.483229,58.524482,17.602607163462938,69.31632667617608,334.6811024119198,2.348298123416714,0.003631179060556548,0.29273805891106974
2026-07-13T11:07:10+03:00,14.47,293.23,-52.997736612908454,20.5092,41.99780638308934,36.74378340173969,4.129306829507843,6.24024,7.01784,-1.5699043586584558,,20.047793251627503,23.48331,58.524519,17.47902819291892,69.5634449689954,332.4343614140939,2.1789043982549168,0.003377649848279061,0.2961157087593488
2026-07-13T11:07:12+03:00,14.55,293.23,-56.00003545939396,20.8008,60.99708686962744,39.56846533173465,2.924949544142853,6.337439999999999,7.40664,-2.1543213096918956,,23.525647068071603,23.483394,58.524553,18.039031852551787,72.93320733201871,348.0638795376087,1.8599519435830927,0.003335642410798948,0.2994513511701477
2026-07-13T11:07:14+03:00,14.51,293.23,-59.00233430587948,20.606399999999997,56.99784145961429,41.075344332928715,1.3214125629102178,6.72624,7.63992,-2.910625599264582,,27.857207999260627,23.483493,58.524588,18.08600154674249,77.59215841039043,339.40568304922385,1.4452604225018468,0.0037522698510488077,0.3032036210211965
2026-07-13T11:07:16+03:00,14.7,293.23,-59.00233430587948,20.39256,58.99746416462087,40.032561145790616,2.4141003740042106,5.94864,8.0676,-2.5095551426730056,,23.11884703352872,23.483588,58.524621,18.06363247882649,75.39900213309929,343.5984620315216,1.4995701234894752,0.0035810356605205226,0.30678465668171706
2026-07-13T11:07:20+03:00,14.47,293.22,-59.999280869407116,19.49832,53.995542613128784,46.455418029207145,3.6786182278579376,7.387199999999999,8.10648,-2.045459328617039,,19.89882422489349,23.48381,58.524695,17.050339758585768,82.0365682237216,331.95897438940716,1.023430429930746,0.004027772671045861,0.31081242935276293
2026-07-13T11:07:22+03:00,14.58,293.21,-63.99852627942025,19.20672,56.99784145961429,52.683469262279196,-0.4230147401450868,6.24024,7.85376,-1.529797312999298,,16.449618298205937,23.483908,58.524725,17.399758630917884,82.80296100441507,334.1948804551992,0.7817895082250179,0.003565278418636116,0.31437770777139906
2026-07-13T11:07:24+03:00,14.55,293.23,-65.99814898442683,18.895680000000002,67.99863112612611,56.109756877161516,0.3458373251409649,6.940079999999999,8.10648,-2.320479070279834,,21.617697610285962,23.484023,58.52475,17.277928532175963,87.52525797451925,340.4733731516069,0.29966549154708455,0.0039094981884713895,0.3182872059598705
2026-07-13T11:07:26+03:00,14.58,293.23,-69.00044783091235,18.798479999999998,60.99708686962744,55.181565249049584,-4.009157579868909,6.648479999999999,8.49528,-2.7501974166279517,,24.809072529164645,23.484137,58.524777,17.55016703758791,89.71219859342962,331.2848882761978,0.03339572068608164,0.003928657134197877,0.32221586309406836
2026-07-13T11:07:28+03:00,14.66,293.22,-69.00044783091235,18.701279999999997,64.99633227964058,52.574607281204344,1.5510540471986518,6.68736,7.93152,-2.1715100435458203,,23.330841417727125,23.484253,58.5248,17.459207314953183,89.95260279889784,335.04372948074274,0.005532032434247739,0.0038942035375877423,0.3261100666316561
2026-07-13T11:07:30+03:00,14.58,293.22,-69.00044783091235,18.701279999999997,65.99900842111953,51.669333964897646,2.479360266869611,7.01784,7.892639999999999,-1.850653678272559,,18.729990322826612,23.484377,58.524824,17.462061473801565,91.03702420594799,334.9619842151715,-0.1270123676027605,0.004150388633836279,0.33026045526549236
2026-07-13T11:07:32+03:00,14.62,293.21,-69.00044783091235,17.90424,69.99825383113267,60.510072743766244,5.069473275538011,6.940079999999999,7.6593599999999995,-1.3464508185574346,,16.186057712445756,23.484488,58.52484,16.723306580732856,91.79524605265743,338.20300777847524,-0.21741763170092215,0.0036139359837483133,0.3338743912492407
2026-07-13T11:07:34+03:00,14.55,293.22,-72.9996932409255,18.195839999999997,82.99866620265107,60.91687277830912,-5.392392288873743,6.648479999999999,7.8732,-1.1172677005051053,,18.970632596781556,23.484614,58.524854,17.451375159963053,94.36570729043535,348.6329589122157,-0.5060973079961282,0.004042926664209452,0.33791731791345014
2026-07-13T11:07:36+03:00,14.58,293.22,-69.00044783091235,17.90424,76.99979808763133,57.49631474137812,0.1890187766136586,7.348319999999999,7.44552,-1.948056503444799,,22.585996284057053,23.484742,58.524866,16.741069283027738,93.19188704132868,343.80791104630265,-0.409155393611069,0.004081387953662126,0.3419987058671123
2026-07-13T11:07:38+03:00,14.73,293.21,-69.00044783091235,18.29304,72.99482309966687,56.757199185659346,0.3912728782948392,6.95952,7.52328,-0.47555496995858326,,18.42059311345597,23.484851,58.524884,17.082853517351385,91.35518751375697,341.6396355859099,-0.16459458832134263,0.003587869073434864,0.3455865749405472
2026-07-13T11:07:40+03:00,14.73,293.21,-69.99739439443997,18.40968,70.99520039466032,62.61282785189636,4.417332713120108,6.9984,7.348319999999999,-0.4068000345428845,,14.077573026364327,23.484956,58.524905,17.31335663856371,92.32091833709543,338.6742820575649,-0.2834113325500161,0.0035287940354431177,0.34911536897599027
2026-07-13T11:07:42+03:00,14.62,293.22,-72.00274667739787,18.60408,79.99636735616555,67.5116170002649,0.08703228908037204,6.6679200000000005,6.9984,-0.46982539200727513,,15.853742191269879,23.485069,58.52492,17.717698085683622,92.97577376368466,347.0205935924809,-0.3461564215655234,0.00365919854667368,0.35277456752266395
2026-07-13T11:07:44+03:00,14.58,293.22,-74.99931594593207,18.09864,83.99561276617868,68.92682275423805,-0.817839956769737,7.07616,7.52328,-1.2375888374825783,,20.700965138076644,23.485183,58.524926,17.644730936933907,97.79021280917637,346.2053999570023,-0.959147534008081,0.0035958955391466284,0.3563704630618106
2026-07-13T11:07:48+03:00,14.62,293.22,-69.99739439443997,18.09864,71.99787653613924,56.46499071014264,1.0068587333833956,7.23168,8.08704,-1.7131438074411613,,21.079117282862985,23.485444,58.52494,17.038695446424914,93.50208762729105,338.4957889088482,-0.4417465038962147,0.003978314418255749,0.36034877748006633
2026-07-13T11:07:50+03:00,14.66,293.21,-69.99739439443997,19.69272,73.99749924114583,56.85460201083159,4.893632528212361,6.88176,7.29,-0.37242256683503505,,20.007686205968348,23.485553,58.524956,18.505370239692386,90.45084280640597,343.5466564347399,-0.0541498867986403,0.003553459726189635,0.363902237206256
2026-07-13T11:07:52+03:00,14.7,293.2,-74.00236938240442,20.10096,74.99444580467346,65.66096332199233,-0.8490088608248538,6.1624799999999995,7.83432,0.1432394487827058,,18.24870577491672,23.485664,58.524974,19.332543287257785,91.84582333573444,343.14862246893904,-0.1984942350434172,0.0036477556139914782,0.3675499928202475
2026-07-13T11:07:54+03:00,14.66,293.21,-76.001992087411,19.69272,83.99561276617868,68.22208466622713,5.493232860816768,7.348319999999999,7.698239999999999,-0.9797578296737078,,20.569184845196556,23.485791,58.524982,19.28197413878545,97.70409608831096,346.2915166778677,-0.9850939597615217,0.004014651019109467,0.37156464383935695
2026-07-13T11:07:56+03:00,14.73,293.21,-78.99856135594521,19.10952,87.99485817619184,73.60215836250555,0.03134079139365603,6.92064,7.29,-1.2948846169956605,,16.976739469726294,23.485917,58.52499,19.041887318238714,99.90014089072642,348.09471728546544,-1.1898761730486886,0.003983493984314563,0.3755481378236715
2026-07-13T11:07:58+03:00,14.62,293.21,-82.00086020243072,18.895680000000002,95.99907857416943,75.10903736369961,-3.011466171207607,7.503839999999999,9.078479999999999,-0.20053522829578813,,19.291488962054817,23.486035,58.524992,19.336281988318703,104.6008155805665,351.39826299360294,-1.8915914977649435,0.0037052436289646204,0.37925338145263615
2026-07-13T11:08:01+03:00,14.58,293.21,-84.99742947096492,18.60408,84.99828890765764,77.65869955203178,-0.04428963756361264,6.8623199999999995,8.39808,-2.137132575837971,,27.628024881208297,23.486163,58.524988,19.25974989616136,105.78759227393415,339.2106966337235,-1.8670442136172627,0.00402432006708593,0.38327770151972207
2026-07-13T11:08:05+03:00,14.62,293.2,-80.00123749742416,18.99288,87.99485817619184,60.653312192548945,-2.855678946711536,7.270560000000001,8.08704,-1.1573747461642627,,22.597455439959663,23.486435,58.524993,19.12167998054242,101.99161940439666,346.00323877179517,-1.5105941882790046,0.0041444104506915035,0.3874221119704136
2026-07-13T11:08:09+03:00,14.7,293.2,-72.9996932409255,20.19816,71.99787653613924,54.6372553436753,4.348348594586357,7.1150400000000005,7.56216,-1.180293057969496,,27.51916290013344,23.486698,58.52503,19.35340010820456,93.58325824041702,338.4146182957222,-0.4446821351292,0.004073041761192151,0.39149515373160576
2026-07-13T11:08:11+03:00,14.73,293.2,-72.9996932409255,20.10096,66.99595498464716,55.34199343168621,-2.8914315131276997,6.648479999999999,7.73712,-1.082890232797256,,19.67537068479247,23.486799,58.525054,19.238085036090975,92.29811117528133,334.69784380936585,-0.26659642125045196,0.0034825924260652504,0.394977746157671
2026-07-13T11:08:13+03:00,14.58,293.2,-69.99739439443997,20.19816,65.99900842111953,52.91265238033152,1.5139836778536873,6.6679200000000005,7.62048,-1.3349916626548182,,23.09019914377218,23.486899,58.525078,18.98127927650907,89.27214753289162,336.7268608882279,0.08470312352305072,0.0034540502453388197,0.39843179640300985
2026-07-13T11:08:15+03:00,14.73,293.2,-69.99739439443997,20.19816,68.99557768965373,52.826708711061904,1.5115772551141378,7.270560000000001,7.814879999999999,-1.0771606548459478,,16.942362002018445,23.487012,58.525098,18.98319045803718,91.09121706990466,337.90436061974907,-0.138461848806032,0.0037445790455239605,0.4021763754485338
2026-07-13T11:08:17+03:00,14.58,293.2,-69.00044783091235,20.10096,70.99520039466032,54.63152576572399,-2.4210331633252937,6.9984,7.2122399999999995,-0.9912169855763242,,14.70782660100823,23.487139,58.525117,18.767038720687236,89.3741433773852,341.6210570172751,0.07644381355336423,0.00414612445091682,0.40632249989945063
2026-07-13T11:08:19+03:00,14.58,293.2,-67.00082512590576,21.90888,69.99825383113267,50.58071415414907,-0.9317439664417446,7.40664,8.184239999999999,-0.4354479242994257,,19.778503087916018,23.487257,58.525141,20.2003176508374,86.72631002061563,343.27194381051703,0.42296051639956866,0.003974332991654483,0.41029683289110513
2026-07-13T11:08:21+03:00,14.66,293.2,-63.99852627942025,20.29536,72.99482309966687,45.653277116023986,-9.64648932616108,6.78456,6.97896,-2.068377640422272,,21.03901023720383,23.487375,58.525157,18.363072142316014,83.39305763626645,349.6017654634004,0.7806146054949202,0.0038261164472636836,0.4141229493383688
2026-07-13T11:08:23+03:00,14.55,293.19,-59.999280869407116,20.39256,69.99825383113267,41.785811998890935,-8.819940410905353,7.01784,6.55128,-1.822005788516018,,27.19257695690887,23.487489,58.525185,17.944128488447873,79.79665731361861,350.2015965175141,1.2431553281285175,0.003953828654648929,0.41807677799301773
2026-07-13T11:08:25+03:00,14.73,293.2,-57.00271160087291,20.8008,57.99478802314193,33.73002539935156,-1.2556370080291992,7.15392,6.43464,-3.586715797518954,,26.631078317680664,23.487605,58.525213,17.93798151508351,76.54387061514036,341.45091740800154,1.6647226553306063,0.004010711914888905,0.4220874899079066
2026-07-13T11:08:27+03:00,14.73,293.19,-54.00041275438739,21.597839999999998,48.999350639587995,28.510379885709764,-1.1104495027430485,6.18192,7.01784,-6.279617434633823,,24.70021054808979,23.487696,58.525246,18.64743339981448,69.55779769255079,339.4415529470372,2.159111756888868,0.0034771698656812155,0.4255646597735878
2026-07-13T11:08:29+03:00,14.85,293.19,-46.0019219343611,22.51152,51.995919908122204,6.990085100596044,-17.763983480236043,5.67648,6.045839999999999,-7.522935850067709,,16.91944369021321,23.487788,58.525278,19.012144213542218,58.4046102997677,353.5913096083545,2.9740064732657556,0.0034693077730691374,0.42903396754665696
2026-07-13T11:08:31+03:00,14.55,293.2,-35.00113226784929,24.3972,24.99814860155782,332.73950994427435,-16.929183972730435,4.60728,5.326560000000001,-5.878546978042246,,5.975949803214487,23.487838,58.525325,20.7918208362334,42.303347195709335,342.69480140584847,3.4075064005130256,0.0032316093196598852,0.43226557686631684
2026-07-13T11:08:33+03:00,14.36,293.19,-16.0018517813112,24.4944,340.99583177210945,306.6069049083574,-16.16101945679854,4.02408,3.28536,-2.3147494923285254,,-4.262805995773324,23.487826,58.525363,20.65605061360133,19.08034323383356,321.9154885382759,3.8030015393767567,0.0023149322073277964,0.43458050907364465
2026-07-13T11:08:35+03:00,14.36,293.19,7.9984908200262925,23.69736,301.99459465755433,282.7604014750126,-10.991221271333123,4.510079999999999,2.7993599999999996,0.7563042895726866,,-14.215082897195725,23.487769,58.525386,19.241392083507474,9.867542529555607,311.86213718710997,4.443360420852823,0.002260809885396059,0.4368413189590407
2026-07-13T11:08:37+03:00,14.73,293.18,26.997771306564392,21.40344,260.9994644159439,263.10221952407403,-7.776469674413099,2.8188,3.6935999999999996,0.8479775367936184,,-19.566508703717616,23.487699,58.525385,18.93510775156478,30.872701115512,291.87216553145595,2.419402784297854,0.0021976661333473844,0.4390389850923881
2026-07-13T11:08:39+03:00,14.73,293.18,50.002026781066945,19.59552,234.99863967290713,254.57660753252736,2.7417749370395286,4.23792,4.45176,1.0485127650894066,,-23.26208648231142,23.487617,58.525368,17.181072312807093,60.894110418199304,295.89275009110645,2.061431063103428,0.002768892504560194,0.4418078775969483
2026-07-13T11:08:41+03:00,14.62,293.18,61.002816447578745,19.809359999999998,247.99905204442555,253.09837642108982,-1.2203428078491403,6.14304,6.2208000000000006,1.1229972784564135,,-22.23649202902725,23.487527,58.525339,17.668205403907855,78.70707719165306,326.7061292360786,1.2029609120323908,0.003319092145563445,0.4451269697425117
2026-07-13T11:08:43+03:00,14.58,293.17,67.00168456259847,20.10096,248.99599860795314,247.18545197533973,-3.181061678566331,6.901199999999999,6.006959999999999,0.8307888029396938,,-18.60393960789783,23.487408,58.525313,18.527753141297296,87.05369782349119,336.0496964314443,0.35472177647515457,0.004048442913305766,0.44917541265581745
2026-07-13T11:08:47+03:00,14.73,293.17,76.0028515241037,19.90656,238.99788508292028,236.51124825205252,-2.919735628207162,7.1150400000000005,6.47352,0.865166270647543,,-17.773150804958135,23.487178,58.525252,19.451964413612245,96.79103805948714,335.7889231424074,-0.8413438874464535,0.0036451108768619637,0.45282052353267943
2026-07-13T11:08:49+03:00,15.03,293.18,78.9994207926379,19.49832,237.99520894144138,239.16404284350824,3.7763075319277424,6.9984,6.454079999999999,1.105808544602489,,-14.765122380521314,23.48707,58.525215,19.41867438086825,99.7176949152028,337.7129038566442,-1.1812864654908943,0.004053930792279112,0.45687445432495855
2026-07-13T11:08:51+03:00,14.7,293.19,80.00209693411685,18.60408,231.99634082642166,240.36725421328296,6.732311388566686,6.97896,8.82576,1.1229972784564135,,-22.150548359757625,23.486961,58.525177,18.701205109547185,101.56455527149161,333.56089609791326,-1.3990853070169007,0.004113280976341308,0.46098773530129983
2026-07-13T11:08:53+03:00,14.73,293.18,78.00247422911028,18.40968,245.99942933941892,238.36190193032505,-3.517158721190072,6.43464,6.35688,0.38961130068895977,,-15.979792906198659,23.486865,58.525146,18.195401048386756,98.2402131650647,344.23964250448364,-0.9222356091406213,0.0035424851172850542,0.4645302204185849
2026-07-13T11:08:55+03:00,14.7,293.18,78.9994207926379,18.701279999999997,240.99750778792685,237.4222511463105,2.644830478103393,6.454079999999999,8.68968,0.836518380891002,,-16.31210842737454,23.48678,58.525123,18.583043461415606,98.93287022047326,339.9303780084001,-1.00217112913172,0.0030045658037605068,0.4675347862223454
2026-07-13T11:08:57+03:00,14.66,293.18,80.99904349764448,18.29304,232.9990169679006,241.2954458413949,3.6054515174197315,6.76512,6.68736,0.5328507494716656,,-20.09935945318928,23.486683,58.525087,18.48456402846739,102.19020004074765,335.18921700864826,-1.4285066018862755,0.0037349240082302985,0.4712697102305757
2026-07-13T11:08:59+03:00,14.73,293.18,76.0028515241037,18.50688,239.99483164644792,251.9008946292664,1.4937582676855692,6.648479999999999,5.79312,-0.29220847551671986,,-23.611590737341224,23.486575,58.525053,18.088266050814884,96.89708727650704,336.89191892295497,-0.7983918309229282,0.003957891644054245,0.4752276018746299
2026-07-13T11:09:01+03:00,14.88,293.17,71.99787653613924,18.40968,254.9948667229729,255.90586961723088,1.955791433679065,5.96808,6.0652800000000004,-1.529797312999298,,-20.68377640422272,23.486483,58.525031,17.51065056393464,90.91139400125283,345.9062607242257,-0.09492920734400767,0.003175722706863772,0.4784033245814937
2026-07-13T11:09:03+03:00,14.85,293.17,65.0020618575919,19.20672,253.99792015944524,261.8703602645428,3.9948336349906386,5.5404,6.2208000000000006,0.5099324376664327,,-18.19140999540364,23.48638,58.525008,17.59707325782041,81.58206059735664,335.5799807568019,0.8110744707110863,0.003515751963138346,0.48191907654463206
2026-07-13T11:09:05+03:00,14.62,293.18,61.002816447578745,19.90656,257.9971655694584,265.53729015338,4.162366494286892,5.3654399999999995,6.55128,1.4152057539731333,,-19.331596007713976,23.486281,58.524996,17.930580017809433,76.17514728455346,334.17231285401186,1.282096976764447,0.0031896247446515508,0.48510870128928363
2026-07-13T11:09:07+03:00,14.73,293.17,58.000517601093236,20.19816,258.99984171093735,266.05295216899776,1.8823382443432937,5.754239999999999,6.08472,1.4152057539731333,,-22.63183290766752,23.486179,58.524976,17.8297203967999,73.88475899890139,332.88460070983876,1.5972056407053945,0.0034194369468052155,0.48852813823608887
2026-07-13T11:09:09+03:00,14.77,293.17,56.00089489608667,20.10096,258.99984171093735,265.1018422290806,-0.17257488789340394,6.0652800000000004,5.26824,1.0714310768946396,,-28.258278455852206,23.486076,58.524963,17.449586416898253,72.74915399017509,331.74899570111245,1.7986932131987492,0.0033256404093263523,0.49185377864541524
2026-07-13T11:09:11+03:00,14.88,293.17,56.00089489608667,19.40112,260.9994644159439,265.98419723358205,5.203545399598624,5.7348,5.754239999999999,0.5099324376664327,,-28.441624950294067,23.485981,58.524958,16.87782388693403,72.36234574734091,333.3618101632848,1.7376229142148596,0.0029965764445737974,0.49485035508998904
2026-07-13T11:09:13+03:00,14.88,293.17,54.99821875460771,19.90656,265.9956563894847,265.0674647613727,-6.787544520017297,5.03496,6.10416,0.23491269600363757,,-29.553163072847866,23.485875,58.524951,17.511115584328948,68.62079889301302,334.61645528249767,1.835438168251207,0.0033531928902166557,0.4982035479802057
2026-07-13T11:09:15+03:00,14.88,293.16,56.99784145961429,19.59552,261.99641097947153,259.1258924258661,-7.0444014995744455,6.0652800000000004,6.6095999999999995,-0.17188733853924698,,-28.22390098814435,23.485778,58.524943,17.06755091639183,74.33717834855499,336.3335893280265,1.6374782938157195,0.0030819801665541097,0.5012855281467599
2026-07-13T11:09:17+03:00,14.77,293.17,61.002816447578745,18.895680000000002,250.9956213129597,249.72365500776934,4.467237337076003,6.10416,6.901199999999999,0.4297183463481174,,-29.39846446816254,23.485676,58.524929,16.80712174010069,79.52433655752974,330.51995787048946,1.1098453604112282,0.0033099152530256084,0.5045954433997855
2026-07-13T11:09:19+03:00,14.77,293.17,61.002816447578745,18.895680000000002,250.9956213129597,254.62244415613782,-1.123398348913005,6.337439999999999,6.55128,0.10313240312354818,,-28.412977060537525,23.485585,58.52491,16.766276579597363,80.30826664739399,331.3038879603537,1.0668900275920485,0.0030758146708593182,0.5076712580706447
2026-07-13T11:09:21+03:00,14.88,293.17,61.99976301110639,18.50688,255.99754286445182,259.8879262933901,6.602020785953936,6.08472,6.648479999999999,0.45836623610465854,,-21.915635663753985,23.485472,58.524885,16.546721251135594,80.94627275507395,336.94381561952576,0.9574949989274452,0.0038516126219230854,0.5115228706925679
2026-07-13T11:09:23+03:00,14.73,293.17,58.99746416462087,19.59552,253.99792015944524,263.51474913656824,-1.1047772205712534,6.57072,6.492959999999999,0.4469070802020421,,-24.68875139218717,23.48536,58.524873,17.16157964711193,78.15570184986726,332.15362200931247,1.348658681767201,0.0035882441350501416,0.515111114827618
2026-07-13T11:09:25+03:00,14.73,293.16,58.000517601093236,19.69272,263.9960336844781,262.41467016991703,2.2874767012802986,6.55128,6.78456,0.4812845479098915,,-24.99814860155782,23.485256,58.524864,17.146195648426456,76.90715960159642,340.9031932860745,1.4840588311656229,0.0033084574814128617,0.5184195723090308
2026-07-13T11:09:27+03:00,14.73,293.17,56.00089489608667,20.19816,264.998709825957,265.4628056400131,2.985797661985746,6.492959999999999,7.095599999999999,0.641712730546522,,-23.737641452270005,23.485139,58.524856,17.41998684415584,74.00052322494408,338.99923305090107,1.7896453289904597,0.0037032749241892537,0.52212284723322
2026-07-13T11:09:29+03:00,14.88,293.16,54.00127219108009,20.39256,268.99795523597015,272.0518202840175,1.2452664719373312,6.1236,6.6679200000000005,0.6130648407899808,,-20.68377640422272,23.485021,58.524854,17.508828201145498,70.43780365241912,339.4357588883893,2.050364552999461,0.0037052579800608675,0.5258281052132808
2026-07-13T11:09:31+03:00,14.73,293.16,52.99859604960115,20.898,267.99527909449125,274.90515010376896,6.694324286749512,6.045839999999999,6.57072,0.5156620156177408,,-17.65855924593197,23.48492,58.524856,17.922049030015952,68.62760520107724,336.6228842955685,2.2032743334157154,0.00317205877087561,0.5290001639841564
2026-07-13T11:09:33+03:00,14.62,293.16,50.002026781066945,19.90656,274.9968233509899,278.22830531552773,4.119566546990619,6.10416,6.1624799999999995,0.6130648407899808,,-18.878959349560628,23.484813,58.524859,16.6530659747934,66.31004011834634,341.30686346933624,2.4525740632631976,0.00336292152964228,0.5323630855137986
2026-07-13T11:09:35+03:00,14.62,293.16,46.99972793458143,20.003759999999996,279.998744902482,279.04190538461353,0.23456892132655904,6.08472,6.35688,0.45836623610465854,,-20.35719046099815,23.484704,58.524865,16.4666759699865,62.67866798536046,342.6774128878424,2.792767020080751,0.003439809172322627,0.5358028946861213
2026-07-13T11:09:37+03:00,14.62,293.16,43.000482524568284,20.003759999999996,272.99720064598336,281.65459293041005,-2.5229050592995543,6.492959999999999,6.82344,0.005729577951308233,,-27.467596698571665,23.484594,58.524866,15.884857966691037,59.187314022473615,332.184514668457,3.325908616105265,0.0034527578194764106,0.5392556525055977
2026-07-13T11:09:39+03:00,14.7,293.15,41.00085981956171,20.39256,276.9964460559965,279.3742209057894,3.0904197553766344,6.4152,7.93152,0.10313240312354818,,-30.842318111892215,23.484483,58.52487,16.11049680479521,56.144940587471,333.1413866434675,3.5738688387936124,0.0034919054064179505,0.5427475579120157
2026-07-13T11:09:41+03:00,14.77,293.16,39.998183678082775,20.9952,278.9960687610031,284.82304953748354,-1.699622003476074,6.88176,7.4844,-0.017188733853924696,,-28.642160178589855,23.484373,58.524871,16.33367490625097,55.71073040436954,334.7067991653726,3.8769862607843875,0.003452757327439754,0.5462003152394554
2026-07-13T11:09:43+03:00,14.85,293.16,39.998183678082775,21.90888,276.9964460559965,285.25849746178295,1.0625502310701116,6.68736,6.72624,-0.2578310078088704,,-21.829691994484364,23.48426,58.524881,17.327537593218164,54.361338545411115,331.3577846014076,3.896534037625245,0.003596963022201798,0.5497972782616573
2026-07-13T11:09:45+03:00,14.62,293.16,41.00085981956171,21.306240000000003,277.99912219747546,279.7351843167218,-5.879635597852996,6.9984,7.36776,-0.20053522829578813,,-22.402649789615186,23.484144,58.52489,16.66935899771766,56.9892202706358,334.9883424681112,3.8127060254750442,0.0036805097281477446,0.553477787989805
2026-07-13T11:09:47+03:00,14.88,293.16,41.00085981956171,21.79224,274.9968233509899,282.3077648168592,3.4697178157532393,6.25968,7.13448,-0.09167324722093173,,-24.075686551397194,23.484041,58.524895,17.555182707970065,54.529775956744075,329.526599307734,3.6323658012140307,0.003246485330099067,0.556724273319904
2026-07-13T11:09:49+03:00,14.62,293.16,37.998560973076195,21.50064,278.9960687610031,289.7562161535599,-0.35804132617725143,5.94864,7.56216,0.2119943841984046,,-22.259410340832485,23.483934,58.524904,17.207190775696816,50.28689312996093,329.282961890964,3.8008466888598624,0.0034013740921338548,0.5601256474120379
2026-07-13T11:09:51+03:00,14.62,293.17,37.998560973076195,21.50064,285.99761301750175,285.4189256444196,-1.409476176021825,6.1236,6.95952,0.21772396214971285,,-18.649776231508298,23.483834,58.52492,17.095930953082593,50.73796169738989,336.73557471489164,3.875430611549697,0.0032824395743504095,0.5634080869863882
2026-07-13T11:09:53+03:00,14.7,293.17,37.998560973076195,21.306240000000003,277.99912219747546,287.68210893518636,-1.1702662965547064,6.201359999999999,6.2208000000000006,-0.05729577951308232,,-22.39119063371257,23.483728,58.524935,16.857419784650684,51.08829975751485,329.0874219549903,3.8952104464897235,0.003446708082951715,0.5668547950693399
2026-07-13T11:09:55+03:00,14.85,293.16,35.00199170454199,21.597839999999998,277.99912219747546,290.33490352664205,0.49973378891310405,5.96808,6.47352,0.20626480624709637,,-22.843827291865924,23.483628,58.524948,17.05626823560881,46.580323165543376,324.57944536301886,4.102082170648014,0.0032342027494595186,0.5700889978187994
2026-07-13T11:09:57+03:00,14.73,293.17,35.00199170454199,22.00608,291.99648113252147,290.7818106068441,-1.5936248113768718,5.87088,6.57072,0.5385803274229739,,-18.013793078913082,23.483533,58.524966,17.52367410800717,46.081578875669834,338.0780600081913,4.072238785904635,0.0031717093963152597,0.5732607072151147
2026-07-13T11:09:59+03:00,14.73,293.16,33.99931556306306,21.50064,294.99877997900694,289.9968584275149,-1.4083875562110766,5.851439999999999,6.648479999999999,0.24064227395494575,,-12.920198280200065,23.483441,58.52499,16.968006510836382,45.11759437342053,340.11637435242744,4.129092162203183,0.003227636192250044,0.5764883434073648
2026-07-13T11:10:01+03:00,14.85,293.16,31.999692858056477,21.209039999999998,287.9972357225083,287.2810384785948,-2.8632419896072627,5.7348,6.74568,0.2864788975654116,,-15.01149423242757,23.48335,58.525011,16.625736432050136,42.53178227011742,330.52901799262577,4.225988284726856,0.0031224402674095183,0.5796107836747743
2026-07-13T11:10:03+03:00,14.81,293.16,33.00236899953541,20.9952,280.99569146600965,287.6763793572351,-0.4799094492015775,5.79312,6.25968,0.4068000345428845,,-16.701719728063498,23.483258,58.525025,16.44241387763831,44.06627222633011,325.06196369233976,4.1625642865069565,0.0030074407884820263,0.5826182244632563
2026-07-13T11:10:05+03:00,14.58,293.17,31.999692858056477,22.20048,280.99569146600965,288.306632931879,3.38199797731871,5.81256,6.201359999999999,0.38388172273765153,,-16.363674628936312,23.483163,58.525039,17.54364355188929,42.11160141819977,323.1072928842094,4.311989951048682,0.0030979422967517146,0.585716166760008
2026-07-13T11:10:07+03:00,14.7,293.16,30.0000701530499,22.70592,288.9999118639872,291.0625599264582,-0.8589783264601302,4.957199999999999,5.773680000000001,0.29220847551671986,,-14.094761760218251,23.483064,58.525053,18.578938814750074,37.66672394950649,326.6666358134937,3.9240132382699398,0.003218936866053438,0.5889351036260615
2026-07-13T11:10:09+03:00,14.55,293.16,31.002746294528848,22.70592,290.9995345689938,294.7524081271007,-1.643357547994227,5.20992,6.006959999999999,0.4297183463481174,,-12.295674283507466,23.48297,58.525067,18.436619498908538,39.372099860310385,330.3716344293042,4.0274899121625065,0.0030677480906688977,0.5920028517167304
2026-07-13T11:10:11+03:00,14.73,293.16,31.999692858056477,23.69736,295.9957265425346,292.1683684710607,-8.770895223642155,4.6655999999999995,5.7153599999999996,-0.10886198107485642,,-9.178783877995789,23.482892,58.525086,19.89491381616613,39.13837868640712,335.13410522894173,3.6187503295420047,0.0027012309348882872,0.5947040826516187
2026-07-13T11:10:13+03:00,14.66,293.16,33.99931556306306,23.405759999999997,276.9964460559965,290.56981622264567,-1.4341133612124506,5.20992,5.13216,0.6302535746439055,,-13.223865911619402,23.482809,58.525098,19.30756358876964,42.67776367424557,319.67420973024207,3.83021716740185,0.002702871108040784,0.5974069537596595
2026-07-13T11:10:15+03:00,14.62,293.17,33.00236899953541,21.90888,271.99452450450445,293.19969250229616,7.014263919550564,4.78224,3.8491199999999997,1.9767043932013404,,-13.65358425796752,23.482737,58.525106,18.086807964445082,41.28257720027378,313.27710170477826,3.593685003722941,0.0023102277407115314,0.599717181500371
2026-07-13T11:10:17+03:00,14.58,293.17,33.00236899953541,22.60872,287.9972357225083,290.7875401847954,2.4007504573776624,4.1212800000000005,4.33512,2.079836796324888,,-8.244862671932546,23.482658,58.525117,19.28351565481802,39.68720415901794,327.68443988152626,3.171498843361264,0.0025659631600028275,0.6022831446603738
2026-07-13T11:10:19+03:00,14.51,293.17,37.998560973076195,22.997519999999998,294.99877997900694,284.14695933922917,-9.421488800013204,4.374,5.0544,-0.2864788975654116,,-17.69866629159113,23.4826,58.525138,19.735269737550556,45.840857422157995,340.83963740116496,3.0471632801571427,0.0022150927132244436,0.6044982373735982
2026-07-13T11:10:21+03:00,14.58,293.17,37.001614409548566,21.597839999999998,274.9968233509899,285.4131960664683,0.5110210574771813,4.41288,4.97664,0.29793805346802804,,-27.501974166279513,23.482529,58.525145,18.26772149262578,45.36113829519408,320.357961646184,3.100647617295563,0.0022676200475814233,0.6067658574211796
2026-07-13T11:10:23+03:00,14.58,293.18,35.00199170454199,21.79224,271.99452450450445,293.0220755858056,6.697704737740785,4.1796,4.87944,1.3235325067522015,,-16.95382115792106,23.482451,58.525143,18.52438968194246,42.438108557261444,314.4326330617659,3.0845727425110097,0.002450878778034637,0.6092167361992142
2026-07-13T11:10:25+03:00,14.55,293.18,35.00199170454199,22.900319999999997,283.9979903124951,296.5113885581523,5.377037019964237,4.80168,4.58784,1.5469860468532228,,-13.35564620449949,23.482361,58.525147,19.166043941116016,43.264320384789386,327.26231069728453,3.496581906495553,0.002834747611162278,0.6120514838103766
2026-07-13T11:10:27+03:00,14.62,293.18,33.00236899953541,23.60016,290.9995345689938,303.32958632020916,3.3139305912571686,4.257359999999999,4.45176,2.515284720624314,,-5.660823015892533,23.482287,58.525157,20.163516200855526,39.60618772616738,330.6057222951612,3.280059166174209,0.00239891742316744,0.614450401233544
2026-07-13T11:10:29+03:00,14.55,293.19,33.00236899953541,22.60872,301.99459465755433,303.13478066986465,-0.3528847060210741,4.21848,4.19904,0.06875493541569878,,-1.8907607239317168,23.482223,58.525171,19.20881644328263,39.872350537465735,341.8669451950201,3.2375762906457206,0.002177712558954012,0.616628113792498
2026-07-13T11:10:31+03:00,14.66,293.19,31.999692858056477,22.997519999999998,288.9999118639872,298.1328591183726,0.18460700159115126,3.44088,4.101839999999999,-1.4209353319244415,,-7.912547150756669,23.482174,58.525184,20.16209675261132,37.18836485960833,326.18827672359555,2.741186268239285,0.0017249391320648697,0.6183530529245629
2026-07-13T11:10:32+03:00,14.7,293.18,31.999692858056477,23.21136,296.9984026840135,297.1129942430397,-5.824058691725305,3.18816,4.21848,0.27501974166279514,,-6.336913214146906,23.48213,58.525195,20.57711020521836,36.709178518221364,333.7075812022349,2.5558837809894066,0.0015310120829614196,0.6198840650075244
