time,dpt,mtw,awa,aws,cog,hdg,rot,sog,stw,pitch,yaw,roll,lng,lat,tws,twa,twd,vmg,dist,cum_dist
2026-07-12T10:04:15+03:00,11.58,291.28,-52.997736612908454,9.60336,99.99832398418258,87.27293135432701,1.2803314889993378,4.58784,4.957199999999999,-0.08021409131831525,,6.010327270922335,22.875653,59.033793,7.761421852390586,81.16622124669898,18.832102737483595,0.7045473407598206,0.002692827987712247,0.002692827987712247
2026-07-12T10:04:17+03:00,11.58,291.28,-54.99735931791503,10.4976,97.99870127917599,87.09531443783644,-0.6434316039319145,4.62672,4.97664,-0.1604281826366305,,7.236456952502297,22.875735,59.033792,8.711250519178641,80.78609263701306,17.212608642162934,0.7408340608098385,0.0025367565382994647,0.005229584526011712
2026-07-12T10:04:19+03:00,11.58,291.28,-54.99735931791503,10.4004,100.9952705477102,87.85161872740913,0.06514530130637461,4.5684000000000005,4.80168,-0.2119943841984046,,8.600096504913656,22.875812,59.033785,8.633082984768516,80.68468097032878,20.31058957738142,0.7394762566644487,0.0024182921264931257,0.007647876652504838
2026-07-12T10:04:21+03:00,11.58,291.28,-57.99965816440055,10.808639999999999,94.99640243269049,90.70494854716061,1.3146516609276737,4.87944,5.1127199999999995,-0.14896902673401402,,7.03592172420651,22.875894,59.033779,9.20538422451548,84.71241103767505,10.283991395015434,0.44966429499998783,0.0025615601649069375,0.010209436817411776
2026-07-12T10:04:23+03:00,11.58,291.27,-61.00195701088606,11.29464,99.99832398418258,93.59838541257129,2.7676153335999287,5.01552,5.20992,-0.11459155902616464,,6.359831525952138,22.875981,59.033771,9.889400874807375,87.33457887169479,12.663745112487788,0.23323972073530488,0.002733313105300041,0.012942749922711817
2026-07-12T10:04:25+03:00,11.58,291.28,-63.99852627942025,11.00304,105.9971920992023,98.46279709323197,1.8232089998857925,4.97664,5.28768,-0.011459155902616466,,5.420180741937589,22.876066,59.03376,9.890525793180087,90.88619211718682,15.110999982015471,-0.07697047383519455,0.002710701883531777,0.015653451806243595
2026-07-12T10:04:27+03:00,11.58,291.29,-63.001579715892625,10.206,110.99911365069438,103.17251016920733,2.9030052605893415,4.87944,4.97664,-0.06875493541569878,,5.614986392282068,22.876154,59.033742,9.097074201262297,91.55122331727594,19.447890333418442,-0.1320895973640962,0.0029287817771534667,0.018582233583397063
2026-07-12T10:04:29+03:00,11.43,291.29,-65.99814898442683,9.79776,111.99606021422201,105.70498362368558,-0.6008035439741812,5.307119999999999,5.46264,-0.20053522829578813,,6.411397727513911,22.876244,59.033726,9.047632928605232,98.40011014405879,13.595950070163227,-0.7752902553786719,0.002944928897003639,0.0215271624804007
2026-07-12T10:04:31+03:00,11.55,291.29,-65.0012024208992,9.60336,118.99760447072069,101.17861704215208,-2.8692007506766237,4.89888,5.65704,-0.4469070802020421,,8.674581018280664,22.876334,59.033707,8.74417447749782,95.51589996343633,23.481704507284363,-0.47089003535533136,0.00300864962101628,0.02453581210141698
2026-07-12T10:04:33+03:00,11.43,291.29,-63.001579715892625,9.992159999999998,111.99606021422201,97.95286465556555,0.27450407964717743,5.326560000000001,5.20992,-0.3323155211758775,,8.91522329223561,22.876423,59.033684,8.938225925649633,95.07363004278182,16.922430171440197,-0.4710589515191315,0.0030802176317814883,0.027616029733198467
2026-07-12T10:04:35+03:00,11.43,291.28,-63.99852627942025,10.1088,108.99949094568781,97.62054913438965,-0.1640378167459547,5.151599999999999,5.46264,-0.27501974166279514,,8.072975333393298,22.87652,59.033668,9.114096078688663,94.53075043278196,14.468740512905853,-0.4069461407650269,0.003150349538824841,0.03076637927202331
2026-07-12T10:04:37+03:00,11.43,291.27,-65.0012024208992,10.206,108.99949094568781,96.325664517394,-0.9274467829782637,5.28768,5.326560000000001,-0.3323155211758775,,8.336535919153476,22.876616,59.033653,9.301073161664135,96.0148984912277,12.984592454460113,-0.5540804572697695,0.003102918452806166,0.033869297724829474
2026-07-12T10:04:39+03:00,11.43,291.28,-63.99852627942025,10.1088,103.99756939419571,96.93872935818398,0.19618074905279387,5.404319999999999,5.57928,-0.29220847551671986,,7.826603481487045,22.876711,59.03364,9.13753311024369,96.11064846855182,7.886920925643892,-0.5752837465187203,0.003040245405796791,0.03690954313062626
2026-07-12T10:04:41+03:00,11.43,291.28,-61.99890357441368,9.79776,110.99911365069438,95.26569259640198,0.3950543997427026,5.151599999999999,5.69592,-0.38961130068895977,,8.4912345238388,22.876791,59.03362,8.668392629069348,93.648823824826,17.350289825868387,-0.32785272641221075,0.0027507902463737547,0.03966033337700002
2026-07-12T10:04:43+03:00,11.43,291.28,-59.999280869407116,9.408959999999999,108.99949094568781,93.63276288027913,-0.6515103088432591,5.01552,5.307119999999999,-0.31512678732195276,,7.414073868992852,22.876883,59.033603,8.154269814059925,92.1853262332785,16.81416471240931,-0.19125126224735292,0.0030232530207472087,0.04268358639774723
2026-07-12T10:04:45+03:00,11.4,291.28,-63.001579715892625,9.79776,98.99564784270365,94.56095450839106,-1.4521042359795584,5.09328,5.19048,-0.2807493196141034,,7.402614713090236,22.876972,59.033592,8.753817383300737,94.22833193602449,4.767315906679158,-0.37553438877537226,0.002830848869544491,0.045514435267291715
2026-07-12T10:04:47+03:00,11.43,291.28,-61.99890357441368,10.4004,104.99451595772337,93.82756853062361,-0.08657392284426739,5.346,5.52096,-0.2864788975654116,,7.84379221534097,22.877061,59.033576,9.194586123078565,92.88721595796015,12.107299999763214,-0.2692785596014926,0.0029157259550649565,0.048430161222356674
2026-07-12T10:04:49+03:00,11.43,291.27,-61.99890357441368,10.4004,97.99870127917599,94.41198548165704,-0.456590066939753,5.13216,5.65704,-0.22345354010102106,,6.852575229764645,22.877151,59.033566,9.186297901098166,91.55504933338707,6.443651945788915,-0.13927347343126625,0.002847641377108425,0.0512778025994651
2026-07-12T10:04:51+03:00,11.43,291.27,-59.00233430587948,10.303199999999999,102.99489325271679,95.49487571445432,1.802467927702057,5.151599999999999,5.67648,-0.21772396214971285,,5.970220225263178,22.877238,59.033556,8.833135008902111,88.99726867263864,13.997624580078153,0.09015335964540101,0.0027570194795842403,0.05403482207904934
2026-07-12T10:04:53+03:00,11.36,291.27,-57.00271160087291,10.4004,101.99794668918915,96.98456598179446,2.0313645668568205,5.1127199999999995,5.5598399999999994,-0.12605071492878112,,4.222698950114167,22.87733,59.033547,8.740183763009897,86.38337962006644,15.614567069122714,0.32251050454325453,0.0028963073161465173,0.05693112939519586
2026-07-12T10:04:55+03:00,11.36,291.26,-61.00195701088606,9.70056,103.99756939419571,99.41390703314916,-5.080817839881601,5.22936,5.2488,-0.27501974166279514,,4.9217074601737725,22.877417,59.033527,8.500795694565042,93.55242780831755,10.445141585878162,-0.32402079373920634,0.0029470405139671724,0.05987816990916303
2026-07-12T10:04:57+03:00,11.36,291.27,-57.00271160087291,9.50616,109.99643750921543,86.07544956250356,-6.797571281432087,5.03496,4.996079999999999,-0.590146528984748,,9.310564170875878,22.877502,59.033507,7.974047654438649,88.97900010811928,21.017437401096146,0.0897172810313615,0.0028906771147293978,0.06276884702389243
2026-07-12T10:04:59+03:00,11.28,291.27,-48.00154463936767,9.29232,96.99602513769707,73.2927611531349,-4.769472574007511,4.996079999999999,5.151599999999999,-0.590146528984748,,9.826226186493619,22.877585,59.033494,7.012907869064671,79.96904687506324,17.026978262633833,0.8702181080869315,0.0026832894064668386,0.06545213643035927
2026-07-12T10:05:01+03:00,11.43,291.27,-46.0019219343611,9.992159999999998,78.9994207926379,68.31375791344804,-0.2954743349489655,4.35456,5.38488,-0.4526366581533504,,3.964867942305297,22.877673,59.033498,7.639133064318586,70.21058250282331,8.788838289814592,1.474297836415794,0.0027322312864441712,0.06818436771680345
2026-07-12T10:05:03+03:00,11.43,291.27,-42.002676524347955,10.206,67.99863112612611,65.36875484647562,-1.7784609960860753,5.346,4.62672,-0.1776169164905552,,6.027516004776261,22.877753,59.033509,7.186911935314797,71.85459443265512,356.144036693471,1.6649026069484936,0.0025610315197101496,0.0707453992365136
2026-07-12T10:05:05+03:00,11.32,291.27,-37.00075497285587,9.70056,66.99595498464716,61.163244630215374,-1.843205226935858,4.78224,4.5684000000000005,0.7677634454753031,,3.810169337619975,22.877837,59.03352,6.547775827400478,63.075921406462896,3.9200335781842597,2.165443454206359,0.0026807376073916763,0.07342613684390528
2026-07-12T10:05:07+03:00,11.4,291.28,-37.9977015363835,9.60336,71.99787653613924,60.653312192548945,-1.1702662965547064,3.9851999999999994,4.23792,0.5500394833255903,,2.687172059163561,22.877911,59.033532,6.912889688943589,58.78522632053206,13.212650215607184,2.065320125371555,0.002399614607109986,0.07582575145101526
2026-07-12T10:05:09+03:00,11.28,291.28,-39.997324241390075,9.70056,76.99979808763133,57.28432035717971,-2.620479771810333,3.61584,4.04352,0.4469070802020421,,6.016056848873643,22.877981,59.033539,7.309856964671238,58.53564748635837,18.464150601272962,1.8873527004292319,0.002205439818692624,0.0780311912697079
2026-07-12T10:05:11+03:00,11.28,291.28,-33.00150956284272,9.60336,62.99670957463401,58.367210589976956,3.4459973630348233,4.31568,3.9463199999999996,0.08594366926962349,,3.036676314193363,22.878048,59.033553,6.4291022015014665,54.447011849462584,8.549697725171427,2.509376371580584,0.0022365007740109814,0.08026769204371888
2026-07-12T10:05:13+03:00,11.36,291.28,-33.00150956284272,9.70056,75.99712194615239,61.71901369149227,0.19979038316211806,3.12984,3.7519199999999997,1.3636395524113596,,1.948056503444799,22.878106,59.033563,7.27815520633542,46.54726117283366,29.449860773318733,2.1525662611054086,0.0018918274376838514,0.08215951948140272
2026-07-12T10:05:15+03:00,11.28,291.28,-37.00075497285587,9.60336,88.99753431767077,65.63804501018711,2.211158722968873,3.9074399999999994,3.34368,1.4610423775835992,,5.208186357739183,22.878172,59.033568,6.8961093914952425,56.93877748214392,32.05875683552685,2.131644781678591,0.002063226125534776,0.0842227456069375
2026-07-12T10:05:17+03:00,11.4,291.28,-46.0019219343611,9.408959999999999,76.99979808763133,74.335544340273,3.0869247128263364,3.6547199999999997,3.5964,-0.02864788975654116,,7.207809062745755,22.878228,59.033573,7.356124830673075,66.9424594391261,10.057338648505237,1.431390709340923,0.0017578262365963535,0.08598057184353386
2026-07-12T10:05:19+03:00,11.28,291.26,-52.997736612908454,9.097919999999998,78.9994207926379,80.03074482387339,4.04468096316702,3.2076,3.7908,0.3552338329811104,,9.854874076250159,22.878285,59.03358,7.611444353515677,72.66452012508093,6.33490066755698,0.9557558818001498,0.001812387552286621,0.08779295939582048
2026-07-12T10:05:21+03:00,11.28,291.28,-57.99965816440055,9.097919999999998,85.99523547118525,88.1037201572667,5.859009117228285,3.42144,3.92688,-0.21772396214971285,,6.703606203030633,22.878336,59.033583,7.841393029672076,79.71700135350184,6.278234117683411,0.6107621420559438,0.0015875796670071123,0.08938053906282759
2026-07-12T10:05:23+03:00,11.4,291.28,-61.00195701088606,9.00072,95.99907857416943,91.69043595478566,0.4975565492916069,4.02408,3.888,0.3781521447863433,,5.603527236379451,22.87841,59.033582,7.879664114902297,87.53216495569438,8.466913618475047,0.1732709712306598,0.00228942852561605,0.09166996758844363
2026-07-12T10:05:25+03:00,11.25,291.28,-57.99965816440055,8.39808,99.99832398418258,92.61862758289759,-2.745671050046418,3.1104000000000003,4.16016,1.2032113697747289,,8.485504945887492,22.878466,59.033577,7.246904033216063,79.34474354181337,20.653580442369204,0.575110517646636,0.001757825789931758,0.0934277933783754
2026-07-12T10:05:27+03:00,11.28,291.28,-59.00233430587948,8.59248,103.99756939419571,93.07126424105093,0.052196455136418,4.14072,4.393439999999999,-0.48701412586119974,,7.809414747633121,22.87854,59.033568,7.370863243487599,87.78846371355182,16.209105680643887,0.15978626925989062,0.002351705982350121,0.09577949936072552
2026-07-12T10:05:29+03:00,11.4,291.28,-61.00195701088606,9.097919999999998,100.9952705477102,91.95399654054582,0.4964679294808584,4.257359999999999,4.43232,-0.05156620156177409,,8.628744394670198,22.878622,59.033553,7.958843990127725,88.89756700934761,12.097703538362595,0.08191117323226092,0.0026915643316714833,0.09847106369239701
2026-07-12T10:05:31+03:00,11.28,291.28,-56.00003545939396,9.50616,101.99794668918915,91.21488098482706,0.828210492861605,4.14072,4.5684000000000005,0.05156620156177409,,7.064569613963052,22.878698,59.03354,7.968085744234552,81.51967153955084,20.478275149638307,0.6106313179904739,0.0024769784457575124,0.10094804213815453
2026-07-12T10:05:33+03:00,11.36,291.28,-54.00041275438739,9.79776,100.9952705477102,90.41846964959521,-0.06892682275423803,4.97664,4.49064,0.9682986737710912,,6.239510388974665,22.878794,59.033531,7.96510428179288,84.3636879216099,16.63158262610031,0.4887738335054244,0.0030179304188944537,0.10396597255704898
2026-07-12T10:05:35+03:00,11.28,291.29,-57.00271160087291,9.60336,103.99756939419571,94.34323054624136,0.9630274620558877,4.78224,4.276800000000001,1.2547775713365028,,8.153189424711615,22.878878,59.033524,8.066738477179827,86.8181680434368,17.17940135075891,0.26543777419468584,0.0026317707938592555,0.10659774335090824
2026-07-12T10:05:37+03:00,11.28,291.29,-61.00195701088606,9.29232,103.99756939419571,98.57738865225814,-1.358597523814208,4.859999999999999,4.276800000000001,-0.1546986046853223,,10.129893817912956,22.878955,59.033513,8.135161317306727,92.50296592043878,11.494603473756925,-0.2122415611388855,0.0024715091313067305,0.10906925248221497
2026-07-12T10:05:39+03:00,11.28,291.29,-61.00195701088606,9.408959999999999,103.99756939419571,90.1262611740785,-3.5645996266269036,5.754239999999999,4.52952,0.02864788975654116,,11.012248822414424,22.879029,59.033498,8.31543651243387,98.24834972636529,5.749219667830417,-0.8255269622820991,0.0024598382977715555,0.11152909077998652
2026-07-12T10:05:41+03:00,11.28,291.29,-59.00233430587948,9.29232,102.99489325271679,85.8118889767434,-0.33185715493977286,5.26824,4.5684000000000005,0.1432394487827058,,9.01262611740785,22.879112,59.033485,7.979878317624111,93.46767312719608,9.527220125520714,-0.3186514553771777,0.002683290049530434,0.11421238082951696
2026-07-12T10:05:43+03:00,11.28,291.29,-56.00003545939396,9.50616,98.99564784270365,83.27941552226515,-2.383217948846659,4.97664,4.82112,-0.26929016371148695,,8.62301481671889,22.879211,59.033481,7.888260466036378,87.5359786589584,11.459669183745248,0.21395585823395177,0.0030712625832072116,0.11728364341272417
2026-07-12T10:05:45+03:00,11.32,291.3,-52.00079004938082,9.50616,95.99907857416943,80.02501524592208,-1.9951536342045526,4.21848,4.60728,-0.27501974166279514,,9.018355695359158,22.879292,59.033479,7.667174785414591,77.69501324318323,18.304065330986205,0.8990231493957821,0.002508022482388917,0.11979166589511309
2026-07-12T10:05:47+03:00,11.36,291.29,-54.99735931791503,9.70056,82.99866620265107,82.44289714137416,-0.4785343504932636,4.7628,4.5684000000000005,-0.21772396214971285,,8.124541534955073,22.879362,59.033477,7.986305834511671,84.23957088355435,358.75909531909673,0.4780382663439341,0.002168270804232945,0.12195993669934603
2026-07-12T10:05:49+03:00,11.28,291.3,-50.00116734437425,9.60336,90.99715702267736,79.73280677040536,-0.7074882854275404,4.84056,4.704479999999999,-0.45836623610465854,,10.467938917040142,22.879442,59.033478,7.476376679386602,79.73568588453792,11.261471138139441,0.862536391423654,0.002474942261188342,0.12443487896053437
2026-07-12T10:05:51+03:00,11.43,291.3,-52.997736612908454,9.50616,93.99945586916286,80.84434489295916,0.18409133957553353,4.5684000000000005,5.03496,-0.3495042550298022,,9.648609270003062,22.879524,59.033476,7.678765609412092,81.36526251504363,12.634193354119233,0.685875740783069,0.0025389152382795377,0.1269737941988139
2026-07-12T10:05:53+03:00,11.36,291.3,-54.00041275438739,9.992159999999998,87.99485817619184,80.40889696865973,1.2546629797774767,5.0544,5.03496,-0.395340878640268,,9.75747125107792,22.879615,59.033479,8.12522969964478,84.21644062313429,3.778417553057551,0.5093360273846904,0.002820187281951515,0.12979398148076543
2026-07-12T10:05:55+03:00,11.28,291.3,-52.00079004938082,10.4004,95.99907857416943,79.03952783829706,2.6106821935135964,4.58784,5.1127199999999995,-0.4239887683968092,,9.694445893613528,22.879706,59.033478,8.394319590581343,77.51181981067123,18.487258763498204,0.9920662851739724,0.0028150581419893626,0.1326090396227548
2026-07-12T10:05:57+03:00,11.43,291.3,-54.00041275438739,10.692,90.99715702267736,82.87834506567359,3.0473906249623095,4.78224,5.07384,-0.26929016371148695,,7.729200656314806,22.879794,59.033473,8.779541514291715,80.14743653543145,10.849720487245904,0.8183055662894456,0.0027381769618145795,0.13534721658456939
2026-07-12T10:05:59+03:00,11.28,291.3,-54.99735931791503,11.197439999999999,84.99828890765764,85.89210306806172,0.4877589709948698,5.20992,5.01552,-0.20053522829578813,,6.944248476985577,22.879887,59.033479,9.251982899121662,82.46586684981155,2.532422057846091,0.6831080817691684,0.0028987938182214955,0.1382460104027909
2026-07-12T10:06:01+03:00,11.28,291.31,-54.99735931791503,10.90584,94.99640243269049,87.61670603140549,1.1439102379786885,5.69592,5.48208,-0.45836623610465854,,10.40491355957575,22.879987,59.033482,8.950777034746242,86.41410634919487,8.58229608349562,0.35625018412940923,0.003098017438266814,0.1413440278410577
2026-07-12T10:06:03+03:00,11.43,291.31,-57.99965816440055,10.90584,99.99832398418258,91.99983316415629,0.7149367367642412,5.326560000000001,5.1710400000000005,-0.492743703812508,,10.639826255579388,22.880084,59.033473,9.259715541755897,87.19767738597878,12.800646598203798,0.2604168959627536,0.0030483671141285124,0.14439239495518622
2026-07-12T10:06:05+03:00,11.43,291.31,-59.999280869407116,11.508479999999999,94.99640243269049,89.93718510168532,-1.200518468137614,5.851439999999999,5.22936,-0.5786873730821314,,11.47634463647039,22.880188,59.033463,9.967036561952513,90.55804655532538,4.438355877365112,-0.05699066033503477,0.00327215782802541,0.1476645527832116
2026-07-12T10:06:07+03:00,11.28,291.3,-59.999280869407116,11.89728,101.99794668918915,86.02388336094181,-0.23050092098113015,5.443199999999999,5.851439999999999,-0.5729577951308232,,11.53936999393478,22.880286,59.03346,10.31566843813546,87.19081732512689,14.807129364062263,0.2667703923339123,0.003036270813892964,0.15070082359710457
2026-07-12T10:06:09+03:00,11.43,291.31,-59.00233430587948,11.702879999999999,94.99640243269049,87.39325249130448,-0.2119943841984046,5.443199999999999,5.65704,-0.40107045659157625,,9.155865566190554,22.88037,59.033453,10.048545915164931,86.66924195705555,8.32716047563494,0.31624968920281143,0.0026317760893334106,0.15333259968643798
2026-07-12T10:06:11+03:00,11.43,291.33,-57.00271160087291,11.39184,91.99983316415629,85.80042982084078,-1.7684342346712858,5.52096,5.46264,-0.590146528984748,,10.765876970508168,22.880464,59.033449,9.578678004217814,85.91092884946838,6.088904314687909,0.3936841259405993,0.0029171267277963695,0.15624972641423435
2026-07-12T10:06:13+03:00,11.32,291.33,-52.00079004938082,11.10024,92.99677972768393,81.96161259346427,0.6004024735175897,5.38488,5.81256,-0.6875493541569879,,11.310186875882449,22.880554,59.033445,8.86640434805056,80.59426536945111,12.402514358232821,0.8800224289060996,0.0027938558558584896,0.15904358227009283
2026-07-12T10:06:15+03:00,11.36,291.33,-54.00041275438739,11.197439999999999,88.99753431767077,86.90623836544327,3.637193379269979,6.201359999999999,5.81256,-0.3666929888837269,,8.107352801101149,22.880647,59.033441,9.066944271551804,87.59632774367178,1.4012065739989907,0.26008311837603837,0.0028863060700630595,0.1619298883401559
2026-07-12T10:06:17+03:00,11.43,291.33,-56.00003545939396,11.89728,92.99677972768393,90.28668935671513,0.33689918353692405,5.52096,5.87088,-0.2119943841984046,,6.130648407899808,22.880746,59.03344,9.928032514488546,83.45339516792988,9.543384559754045,0.6294521321227846,0.003062430892032713,0.1649923192321886
2026-07-12T10:06:19+03:00,11.43,291.32,-54.99735931791503,11.29464,97.99870127917599,89.83978227651309,-0.945265770406832,5.65704,5.346,-0.41252961249419273,,7.637527409093874,22.880842,59.033436,9.288149444340183,84.92438685274821,13.074314426427776,0.5004802691492221,0.0029787771095923215,0.16797109634178092
2026-07-12T10:06:21+03:00,11.43,291.33,-54.99735931791503,10.90584,91.99983316415629,85.86345517830517,-0.431494515513023,6.27912,5.20992,-0.47555496995858326,,9.150135988239247,22.880951,59.033429,8.933283404599244,90.14992415791016,1.849909006246122,-0.016430367334878945,0.00339727458066127,0.1713683709224422
2026-07-12T10:06:23+03:00,11.43,291.33,-57.00271160087291,10.90584,83.99561276617868,90.37836260393604,3.495901986990718,6.43464,5.65704,-0.3666929888837269,,7.792226013779196,22.88107,59.033433,9.160090182937084,93.09974877993479,350.8958639862439,-0.3479495210327969,0.0036882407063328136,0.175056611628775
2026-07-12T10:06:25+03:00,11.43,291.33,-61.00195701088606,11.10024,92.99677972768393,92.95667268202477,0.9383902768652623,5.7348,5.443199999999999,-0.22345354010102106,,5.998868115019719,22.881174,59.03343,9.71511060755135,92.08601801425772,0.9107617134262114,-0.20874580142217608,0.003221530924715238,0.17827814255349025
2026-07-12T10:06:27+03:00,11.28,291.34,-57.99965816440055,10.206,100.9952705477102,90.58462741018315,-1.0969849945574741,5.67648,5.346,-0.4068000345428845,,8.880845824527759,22.881273,59.03342,8.65929705516778,91.77403184722132,9.221238700488883,-0.17573104725753186,0.0031202839999558835,0.18139842655344612
2026-07-12T10:06:29+03:00,11.4,291.34,-61.00195701088606,9.79776,96.99602513769707,90.81381052823549,-1.8154167738720133,5.07384,5.46264,-0.31512678732195276,,7.6260682531912565,22.88135,59.033409,8.57560221754217,92.1658060023225,4.830219135374577,-0.19174774191291372,0.0024715160726465676,0.1838699426260927
2026-07-12T10:06:31+03:00,11.43,291.33,-59.00233430587948,10.206,96.99602513769707,89.58195126870422,-1.3287464226878922,4.82112,5.22936,-0.3495042550298022,,9.396507840145501,22.881436,59.033403,8.759271807284431,87.15341121182192,9.842613925875156,0.2394260301537829,0.0026841227773908203,0.18655406540348352
2026-07-12T10:06:33+03:00,11.28,291.35,-57.00271160087291,10.1088,95.99907857416943,87.3359567117914,-2.175005086096118,5.46264,5.2488,-0.5156620156177408,,11.14975869324582,22.881532,59.033395,8.478320643581743,89.7120720942814,6.287006479888035,0.027451234423885962,0.0030077490040275644,0.18956181440751108
2026-07-12T10:06:35+03:00,11.43,291.34,-56.00003545939396,11.00304,105.9971920992023,83.74924091427243,1.55976300568464,5.1127199999999995,5.598719999999999,-0.44117750225073393,,10.611178365822846,22.881627,59.033389,9.18104252005799,83.49514649250821,22.502045606694082,0.5792066459147655,0.0029601856752765315,0.1925220000827876
2026-07-12T10:06:37+03:00,11.43,291.35,-57.00271160087291,11.702879999999999,101.99794668918915,85.86345517830517,1.498456521605642,5.50152,5.48208,-0.41252961249419273,,8.81209088911206,22.88172,59.033381,9.853809372683823,84.92385642338238,17.074090265806774,0.4867720933084981,0.0029161981493712377,0.19543819823215886
2026-07-12T10:06:39+03:00,11.28,291.36,-57.00271160087291,11.89728,96.99602513769707,89.58768084665553,2.964770110904445,5.28768,5.3654399999999995,-0.4068000345428845,,8.113082379052457,22.881809,59.033374,10.049100490204044,83.19013807059859,13.805887067098482,0.6269860156172558,0.0027845413948249208,0.19822273962698378
2026-07-12T10:06:41+03:00,11.4,291.36,-57.00271160087291,11.29464,98.99564784270365,96.06210393163383,2.7122103148107777,5.13216,5.404319999999999,-0.3781521447863433,,7.557313317775558,22.881897,59.033366,9.527411887450542,83.86085604970043,15.134791793003217,0.5488504808237402,0.0027637950534458093,0.2009865346804296
2026-07-12T10:06:43+03:00,11.43,291.36,-63.99852627942025,10.5948,112.99873635570096,105.29818358914271,2.770995784591201,4.93776,5.50152,-0.4239887683968092,,9.287645859070643,22.881985,59.033353,9.5269322184056,91.76276847752065,21.235967878180304,-0.1518917215608674,0.002831594262787906,0.2038181289432175
2026-07-12T10:06:45+03:00,11.28,291.36,-65.0012024208992,10.4976,114.99835906070751,104.23248209019935,-2.6357777449403264,5.28768,5.90976,-0.6187944187412892,,10.63409667762808,22.88207,59.033336,9.552168903041625,95.1136633173126,19.884695743394914,-0.4713005426321755,0.0028204693685237414,0.20663859831174122
2026-07-12T10:06:47+03:00,11.28,291.37,-61.99890357441368,10.206,110.99911365069438,96.96737724794052,-0.7086914967973152,4.723920000000001,5.443199999999999,-0.4812845479098915,,8.628744394670198,22.882148,59.033318,9.01152559019031,89.5696877679299,21.429425882764477,0.03547803113610526,0.0026438813788207897,0.20928247969056202
2026-07-12T10:06:49+03:00,11.36,291.38,-59.00233430587948,9.408959999999999,103.99756939419571,98.2049660854231,1.1628751409975189,5.1710400000000005,5.307119999999999,-0.18907607239317165,,6.457234351124377,22.882239,59.033304,8.071811719772123,92.31036947561657,11.68719991857914,-0.2084582096487278,0.002937541889013749,0.21222002157957576
2026-07-12T10:06:51+03:00,11.28,291.39,-59.999280869407116,9.097919999999998,104.99451595772337,98.07318579254301,-2.8413550018332656,5.443199999999999,5.7348,-0.3495042550298022,,7.797955591730505,22.882327,59.033288,7.929546005703543,96.47448208295336,8.520033874770007,-0.6137790084809147,0.0028865687239748527,0.21510659030355062
2026-07-12T10:06:53+03:00,11.28,291.39,-61.00195701088606,8.90352,106.99986824068124,95.11099399171665,-1.5724253729570312,5.28768,5.19048,-0.48701412586119974,,9.253268391362795,22.882403,59.033269,7.847698460024277,97.11064416226448,9.88922407841676,-0.6545398350738628,0.002613272348881055,0.21771986265243168
2026-07-12T10:06:55+03:00,11.28,291.39,-65.0012024208992,9.097919999999998,101.99794668918915,98.0559970586891,2.296414842884339,5.19048,5.0544,-0.21772396214971285,,7.351048511528463,22.882491,59.033254,8.354686402791602,99.269123419419,2.728823269770146,-0.8360409068330286,0.0028671052995794936,0.22058696795201116
2026-07-12T10:06:57+03:00,11.28,291.39,-69.00044783091235,9.00072,106.99986824068124,102.31880305446242,-0.716942089047199,4.548959999999999,5.20992,-0.29220847551671986,,8.307888029396937,22.882573,59.033244,8.506504642032699,98.95053213535557,8.049336105325665,-0.707734745046035,0.0026063418611134157,0.22319330981312457
2026-07-12T10:06:59+03:00,11.28,291.4,-67.9977716894334,8.80632,111.99606021422201,100.39366486282285,0.09768930406980536,4.97664,5.1710400000000005,-0.5213915935690492,,11.321646031785066,22.88266,59.033235,8.335473981285157,101.6093829062692,10.386677307952809,-1.0014907536972288,0.0027445666323232653,0.22593787644544783
2026-07-12T10:07:01+03:00,11.28,291.4,-67.00082512590576,8.90352,112.99873635570096,92.0743176775233,-4.890252077221089,4.957199999999999,5.3654399999999995,-0.8250592249883855,,13.229595489570707,22.882752,59.033216,8.328063314804753,100.2256043564475,12.77313199925345,-0.8800246510457979,0.0030660026288893247,0.22900387907433714
2026-07-12T10:07:03+03:00,11.21,291.41,-63.001579715892625,9.70056,101.99794668918915,82.72364646098826,-4.890825035016221,5.443199999999999,5.87088,-1.2204001036286536,,14.62761250968992,22.882861,59.033196,8.705664365775833,96.85760806334196,5.140338625847193,-0.6499305222715581,0.00357907325995069,0.23258295233428783
2026-07-12T10:07:05+03:00,11.28,291.41,-54.00041275438739,11.10024,94.99640243269049,59.79387549985272,-12.447737282335186,5.52096,5.443199999999999,-1.552715624804531,,14.255189942854882,22.882961,59.033193,9.03622715606794,83.62377243004819,11.372630002642296,0.6131390528678397,0.0030980431218548335,0.23568099545614266
2026-07-12T10:07:07+03:00,11.28,291.42,-37.9977015363835,12.30552,76.99979808763133,30.234982849053537,-16.97725513174191,4.704479999999999,4.704479999999999,-2.0626480624709633,,14.770851958472623,22.883049,59.033201,9.07290027284143,56.61324301579633,20.386555071835005,2.5888177774691887,0.0027638085394389132,0.23844480399558157
2026-07-12T10:07:09+03:00,11.28,291.42,-24.000342601337486,13.00536,49.99629720311564,350.0313762013226,-20.956275131586942,4.41288,4.29624,-1.1688339020668794,,6.480152662929611,22.883125,59.033225,9.15174481072913,35.31090894837453,14.685388254741106,3.6010316676018186,0.0027578968433101935,0.24120270083889175
2026-07-12T10:07:11+03:00,11.28,291.42,-1.998763268313877,12.20832,0.0,313.5912604310022,-17.689269783750984,3.71304,3.96576,-0.045836623610465865,,0.4640958140559668,22.883138,59.033259,8.498525848840108,2.8718876313377564,357.12811236866224,3.708376646639202,0.002082836978864674,0.24328553781775641
2026-07-12T10:07:13+03:00,11.28,291.43,26.00082474303676,11.508479999999999,0.0,290.7818106068441,-7.179562243445806,3.71304,3.71304,0.7792226013779195,,-5.884276555993555,22.883102,59.033295,8.331793185818697,37.26684942107241,37.26684942107241,2.9549262133243133,0.0024335223688446233,0.24571906018660103
2026-07-12T10:07:15+03:00,11.4,291.44,45.00010522957485,10.4004,293.99610383752804,279.9529082788715,-2.09920276980031,4.31568,3.6741599999999996,1.082890232797256,,-6.766631560495022,22.883028,59.033315,7.957187954504773,67.55130575992195,1.5474095974499846,1.6479682460835103,0.00258517496885466,0.2483042351554557
2026-07-12T10:07:17+03:00,11.28,291.44,56.00089489608667,10.5948,293.99610383752804,278.95023213739256,-1.0995060088560498,4.31568,3.9463199999999996,0.7505747116213785,,-6.674958313274091,22.882963,59.033332,8.929683845280636,79.62126008127196,13.617363918799981,0.7774877499315122,0.0022550988916066233,0.2505593340470623
2026-07-12T10:07:19+03:00,11.32,291.46,61.99976301110639,10.4976,282.99531417101616,278.39446307611576,-3.3556992145222053,4.00464,3.6352800000000003,0.5328507494716656,,-5.855628666237013,22.882885,59.033348,9.314725329097994,84.30873569168828,7.30404986270446,0.3971322831575493,0.002597003001476689,0.253156337048539
2026-07-12T10:07:21+03:00,11.28,291.47,65.99900842111953,9.70056,284.9949368760228,271.9200399911374,-2.07634175377459,4.02408,4.0629599999999995,1.2662367272391195,,-7.041651302157818,22.882806,59.033363,8.862180620753024,90.50657723533811,15.501514111360905,-0.0355782010453364,0.0026043411725134736,0.2557606782210525
2026-07-12T10:07:23+03:00,11.36,291.46,69.99825383113267,8.90352,273.99987678746226,270.36732436633287,-1.2556943038087123,4.1796,4.02408,1.1000789666511805,,-7.723471078363497,22.88273,59.033373,8.443002890916363,97.7199695944509,11.719846381913158,-0.5614522290299172,0.0024261465118258075,0.2581868247328783
2026-07-12T10:07:25+03:00,11.28,291.47,69.00130726760504,9.29232,278.9960687610031,271.94868788089394,1.9534996024985418,4.58784,4.257359999999999,1.8793015680291005,,-5.947301913457945,22.882638,59.03338,8.765936880959027,98.25079915901345,17.24686792001654,-0.6583845195845655,0.002876293532289017,0.2610631182651673
2026-07-12T10:07:27+03:00,11.43,291.47,69.00130726760504,9.195120000000001,280.99569146600965,272.34402875953424,2.344142227218737,4.62672,4.02408,1.4954198452914487,,-4.297183463481174,22.882553,59.033389,8.687134786078344,98.81782667368788,19.81351813969752,-0.7092451791608059,0.002683941199833049,0.2637470594650004
2026-07-12T10:07:29+03:00,11.36,291.48,69.99825383113267,8.90352,277.99912219747546,273.62172464267593,-0.12817065877076514,4.87944,4.257359999999999,0.7276563998161455,,-5.259752559300957,22.882471,59.033389,8.565134994532393,102.36414532793312,20.36326752540856,-1.0448057041242556,0.002536074084448953,0.2662831335494493
2026-07-12T10:07:31+03:00,11.43,291.48,69.00130726760504,8.49528,279.998744902482,271.9085808352348,-1.5807905567659413,4.87944,4.393439999999999,1.0542423430407146,,-6.995814678547352,22.882383,59.033401,8.140650870962268,103.02843919008714,23.027184092569087,-1.0999949096196626,0.0028155971537315123,0.26909873070318086
2026-07-12T10:07:33+03:00,11.32,291.48,69.00130726760504,8.49528,279.998744902482,272.4815386303656,4.297412646599226,4.87944,4.393439999999999,0.26356058576017866,,-5.3456962285705805,22.882302,59.033413,8.140650870962268,103.02843919008714,23.027184092569087,-1.0999949096196626,0.0026069167001965305,0.2717056474033774
2026-07-12T10:07:35+03:00,11.43,291.49,67.00168456259847,8.59248,277.99912219747546,276.97352774419124,2.778902602164006,4.35456,4.1796,1.088619810748564,,-7.0702991919143585,22.882225,59.033426,7.972162301538022,97.18744078933659,15.186562986812078,-0.544824081390573,0.002506354135179253,0.2742120015385566
2026-07-12T10:07:37+03:00,11.43,291.5,65.99900842111953,8.70912,277.99912219747546,279.609133601793,-1.2979212933098538,4.35456,4.49064,0.7849521793292279,,-7.041651302157818,22.882146,59.033437,7.997455234420628,95.8281632792803,13.827285476755776,-0.4421851475530182,0.002531169895807971,0.2767431714343646
2026-07-12T10:07:39+03:00,11.43,291.49,65.0020618575919,8.70912,285.99761301750175,276.2000347207646,-1.8826820190203721,4.101839999999999,4.21848,1.0026761414789407,,-5.6092568143307595,22.882087,59.033445,7.904521249329282,93.05661876842326,19.054231785925026,-0.21872143063639343,0.0018870294770214422,0.2786302009113861
2026-07-12T10:07:41+03:00,11.43,291.49,65.99900842111953,9.195120000000001,286.9945595810294,274.5728345825931,0.382793102926903,4.257359999999999,4.14072,1.4266649098757496,,-7.855251371243587,22.882013,59.033455,8.416003886402152,93.52344730887867,20.518006889908065,-0.2616445899134915,0.002366263756701202,0.28099646466808725
2026-07-12T10:07:43+03:00,11.43,291.5,67.99863112612611,9.29232,286.9945595810294,274.9910937730386,2.5242801580078678,4.257359999999999,4.0824,1.3464508185574346,,-6.835386495910721,22.881939,59.033463,8.65049916479238,95.1479449063379,22.14250448736732,-0.3820033307541674,0.002338618325196117,0.28333508299328336
2026-07-12T10:07:45+03:00,11.43,291.5,67.99863112612611,9.195120000000001,281.99836760748855,276.652671378918,1.5543772024104103,4.5684000000000005,4.101839999999999,1.0943493886998723,,-4.887329992465922,22.881858,59.03347,8.599212831805044,97.50820721836028,19.506574825848816,-0.5969446432532053,0.0025402291021320174,0.2858753120954154
2026-07-12T10:07:47+03:00,11.43,291.5,69.00130726760504,8.90352,279.998744902482,276.73288547023634,-0.21239545465499615,4.41288,4.21848,1.1631043241155712,,-4.8128454790989155,22.881777,59.033469,8.401617709017152,98.36553154129625,18.364276443778238,-0.6420205016524512,0.002505861487206048,0.28838117358262144
2026-07-12T10:07:49+03:00,11.4,291.51,69.00130726760504,9.195120000000001,281.99836760748855,274.8134768565481,-1.1522754217875986,4.62672,4.29624,0.7792226013779195,,-6.623392111712317,22.881708,59.033476,8.687134786078344,98.81782667368788,20.816194281176422,-0.7092451791608059,0.002175092110698226,0.29055626569331966
2026-07-12T10:07:51+03:00,11.47,291.51,67.00168456259847,9.29232,281.99836760748855,278.07933628879374,1.5639455975890952,4.510079999999999,4.45176,0.8021409131831525,,-6.766631560495022,22.881629,59.03348,8.598832248132773,95.87077457721689,17.869142184705424,-0.46131418933372415,0.0024550858333052435,0.2930113515266249
2026-07-12T10:07:53+03:00,11.43,291.52,65.99900842111953,9.408959999999999,281.99836760748855,277.414705246442,-0.42799947296272495,4.510079999999999,4.29624,0.813600069085769,,-6.692147047128016,22.881556,59.03349,8.622536584211492,94.54296676286495,16.541334370353525,-0.35722843334441806,0.002336361522457318,0.2953477130490822
2026-07-12T10:07:55+03:00,11.43,291.52,63.999385716112954,9.89496,283.9979903124951,277.5407559613708,0.8432792828735456,4.393439999999999,4.33512,0.8537071147449266,,-7.110406237573517,22.881481,59.033504,8.893658926532112,90.35870860032361,14.356698912818729,-0.027505593452923905,0.002467499367843869,0.29781521241692605
2026-07-12T10:07:57+03:00,11.43,291.52,61.002816447578745,9.70056,286.9945595810294,278.60645746031406,-0.36044774891680087,4.548959999999999,4.374,0.8078704911344607,,-6.107730096094575,22.881406,59.033512,8.48592140607255,88.96321005131409,15.957769632343513,0.08231075066049931,0.0023688904423851158,0.3001841028593112
2026-07-12T10:07:59+03:00,11.43,291.53,63.999385716112954,10.1088,286.9945595810294,280.45711113858664,0.7623203464215604,4.64616,4.374,0.7505747116213785,,-6.170755453558966,22.881324,59.033524,9.088217102644771,91.35340585020539,18.347965431234798,-0.10973854320801965,0.0026366430376065907,0.30282074589691776
2026-07-12T10:08:01+03:00,11.58,291.53,58.000517601093236,9.79776,285.99761301750175,281.8895056264137,2.475693336980774,4.49064,4.41288,0.8594366926962348,,-7.13332454937875,22.881242,59.033535,8.338562315892187,85.17549483100223,11.173107848503946,0.37768092828054983,0.0026208366300201165,0.30544158252693787
2026-07-12T10:08:03+03:00,11.43,291.53,58.000517601093236,10.1088,289.9968584275149,286.8914271779058,0.9142114579107417,4.43232,4.19904,0.8823550045014679,,-6.692147047128016,22.881154,59.033548,8.622497129415466,83.84527369797408,13.842132125489002,0.47520573146178696,0.002831580414817242,0.3082731629417551
2026-07-12T10:08:05+03:00,11.43,291.53,54.99821875460771,10.303199999999999,294.99877997900694,287.96285825480044,0.17973686033253927,4.35456,4.276800000000001,0.8823550045014679,,-6.4056681495626036,22.881078,59.033563,8.581828993735634,79.55797527450196,14.556755253508868,0.7892227040742926,0.0025174876034337215,0.31079065054518884
2026-07-12T10:08:07+03:00,11.43,291.54,52.00164948607352,10.1088,295.9957265425346,287.3669821478644,0.08823550045014678,4.510079999999999,4.276800000000001,0.8938141604040842,,-7.528665428019017,22.881004,59.033581,8.14818209185352,77.86203216044237,13.85775870297698,0.9483185486888248,0.002531494619795217,0.3133221451649841
2026-07-12T10:08:09+03:00,11.43,291.53,52.99859604960115,9.992159999999998,292.99915727400037,288.2206892626093,0.2683161354597645,4.510079999999999,4.548959999999999,0.8938141604040842,,-7.184890750940524,22.880932,59.033597,8.120357164264975,79.32966685900658,12.328824133006947,0.835076531094804,0.002425588202072915,0.31574773336705697
2026-07-12T10:08:11+03:00,11.43,291.52,54.00127219108009,9.79776,291.99648113252147,287.2409314329356,0.09975195213227632,4.68504,4.62672,0.7505747116213785,,-6.124918829948499,22.880853,59.033611,7.999078545933824,82.28556686823399,14.28204800075548,0.6289001648255889,0.002584130696488678,0.31833186406354563
2026-07-12T10:08:13+03:00,11.43,291.54,52.00164948607352,10.303199999999999,292.99915727400037,286.5934891244378,0.7284585407293287,5.01552,4.393439999999999,0.8479775367936184,,-7.007273834449968,22.880778,59.033629,8.227027843484217,80.71404026476802,13.713197538768384,0.8093142800459838,0.0025594864022496335,0.32089135046579526
2026-07-12T10:08:15+03:00,11.43,291.53,54.00127219108009,10.692,291.99648113252147,285.2241199940751,-1.2910457997682843,4.62672,4.62672,0.9682986737710912,,-8.187566892419465,22.880702,59.033647,8.807554198875467,79.15154002806506,11.148021160586495,0.8708044667740823,0.0025875467412132965,0.32347889720700856
2026-07-12T10:08:17+03:00,11.43,291.53,56.99784145961429,10.4976,292.99915727400037,286.1752299339923,0.22574537128154434,4.91832,4.80168,0.9224620501606254,,-9.579854334587363,22.880619,59.033662,8.840032939916783,84.81158826623519,17.81074554023553,0.44476936976550874,0.002720718198007406,0.32619961540501596
2026-07-12T10:08:19+03:00,11.43,291.54,56.99784145961429,10.90584,291.99648113252147,287.14352860776336,0.5467736238933446,4.74336,5.01552,0.9453803619658584,,-9.035544429213083,22.880546,59.033681,9.224143998006246,82.5454925558205,14.541973688341955,0.6153985411816653,0.002530119872563545,0.3287297352775795
2026-07-12T10:08:21+03:00,11.43,291.54,56.00089489608667,11.60568,291.99648113252147,286.50181587721687,-2.5504070334658335,4.74336,4.996079999999999,0.9453803619658584,,-8.582907771059732,22.880463,59.033701,9.778836879698805,79.71294664612635,11.709427778647807,0.8470687085207218,0.002834529519019988,0.33156426479659945
2026-07-12T10:08:23+03:00,11.43,291.55,56.99784145961429,11.702879999999999,291.99648113252147,287.5503286423062,0.8600096504913657,5.09328,5.03496,1.0255944532841736,,-10.82890232797256,22.88038,59.033722,9.897857223991736,82.56418889303397,14.560670025555453,0.6591488043415268,0.0028605384422587554,0.3344248032388582
2026-07-12T10:08:25+03:00,11.43,291.55,58.000517601093236,11.508479999999999,291.99648113252147,288.48424984836953,-0.45693384161683154,5.09328,5.3654399999999995,1.0141352973815572,,-11.699798176571411,22.880295,59.033744,9.811427537609712,84.11963418375086,16.116115316272328,0.5218150155511604,0.002942688244474552,0.3373674914833328
2026-07-12T10:08:27+03:00,11.43,291.55,56.99784145961429,11.39184,291.99648113252147,288.7077033884705,0.5318767212199431,5.09328,5.5598399999999994,0.9281916281119336,,-11.808660157646267,22.880209,59.033765,9.618209053050945,83.36383146219727,15.360312594718721,0.5886008495218393,0.002944080736779247,0.34031157222011205
2026-07-12T10:08:29+03:00,11.43,291.56,54.00127219108009,11.29464,297.9953492475411,289.6187062827285,-0.7121865393476133,5.404319999999999,5.48208,0.9453803619658584,,-12.742581363709508,22.880125,59.033791,9.220689478769447,82.30718000734075,20.302529254881847,0.7234330813345451,0.003031737294054367,0.3433433095141664
2026-07-12T10:08:31+03:00,11.43,291.55,52.99859604960115,11.60568,301.99459465755433,289.4697372559945,-1.8238965492399497,5.65704,5.5404,0.865166270647543,,-10.548153008358458,22.880044,59.033814,9.363143635094477,81.84819274599113,23.842787403545458,0.8021476843037983,0.002861267422295168,0.34620457693646156
2026-07-12T10:08:33+03:00,11.43,291.55,52.00164948607352,11.197439999999999,301.99459465755433,288.2951737759763,0.20563455267245248,5.65704,5.598719999999999,0.8250592249883855,,-9.052733163067007,22.879953,59.033835,8.910121580931946,82.02279744347256,24.01739210102687,0.7850787600334564,0.003084491116837288,0.34928906805329885
2026-07-12T10:08:35+03:00,11.43,291.56,48.999350639587995,11.29464,296.9984026840135,287.6763793572351,-0.6244667009130843,5.773680000000001,5.6376,0.7219268218648373,,-8.027138709782834,22.879856,59.033856,8.67973451824731,79.13314677212983,16.131549456143375,1.0884964649680156,0.0032546899894441155,0.35254375804274296
2026-07-12T10:08:37+03:00,11.43,291.55,48.999350639587995,10.808639999999999,294.99877997900694,286.43879051975244,-0.584646134151492,5.94864,5.48208,0.790681757280536,,-8.307888029396937,22.879757,59.033882,8.236931747918744,82.02669871078362,17.02547868979059,0.825145612233761,0.003437583766156023,0.355981341808899
2026-07-12T10:08:39+03:00,11.43,291.55,46.99972793458143,10.808639999999999,291.99648113252147,286.7539173070744,0.9231495995147824,5.754239999999999,5.5598399999999994,0.8078704911344607,,-9.276186703168028,22.879653,59.033907,8.06864764764733,78.43736374731671,10.433844879838148,1.1533745568591174,0.0035501482221836056,0.3595314900310826
2026-07-12T10:08:41+03:00,11.43,291.56,50.998973344594575,10.90584,295.9957265425346,284.7027284005061,-0.5452266378464914,5.7153599999999996,5.6181600000000005,0.8537071147449266,,-9.356400794486342,22.879554,59.033929,8.552710745346209,82.28570708859523,18.281433631129858,0.7671921495521284,0.0033351568801470994,0.36286664691122966
2026-07-12T10:08:43+03:00,11.43,291.55,52.00164948607352,11.10024,295.9957265425346,284.7371058682139,0.5386376232024869,5.7153599999999996,5.832,0.813600069085769,,-10.777336126410784,22.879465,59.033944,8.818510009696409,82.71403192952927,18.709758472063868,0.724831594159768,0.0028964290805639403,0.3657630759917936
2026-07-12T10:08:45+03:00,11.43,291.55,52.00164948607352,10.90584,295.9957265425346,281.70615913197184,-3.033009384304526,5.7153599999999996,5.3654399999999995,0.8021409131831525,,-10.82890232797256,22.879365,59.033965,8.651945877837116,83.37154580518055,19.36727234771513,0.6597266594223741,0.0033403947877809303,0.3691034707795745
2026-07-12T10:08:47+03:00,11.43,291.55,56.00089489608667,11.508479999999999,292.99915727400037,275.3119501383119,-4.0579162882345425,5.50152,5.832,0.5557690612768985,,-7.058840036011743,22.879314,59.033979,9.586649377694686,84.41021921740342,17.409376491403805,0.5358777036871658,0.0017877281698432314,0.37089119894941774
2026-07-12T10:08:51+03:00,11.43,291.55,63.002439152585325,10.692,276.9964460559965,265.96700849972814,3.4662227732029414,5.69592,5.404319999999999,0.6589014644004466,,-7.924006306659286,22.879056,59.034022,9.56400756690081,95.052326661864,12.048772717860516,-0.5016140628820704,0.003719878804593179,0.3746110777540109
2026-07-12T10:08:53+03:00,11.4,291.54,63.002439152585325,9.79776,274.9968233509899,270.9059046937559,-2.0042636631471327,5.79312,5.57928,0.7219268218648373,,-10.387724825721826,22.878958,59.034022,8.833119976602234,98.76100977660562,13.757833127595518,-0.8823692466048453,0.0030308620052660255,0.37764193975927696
2026-07-12T10:08:55+03:00,11.43,291.54,63.999385716112954,9.70056,274.9968233509899,264.2710534261409,-5.13267052034094,5.79312,5.67648,0.6589014644004466,,-6.944248476985577,22.878862,59.034027,8.853822065244552,100.02057385537809,15.017397206368003,-1.0080132654731826,0.0029841797453548863,0.3806261195046318
2026-07-12T10:08:57+03:00,11.43,291.54,67.00168456259847,9.992159999999998,271.99452450450445,263.0220054327557,4.191128975602459,5.42376,5.6181600000000005,0.739115555718762,,-5.529042723012444,22.878763,59.034028,9.322658404655707,99.3822483476661,11.376772852170575,-0.8841829275684245,0.0030623786264662874,0.3836884981310981
2026-07-12T10:08:59+03:00,11.43,291.54,63.002439152585325,9.097919999999998,269.9949017994978,264.5976393693655,5.6205440828948365,5.5404,5.307119999999999,0.8422479588423101,,-4.537825737436121,22.878658,59.034026,8.228256735538926,99.86960009662684,9.864501896124693,-0.9496600095158648,0.0032495760737903385,0.38693807420488846
2026-07-12T10:09:01+03:00,11.43,291.55,63.999385716112954,9.097919999999998,277.99912219747546,268.46510448649855,-0.1795076772144869,5.07384,5.2488,0.5213915935690492,,-8.926682448138227,22.878563,59.034024,8.24884644823033,97.56162916348987,15.560751360965355,-0.6676795243318702,0.0029405386170426634,0.38987861282193115
2026-07-12T10:09:03+03:00,11.36,291.54,61.002816447578745,9.50616,280.99569146600965,273.696209156043,1.4570316730176835,4.93776,5.307119999999999,0.9969465635276323,,-12.014924963893364,22.878541,59.034026,8.321027457643238,92.26935604814199,13.26504751415166,-0.19552235823136638,0.000690935998530695,0.39056954882046185
2026-07-12T10:09:05+03:00,11.43,291.54,61.002816447578745,9.89496,280.99569146600965,280.5144069180998,1.4674595048890644,4.93776,4.93776,0.1776169164905552,,-9.849144498298852,22.878541,59.034026,8.655711548595104,90.93346950106539,11.929160967075063,-0.08044300117121456,0.0,0.39056954882046185
2026-07-12T10:09:07+03:00,11.43,291.54,58.99746416462087,10.4004,280.99569146600965,283.00104374896756,1.726092653611118,4.93776,5.3654399999999995,1.650118449976771,,-10.553882586309763,22.878541,59.034026,8.924498160037277,87.30748690088001,8.303178366889654,0.23195583996142413,0.0,0.39056954882046185
2026-07-12T10:09:15+03:00,11.43,291.52,63.999385716112954,10.5948,276.9964460559965,267.4624283450196,2.097655783753457,4.87944,5.2488,0.6589014644004466,,-9.900710699860626,22.87788,59.034121,9.525389759705813,91.41297996164592,8.409426017642431,-0.12032041762767734,0.002984171669207217,0.3935537204896691
2026-07-12T10:09:17+03:00,11.55,291.52,63.002439152585325,9.50616,280.99569146600965,271.80544843211123,3.2757143063219427,4.996079999999999,5.07384,1.2547775713365028,,-7.545854161872943,22.877802,59.034125,8.497544832336283,94.59486109471409,15.590552560723722,-0.40023358114457697,0.002424263704415358,0.3959779841940844
2026-07-12T10:09:19+03:00,11.58,291.52,60.0001403060998,9.79776,280.99569146600965,277.71264329991004,1.8441792551875806,4.996079999999999,5.52096,0.7964113352318443,,-5.603527236379451,22.877723,59.034132,8.485678006151527,90.6564545754943,11.652146041503954,-0.05724030373174071,0.0024792029961997137,0.3984571871902841
2026-07-12T10:09:21+03:00,11.47,291.51,61.002816447578745,10.1088,284.9949368760228,278.38300392021307,-2.0975984879739435,4.957199999999999,5.01552,1.0313240312354817,,-7.053110458060434,22.877637,59.034141,8.84177897989526,90.36801577548837,15.362952651511137,-0.03184030784969497,0.0027141843445137462,0.40117137153479787
2026-07-12T10:09:23+03:00,11.58,291.5,63.999385716112954,9.79776,283.9979903124951,277.77566865737435,0.47538308262004403,4.957199999999999,4.89888,0.1432394487827058,,-8.502693679741416,22.877544,59.034151,8.830973936612208,94.29944772270521,18.297438035200344,-0.3716368963739791,0.002938351778051074,0.40410972331284895
2026-07-12T10:09:25+03:00,11.51,291.5,61.99976301110639,9.89496,283.9979903124951,290.70732609347715,10.205810725767789,4.957199999999999,4.723920000000001,-0.693278932108296,,-10.817443172069943,22.877461,59.034154,8.742272590940312,92.04368004230915,16.041670354804296,-0.17678060598964762,0.0025732707020102792,0.40668299401485924
2026-07-12T10:09:27+03:00,11.58,291.5,50.998973344594575,10.692,297.9953492475411,302.81392430459135,3.279323940431267,4.52952,4.04352,0.6187944187412892,,-8.181837314468156,22.877387,59.034168,8.595263927556166,75.17449632556172,13.169845573102862,1.1589958582526358,0.0024384071717271534,0.4091214011865864
2026-07-12T10:09:29+03:00,11.58,291.49,45.00010522957485,11.508479999999999,308.99613891405295,311.98124902668457,-0.7744097558988207,4.41288,4.276800000000001,1.1344564343590302,,-9.40223741809681,22.877323,59.034195,8.949701254426378,65.40534703728055,14.401485951333484,1.8366227283988787,0.002559604627480459,0.41168100581406686
2026-07-12T10:09:31+03:00,11.58,291.49,39.00123711455514,11.39184,308.99613891405295,313.58553085305084,1.4205915572473633,4.41288,4.510079999999999,0.8708958485988514,,-7.580231629580791,22.877261,59.034232,8.432873809016675,58.229287222748084,7.2254261368010475,2.3234753003478223,0.002936463170490695,0.41461746898455754
2026-07-12T10:09:33+03:00,11.58,291.47,35.99893826806962,11.10024,309.9988150555319,307.7642796545217,-1.2913322786658494,4.6655999999999995,4.510079999999999,1.208940947726037,,-12.06076158750383,22.877195,59.034264,7.822097440397935,56.52196756144987,6.520782616981762,2.5736253375329863,0.0028046499346113278,0.41742211891916886
2026-07-12T10:09:35+03:00,11.66,291.48,35.99893826806962,10.692,301.99459465755433,309.1336487848844,2.708314201803888,4.78224,4.393439999999999,1.082890232797256,,-17.47521275149011,22.877127,59.034288,7.379344466673615,58.388935571571096,0.38353022912542656,2.5066128835458343,0.002550253677723365,0.41997237259689224
2026-07-12T10:09:37+03:00,11.7,291.48,35.00199170454199,11.00304,314.99500702907267,314.18140695998693,0.5612121603306414,4.23792,4.548959999999999,1.1688339020668794,,-12.198271458335228,22.877071,59.034313,7.914201770533824,52.88989130159929,7.884898330671945,2.556943506366365,0.0022929431397360283,0.4222653157366283
2026-07-12T10:09:39+03:00,11.7,291.48,35.99893826806962,11.197439999999999,314.99500702907267,311.38537291974853,-0.20053522829578813,4.723920000000001,4.52952,1.0714310768946396,,-12.09513905521168,22.877016,59.034338,7.880971435278266,56.62787766659275,11.622884695665448,2.5985078083259068,0.0022696729779887238,0.42453498871461703
2026-07-12T10:09:41+03:00,11.58,291.47,35.99893826806962,11.197439999999999,311.9984377605385,311.5572602582878,0.45968403903345956,4.43232,4.91832,1.3235325067522015,,-12.673826428293811,22.87696,59.034365,8.04505960304101,54.89329969410292,6.891737454641429,2.5490313296879963,0.0023734626291670707,0.4269084513437841
2026-07-12T10:09:43+03:00,11.73,291.47,37.001614409548566,11.197439999999999,314.99500702907267,313.06413925948186,0.4914259008837071,5.01552,4.68504,1.2146705256773451,,-13.58482932255182,22.876897,59.034394,7.799724065183959,59.7698516770577,14.764858706130383,2.5251871643783033,0.002614327466015358,0.42952277880979944
2026-07-12T10:09:45+03:00,11.58,291.46,37.998560973076195,11.702879999999999,315.9976831705516,313.69439283412567,0.517094410105568,4.5684000000000005,4.87944,-0.9224620501606254,,-14.289567410562732,22.876842,59.034422,8.577091520013152,57.14041349808332,13.138096668634944,2.4787320207849,0.002392876640118876,0.43191565544991833
2026-07-12T10:09:47+03:00,11.73,291.45,33.00236899953541,12.49992,329.99504210559763,322.5122133011891,1.656478281502723,3.9463199999999996,4.80168,0.590146528984748,,-13.06343772898277,22.876793,59.034451,9.438359600518734,46.166201720010946,16.161243825608608,2.7330981600054924,0.00230975242121963,0.43422540787113795
2026-07-12T10:09:49+03:00,11.73,291.46,31.999692858056477,12.69432,324.9988501320569,319.8250412420255,0.356379748571372,4.82112,5.0544,1.5355268909506061,,-11.356023499492915,22.876742,59.034488,8.976976041835828,48.53420068080936,13.533050812866236,3.1924148558039422,0.0027265134850830873,0.436951921356221
2026-07-12T10:09:51+03:00,11.73,291.44,33.00236899953541,12.908159999999999,317.9973058755582,319.81931166407423,1.5434337085234116,5.6376,4.91832,0.9339212060632418,,-11.453426324665156,22.876684,59.034523,8.737536398227782,53.577315027326435,11.574620902884647,3.347254640742256,0.002764667877216241,0.43971658923343726
2026-07-12T10:09:53+03:00,11.73,291.44,31.999692858056477,13.00536,319.99692858056477,321.1657624826317,1.4834450273732145,5.0544,5.1127199999999995,1.0771606548459478,,-11.207054472758902,22.876629,59.034556,9.121090558024134,49.0762480558692,9.07317663643397,3.3109054239566067,0.0026130025722538785,0.44232959180569115
2026-07-12T10:09:55+03:00,11.73,291.44,30.0000701530499,12.79152,326.99847283706345,323.66385846940204,-0.38800701886259353,4.78224,5.19048,0.7563042895726866,,-12.456102466144099,22.876575,59.034593,8.974389160114603,45.452531522453086,12.45100435951656,3.3547410648976457,0.0027812128780092754,0.4451108046837004
2026-07-12T10:09:57+03:00,11.73,291.44,30.0000701530499,13.00536,328.99809554207,324.9129064627872,-1.5939685860539503,4.58784,4.82112,0.6990085100596044,,-8.537071147449266,22.87653,59.034628,9.318922115582883,44.25033339966285,13.248428941732868,3.2862600796545696,0.0025224340060738147,0.4476332386897742
2026-07-12T10:09:59+03:00,11.73,291.44,28.997394011570965,13.19976,325.9957966955845,322.2773006051854,1.3393461418978123,5.28768,4.64616,1.1917522138721122,,-6.732254092787173,22.876478,59.034666,8.94986282673775,45.64039366035985,11.636190355944336,3.696931502686416,0.0027934450495438632,0.4504266837393181
2026-07-12T10:10:01+03:00,11.73,291.42,30.0000701530499,13.00536,318.9999820170371,318.5817228265916,2.3077021114484166,4.84056,4.16016,0.7219268218648373,,-7.253645686356221,22.876424,59.034704,9.139600758644283,45.35591192078459,4.3558939378216905,3.40146507656707,0.0028295048087900966,0.4532561885481082
2026-07-12T10:10:03+03:00,11.73,291.42,28.997394011570965,12.79152,313.99806046554505,320.79906949374794,4.078027106843635,4.257359999999999,4.276800000000001,0.6875493541569879,,-9.396507840145501,22.876373,59.034734,9.299754393904397,41.81946446087497,355.81752492642,3.172795509123126,0.0023956986353373803,0.45565188718344557
2026-07-12T10:10:05+03:00,11.73,291.43,26.00082474303676,12.79152,329.99504210559763,330.4419491857997,1.1406443785464428,4.60728,4.31568,0.888084582452776,,-9.814767030591003,22.876329,59.034769,8.88321420609681,39.142986203649286,9.13802830924692,3.5732820805462837,0.0025055006448906,0.45815738782833615
2026-07-12T10:10:07+03:00,11.73,291.42,22.998525896551243,12.59712,330.99771824707665,329.147064568804,0.21537483518967646,4.393439999999999,4.33512,0.9797578296737078,,-12.587882759024186,22.876282,59.03481,8.723446651048663,34.34691522891572,5.344633475992396,3.627384812372301,0.00286114293251019,0.4610185307608463
2026-07-12T10:10:09+03:00,11.73,291.42,22.998525896551243,12.59712,327.995419400591,331.78840000435713,-1.5135826073970957,4.02408,4.19904,1.0026761414789407,,-11.585206617545246,22.876253,59.034843,9.030808535029829,33.02464793871545,1.020067339306479,3.3739343169139118,0.0021768920466231916,0.4631954228074695
2026-07-12T10:10:11+03:00,11.73,291.43,22.998525896551243,12.69432,332.9973409520831,333.5416508574574,2.8557935382705626,4.14072,3.96576,0.9511099399171665,,-10.611178365822846,22.876231,59.034874,9.02884944368155,33.32066142570875,6.318002377791856,3.4600242399132783,0.00198367118322598,0.46517909399069546
2026-07-12T10:10:13+03:00,11.73,291.43,22.001579333023614,12.49992,338.9962090671029,331.10085065020013,-0.9222901628220862,3.7908,4.0824,1.0198648753328654,,-10.943493886998725,22.876212,59.034908,9.09672972675074,30.98317260190865,9.979381669011559,3.2499230724077535,0.002126459748416941,0.4673055537391124
2026-07-12T10:10:15+03:00,11.73,291.44,24.001202038030186,12.402719999999999,336.99658636209637,331.6337013996718,0.20660858092417486,3.6935999999999996,4.43232,0.9797578296737078,,-11.774282689938415,22.876187,59.03494,9.15263005368467,33.448992242406035,10.44557860450243,3.0818543526773996,0.0020730225759407104,0.46937857631505314
2026-07-12T10:10:17+03:00,11.77,291.42,22.998525896551243,12.49992,336.99658636209637,332.69367332066383,-0.37889698992001336,3.6741599999999996,4.0629599999999995,1.0313240312354817,,-11.562288305740012,22.876158,59.034971,9.230114662775769,31.94582249748035,8.942408859576744,3.117704043532635,0.002067945100307919,0.4714465214153611
2026-07-12T10:10:19+03:00,11.73,291.42,22.998525896551243,12.49992,334.99696365708974,331.8571549397728,-0.47114319493607587,3.92688,4.23792,1.065701498943331,,-12.427454576387557,22.87613,59.035005,9.016660998549057,32.795558949697295,7.792522606787031,3.300969057105695,0.0022195498207059445,0.473666071236067
2026-07-12T10:10:21+03:00,11.73,291.42,20.99890319154467,12.59712,331.99466481060426,330.49351538736147,0.9144406410287939,4.45176,4.276800000000001,1.0943493886998723,,-13.97444062324078,22.876099,59.035041,8.590439673865852,31.701147797847767,3.6958126084520018,3.7875600014071966,0.002366748806492227,0.47603282004255926
2026-07-12T10:10:23+03:00,11.73,291.43,20.99890319154467,12.79152,331.99466481060426,331.4675436390839,-0.6951123970527148,4.45176,4.29624,1.1229972784564135,,-13.602018056405743,22.876063,59.03508,8.781532393841092,31.46560292108262,3.4602677316868835,3.7971451130495226,0.0025951519152714922,0.47862797195783074
2026-07-12T10:10:25+03:00,11.73,291.43,22.001579333023614,13.00536,332.9973409520831,331.65661971147705,1.0722332178078227,5.09328,4.257359999999999,1.0370536091867901,,-13.41867156196388,22.876019,59.035123,8.499944243867866,34.97415099212682,7.971491944209902,4.173488283380348,0.0029209534097957624,0.4815489253676265
2026-07-12T10:10:27+03:00,11.73,291.42,22.998525896551243,13.00536,335.9996397985687,331.7024563350875,-0.850441255312681,4.41288,4.5684000000000005,0.9568395178684748,,-12.272755971702233,22.875985,59.035162,9.107918830106675,33.91056447321992,9.910204271788643,3.662290730944455,0.002569223181913583,0.4841181485495401
2026-07-12T10:10:29+03:00,11.73,291.43,22.998525896551243,13.00536,335.9996397985687,332.2123887727539,-0.12232648926043077,4.393439999999999,4.62672,0.8479775367936184,,-10.36480651391659,22.875955,59.035196,9.124058715362995,33.84245840041817,9.842098198986832,3.6490682673099943,0.0022444015648165946,0.4863625501143567
2026-07-12T10:10:31+03:00,11.73,291.42,24.001202038030186,12.908159999999999,336.99658636209637,331.8514253618215,-0.3677243129149624,4.64616,4.33512,0.836518380891002,,-9.104299364628782,22.875924,59.035233,8.867446600519733,36.306605006241654,13.303191368338048,3.744154637651784,0.0024218245423460287,0.4887843746567027
2026-07-12T10:10:33+03:00,11.73,291.44,22.998525896551243,12.69432,334.99696365708974,330.77999428492683,-2.063564794943173,4.393439999999999,4.1212800000000005,0.8537071147449266,,-7.883899261000128,22.875897,59.035264,8.818767017635448,34.222649993611384,9.219613650701149,3.6327523671582855,0.0020418775806774468,0.49082625223738013
