time,dpt,mtw,awa,aws,cog,hdg,rot,sog,stw,pitch,yaw,roll,lng,lat,tws,twa,twd,vmg,dist,cum_dist
2024-10-12T12:04:04+03:00,25.8,281.15,24.99814860155782,18.09864,170.70131590332616,159.00151772675477,0.3999818367808277,5.69592,6.006959999999999,-1.501149423242757,-21.49737647330849,-10.599719209920229,24.800213,59.48025,13.158336126799325,35.538524450457714,206.23984035378388,4.634911830871332,0.0014157755441614496,0.0014157755441614496
2024-10-12T12:04:05+03:00,25.4,281.15,26.997771306564392,18.29304,171.66961457709726,157.79830635698005,0.0,5.26824,6.006959999999999,-1.7990874767107847,-24.098604863202425,-10.50231638474799,24.800225,59.480225,13.80760215224613,36.971999310887384,208.64161388798465,4.208952476602911,0.0015466933151481448,0.002962468859309594
2024-10-12T12:04:06+03:00,25.3,281.15,26.997771306564392,17.90424,169.62988482643152,155.2028075450374,0.0,5.307119999999999,6.006959999999999,-2.8017636181897254,-24.99814860155782,-11.201324894807593,24.800235,59.480202,13.39392346283764,37.36010305631814,206.98998788274966,4.218297269966163,0.00141577563768906,0.004378244496998654
2024-10-12T12:04:07+03:00,24.9,281.15,28.997394011570965,17.3016,171.30865116616485,154.89913991361806,0.0,4.91832,6.006959999999999,-1.501149423242757,-24.299140091498213,-12.100868633162985,24.800243,59.480182,13.216667285871674,39.39030553514155,210.6989567013064,3.8010791457077553,0.0012267062323885914,0.005604950729387245
2024-10-12T12:04:08+03:00,24.8,281.15,26.997771306564392,17.496,170.5924539222513,156.29715693373726,0.09998113525032865,5.404319999999999,6.006959999999999,-1.9996227050065731,-23.800666809734395,-11.098192491684046,24.800252,59.480159,12.915762474008298,37.947518060746575,208.53997198299788,4.261708175345325,0.001409509587447879,0.007014460316835124
2024-10-12T12:04:09+03:00,24.8,281.15,28.997394011570965,18.195839999999997,169.25746225959648,156.19975410856503,0.9999832398418258,5.6376,6.006959999999999,-2.2975607584746007,-23.697534406610853,-11.79720100174365,24.80026,59.480133,13.543563289475795,40.63897267410306,209.89643493369954,4.277971405782405,0.0015817645566641564,0.008596224873499281
2024-10-12T12:04:10+03:00,24.8,281.15,30.0000701530499,18.195839999999997,167.24065082073596,155.99921888026924,0.09998113525032865,5.42376,5.90976,-1.501149423242757,-24.797613373262028,-13.298350424986406,24.800271,59.480105,13.76844287146147,41.35954028114389,208.60019110187986,4.070954236069055,0.0017161839855967902,0.01031240885909607
2024-10-12T12:04:11+03:00,24.7,281.15,30.0000701530499,19.303919999999998,168.01987342211393,155.90181605509702,0.5000202678106694,5.1710400000000005,5.90976,-1.7990874767107847,-23.101658299674792,-14.301026566465348,24.800282,59.480079,15.04943412291639,39.892687904790705,207.91256132690464,3.9674649654421175,0.0015984650108371726,0.011910873869933242
2024-10-12T12:04:12+03:00,24.7,281.15,24.99814860155782,18.99288,168.2318678063123,157.09929784692042,0.9000021045914972,5.2488,5.90976,-2.498095986770389,-21.39997364813625,-14.598964619933378,24.800293,59.480057,14.40754433246587,33.85422873246296,202.08609653877525,4.358905746324835,0.0013643337352698633,0.013275207605203105
2024-10-12T12:04:13+03:00,24.7,281.15,26.00082474303676,19.90656,172.98741750589815,158.6978500953354,0.3999818367808277,5.307119999999999,5.90976,-1.7990874767107847,-22.098982158195852,-15.601640761412316,24.800305,59.480034,15.314342680699824,34.739042115249475,207.72645962114763,4.361157360205799,0.0014301817116253626,0.014705389316828467
2024-10-12T12:04:14+03:00,24.8,281.15,26.997771306564392,19.809359999999998,172.3227864635464,157.59777112868423,0.0,5.151599999999999,5.90976,-2.200157933302361,-22.29951738649164,-17.801798694714677,24.800314,59.480009,15.397787843671207,35.733597958497825,208.05638442204423,4.181765974383854,0.0015275994087075044,0.016232988725535972
2024-10-12T12:04:16+03:00,25.0,281.15,24.001202038030186,20.10096,172.1680878588611,159.098920551927,1.5000035076524951,4.87944,5.69592,-4.297183463481174,-19.19981571483389,-23.898069634906637,24.800326,59.479965,15.768814635962482,31.231908482620724,203.39999634148182,4.172290252070172,0.0026699856474287913,0.018902974372964763
2024-10-12T12:04:17+03:00,25.2,281.15,24.001202038030186,20.606399999999997,173.9213387119614,161.6027461166487,2.7000063137744914,4.97664,5.69592,-2.4006931615981495,-15.29797312999298,-25.10128100468137,24.800333,59.479939,16.18712711398538,31.18511990639101,205.1064586183524,4.257509380617438,0.0015773405083594606,0.020480314881324225
2024-10-12T12:04:18+03:00,25.3,281.15,24.001202038030186,20.9952,172.44883717847517,165.0977886669467,1.1000216708716675,5.48208,5.69592,-2.6012283898939375,-14.301026566465348,-23.898069634906637,24.800341,59.479911,16.141878350287698,31.94153561330839,204.39037279178356,4.65202939766414,0.0017006402176579464,0.022180955098982172
2024-10-12T12:04:19+03:00,25.4,281.15,24.99814860155782,20.39256,173.27962598141488,164.59931538518288,0.0,5.79312,5.598719999999999,-4.400315866604722,-16.701719728063498,-22.998525896551243,24.800349,59.479884,15.33875389139217,34.181992865576916,207.4616188469918,4.792400155823801,0.0016411781384997935,0.023822133237481967
2024-10-12T12:04:20+03:00,25.9,281.15,28.000447448043335,20.8008,173.94998660171794,162.39915745188054,0.0,5.96808,5.598719999999999,-4.297183463481174,-20.700965138076644,-23.502728756266368,24.800355,59.479855,15.782029679870385,38.22674325191616,212.1767298536341,4.688333628153005,0.0017527192548743881,0.025574852492356356
2024-10-12T12:04:21+03:00,27.3,281.15,30.0000701530499,20.7036,173.61767108054204,160.30213192170172,0.0,5.69592,5.69592,-2.4006931615981495,-18.099736748182707,-24.001202038030186,24.800359,59.47983,16.025878854251697,40.2364980827312,213.85416916327324,4.348178235026221,0.0015076453755518949,0.02708249786790825
2024-10-12T12:04:22+03:00,27.6,281.15,30.0000701530499,20.19816,172.67802029652748,161.79755176699317,0.0,5.404319999999999,5.598719999999999,-3.2028340747813018,-18.59821002994652,-20.798367963248886,24.800363,59.479807,15.75139521927549,39.87807297063142,212.5560932671589,4.147332333122515,0.0013878589962691723,0.028470356864177423
2024-10-12T12:04:23+03:00,27.6,281.15,31.999692858056477,19.90656,170.8216370403036,160.89800802863775,0.300000701530499,4.996079999999999,5.598719999999999,-2.498095986770389,-19.400350943129673,-18.397674801650734,24.800369,59.479787,15.891712650183992,41.58965683753692,212.41129387784054,3.736657820508949,0.0012160260940524837,0.029686382958229906
2024-10-12T12:04:24+03:00,27.7,281.15,33.00236899953541,20.5092,173.90987955605874,160.30213192170172,0.0,4.04352,5.598719999999999,-1.598552248414997,-21.89844692990006,-15.699043586584558,24.80037,59.479773,17.25920757722936,40.33371197621514,214.24359153227388,3.082325303164023,0.0008420614906458794,0.030528444448875786
2024-10-12T12:04:25+03:00,27.3,281.15,33.99931556306306,20.10096,174.17916971977027,157.7009035318078,0.0,4.1212800000000005,5.69592,-1.902219879834333,-24.001202038030186,-15.802175989708104,24.800368,59.479754,16.842645192625042,41.86366776704784,216.04283748681812,3.0692609686932046,0.0011436772410333075,0.03167212168990909
2024-10-12T12:04:26+03:00,26.7,281.15,35.99893826806962,19.809359999999998,173.9213387119614,155.30021037020964,0.0,4.33512,5.69592,-3.002298846485514,-26.29876279650479,-18.397674801650734,24.800375,59.479735,16.50005842382011,44.88250423672079,218.8038429486822,3.071672463274061,0.0011618641507062575,0.03283398584061535
2024-10-12T12:04:27+03:00,26.1,281.15,37.001614409548566,19.20672,169.87052710038645,153.50112289349886,0.0,4.6655999999999995,5.79312,-4.297183463481174,-26.00082474303676,-23.600131581438607,24.800389,59.479713,15.733280186090955,47.28232292014175,217.1528500205282,3.1650794750481928,0.0013897098155275307,0.03422369565614288
2024-10-12T12:04:28+03:00,25.7,281.15,35.99893826806962,18.798479999999998,166.58174935633554,154.20013140355846,2.000023775463165,5.79312,5.79312,-3.798710181717358,-23.898069634906637,-27.799912219747544,24.800412,59.479681,14.516673925557784,49.564595994069066,216.1463453504046,3.757361695745297,0.0020475760761252833,0.036271271732268164
2024-10-12T12:04:29+03:00,25.6,281.15,33.00236899953541,18.40968,167.02865643653757,157.9014387601036,3.099988150555319,6.1236,5.90976,-3.701307356545118,-14.799499848229162,-27.897315044919782,24.800432,59.479647,13.68675665041754,47.10696393632696,214.13562037286454,4.167917062044455,0.002132902876442374,0.03840417460871054
2024-10-12T12:04:30+03:00,25.6,281.15,31.002746294528848,18.09864,168.1573832929453,164.89725343865092,1.8000042091829944,6.1236,5.90976,-2.4006931615981495,-12.198271458335228,-20.99890319154467,24.800444,59.479617,13.231289342601524,44.79397797859045,212.95136127153575,4.345580851735385,0.001840060557549467,0.04024423516626001
2024-10-12T12:04:31+03:00,25.6,281.15,31.002746294528848,18.09864,170.20284262156233,167.69901705684066,0.600001403060998,5.96808,6.006959999999999,-1.3006141949469687,-15.29797312999298,-15.699043586584558,24.800449,59.47959,13.342103247401164,44.32342641752567,214.526269039088,4.269606889793756,0.0016300694778274925,0.0418743046440875
2024-10-12T12:04:32+03:00,26.1,281.15,37.001614409548566,19.809359999999998,172.35716393125423,164.19824492859135,0.0,5.346,6.006959999999999,-2.6012283898939375,-20.397297506657306,-14.398429391637588,24.800454,59.479569,15.869521442194626,48.69898217933232,221.05614611058655,3.528440262463192,0.0012714560601743221,0.04314576070426182
2024-10-12T12:04:33+03:00,27.1,281.15,37.998560973076195,19.49832,173.77236968522737,159.79792906198662,0.0,5.773680000000001,6.10416,-2.1027551081301215,-22.797990668255455,-14.799499848229162,24.800458,59.479541,15.365302274436589,51.37418834970612,225.1465580349335,3.604113544823023,0.001687439453292475,0.04483320015755429
2024-10-12T12:04:34+03:00,27.1,281.15,37.001614409548566,19.40112,174.04165984893888,157.0018950217482,0.0,5.79312,6.10416,-1.7990874767107847,-26.29876279650479,-12.89727996839483,24.800464,59.479514,15.180428209158894,50.27936728296436,224.32102713190324,3.702063464809221,0.0016332104751403593,0.04646641063269465
2024-10-12T12:04:35+03:00,27.1,281.15,35.00199170454199,18.60408,172.3285160414977,153.3979904903753,0.0,5.98752,6.10416,-2.498095986770389,-26.098227568209,-14.702097023056925,24.800473,59.479488,14.123461622810725,49.07599126499531,221.404507306493,3.9221697783374005,0.0015867646624994063,0.04805317529519406
2024-10-12T12:04:36+03:00,26.4,281.15,35.00199170454199,18.60408,169.2517326816452,154.40066663185422,1.5999846429028237,6.006959999999999,6.201359999999999,-2.899166443361966,-19.698288996597704,-16.100114043176134,24.800483,59.479458,14.110734950266377,49.135632859043056,218.38736554068825,3.9301774060335943,0.0018288861587696262,0.049882061453963684
2024-10-12T12:04:37+03:00,25.2,281.15,33.00236899953541,19.20672,167.91101144103908,161.29907848522936,4.299990956677315,6.27912,6.29856,-2.200157933302361,-13.00041237151838,-14.398429391637588,24.800495,59.47943,14.354140586125213,46.786458048129646,214.69746948916872,4.299435151731077,0.0017224179484293123,0.051604479402392996
2024-10-12T12:04:38+03:00,25.1,281.15,33.00236899953541,18.99288,170.19138346565975,166.90260572160878,2.199986045963822,5.6181600000000005,6.29856,-1.3006141949469687,-13.699420881577984,-11.79720100174365,24.800503,59.479404,14.605384884249066,45.09636809638738,215.28775156204713,3.9659516750114476,0.0015817653703605614,0.053186244772753556
2024-10-12T12:04:39+03:00,25.1,281.15,33.00236899953541,19.303919999999998,179.18109127126235,165.69939435183406,0.0,5.326560000000001,6.29856,-2.1027551081301215,-15.20057030482074,-12.501939089754565,24.8005,59.479384,15.11780849136775,44.06655690072279,223.24764817198513,3.82730580352323,0.0012056373151117582,0.054391882087865315
2024-10-12T12:04:40+03:00,25.1,281.15,31.002746294528848,19.49832,175.82928816974703,164.70244778830644,0.0,5.832,6.29856,-1.9996227050065731,-16.39805209664416,-12.599341914926804,24.800506,59.479358,14.807367421052637,42.707471039592946,218.53675920933998,4.285506169716117,0.0015734964504849859,0.0559653785383503
2024-10-12T12:04:41+03:00,25.0,281.15,30.0000701530499,19.40112,174.75212751490108,163.29870119023593,0.0,6.0652800000000004,6.29856,-2.6012283898939375,-18.397674801650734,-12.599341914926804,24.800511,59.47933,14.46980366919346,42.098073605522615,216.8502011204237,4.500427943893969,0.0016899226092375566,0.05765530114758786
2024-10-12T12:04:42+03:00,24.9,281.15,30.0000701530499,18.895680000000002,174.98131063295338,161.40221088835293,0.300000701530499,6.201359999999999,6.29856,-2.498095986770389,-18.500807204774283,-13.602018056405743,24.800518,59.479301,13.876018850747862,42.912201423686525,217.8935120566399,4.541863160545386,0.0017561718307973768,0.059411472978385234
2024-10-12T12:04:43+03:00,24.9,281.15,28.997394011570965,18.701279999999997,174.2020880315755,161.2016756600571,0.0,5.65704,6.29856,-1.701684651538545,-18.500807204774283,-14.10049133816956,24.800523,59.479275,14.024138807732568,40.27400734985079,214.4760953814263,4.316104697690959,0.001570236047730525,0.06098170902611576
2024-10-12T12:04:44+03:00,25.0,281.15,28.000447448043335,18.60408,172.15089912500713,161.6027461166487,0.300000701530499,5.7153599999999996,6.29856,-1.902219879834333,-17.29759583499955,-13.602018056405743,24.800529,59.479247,13.820709719344627,39.195299280409614,211.34619840541674,4.429383080054254,0.0016929526138243253,0.06267466163994008
2024-10-12T12:04:45+03:00,24.9,281.15,28.000447448043335,18.195839999999997,175.22195290690837,163.09816596194014,1.8000042091829944,5.42376,6.29856,-2.498095986770389,-15.29797312999298,-13.899956109873772,24.800529,59.479222,13.646630524712924,38.75435295883372,213.9763058657421,4.2296483326385745,0.0015026929101003958,0.06417735455004048
2024-10-12T12:04:46+03:00,24.9,281.15,28.997394011570965,18.895680000000002,174.86098949597593,165.60199152666183,2.199986045963822,5.19048,6.39576,-1.7990874767107847,-11.60239535139917,-14.301026566465348,24.800532,59.479197,14.574710652698183,38.9387842059287,213.79977370190463,4.037248224901802,0.0015054807817215438,0.06568283533176202
2024-10-12T12:04:47+03:00,24.9,281.15,26.997771306564392,19.303919999999998,178.60240389818023,168.300622741728,1.7000230739326654,5.57928,6.29856,-1.902219879834333,-9.20170218980102,-13.99735893504601,24.800534,59.479168,14.554709359819157,37.019149565528096,215.62155346370832,4.454688661017817,0.001744192589793171,0.06742702792155518
2024-10-12T12:04:48+03:00,25.2,281.15,26.997771306564392,19.40112,181.31249426914903,170.39764827190683,2.199986045963822,5.96808,6.201359999999999,-2.4006931615981495,-8.399561276617868,-13.699420881577984,24.800532,59.479135,14.341639536769543,37.886811445999854,219.19930571514888,4.710160697421929,0.0019844939703695407,0.06941152189192472
2024-10-12T12:04:49+03:00,25.3,281.15,26.997771306564392,19.49832,178.71126587925508,172.09933292344536,2.1000049107134933,6.337439999999999,6.201359999999999,-1.3980170201192088,-5.901465289847479,-11.201324894807593,24.800536,59.4791,14.147117100922092,38.73111838772283,217.4423842669779,4.9437780787323975,0.002107310551831589,0.07151883244375631
2024-10-12T12:04:50+03:00,25.3,281.15,26.00082474303676,18.99288,181.53021823129873,174.59742891021577,0.5000202678106694,6.25968,6.10416,-1.1000789666511805,-4.400315866604722,-7.597420363434716,24.800535,59.479067,13.645530513581457,37.60223573620564,219.13245396750438,4.959330597671065,0.0019837895165568916,0.07350262196031321
2024-10-12T12:04:51+03:00,25.3,281.15,28.000447448043335,18.701279999999997,181.5817844328605,174.79796413851156,0.0,6.43464,6.006959999999999,-1.598552248414997,-6.302535746439056,-5.597797658428142,24.800529,59.479033,13.36572396923323,41.06332983335312,222.64511426621362,4.851615400168419,0.0020518532471735067,0.07555447520748672
2024-10-12T12:04:52+03:00,25.2,281.15,28.997394011570965,19.20672,184.76170019583657,173.4973499435646,0.0,6.18192,6.006959999999999,-1.9996227050065731,-8.600096504913656,-6.801009028202872,24.800521,59.479,14.121405320886623,41.24972513687379,226.01142533271036,4.647833096366121,0.0019985310402926104,0.07755300624777933
2024-10-12T12:04:53+03:00,24.9,281.15,31.002746294528848,19.40112,184.4408438305633,171.60085964168155,0.0,5.7348,6.006959999999999,-1.598552248414997,-11.098192491684046,-9.900710699860626,24.800514,59.478972,14.783685905571977,42.528387945599974,226.96923177616327,4.226217942465068,0.0016965267313701269,0.07924953297914945
2024-10-12T12:04:54+03:00,24.8,281.15,28.997394011570965,18.99288,185.0596382493046,169.2001664800834,0.0,5.598719999999999,5.90976,-1.9996227050065731,-11.699798176571411,-13.401482828109954,24.800505,59.478944,14.354917782286025,39.89593502224892,224.95557327155353,4.295397660583806,0.001705292285120453,0.0809548252642699
2024-10-12T12:04:55+03:00,24.6,281.15,26.00082474303676,18.29304,182.1776605397966,168.00268468825996,0.0,5.3654399999999995,5.90976,-1.598552248414997,-12.301403861458775,-14.398429391637588,24.800503,59.478917,13.674459820427415,35.90544357513954,218.08310411493613,4.345930889714706,0.0016240562918064636,0.08257888155607637
2024-10-12T12:04:56+03:00,24.6,281.15,24.99814860155782,17.496,183.30065781825297,168.00268468825996,0.0,5.326560000000001,5.79312,-2.6012283898939375,-11.499262948275621,-16.100114043176134,24.800501,59.478907,12.866846312038248,35.07340303170483,218.3740608499578,4.3593448553057605,0.0006041697706483043,0.08318305132672468
2024-10-12T12:04:57+03:00,24.6,281.15,24.99814860155782,17.2044,184.56116496754078,168.19749033860447,0.0,5.6376,5.79312,-2.899166443361966,-12.79987714322259,-17.102790184655074,24.800491,59.478864,12.327323902668114,36.14128673611023,220.702451703651,4.5527290385552766,0.002602595930921975,0.08578564725764666
2024-10-12T12:04:58+03:00,24.6,281.15,28.000447448043335,16.50456,184.25749733612145,167.09741137195329,0.0,5.38488,5.79312,-3.300236899953542,-14.598964619933378,-17.89920151988692,24.800488,59.478837,12.018902526188443,40.14286769537159,224.40036503149304,4.116413708721582,0.001625490101201988,0.08741113735884865
2024-10-12T12:04:59+03:00,24.9,281.15,28.000447448043335,16.09632,180.09782374347165,165.99733240530213,1.200002806121996,5.28768,5.79312,-2.4006931615981495,-14.501561794761136,-18.397674801650734,24.800489,59.478812,11.694122285476483,40.25656527141115,220.3543890148828,4.035337557977175,0.0015030029359587077,0.08891414029480735
2024-10-12T12:05:00+03:00,25.1,281.15,28.000447448043335,15.901919999999999,180.1322012111795,165.69939435183406,0.5000202678106694,5.832,5.79312,-2.200157933302361,-11.997736230039438,-18.79874525824231,24.800486,59.478784,11.095713078297866,42.28642327465309,222.4186244858326,4.314458489277068,0.0016855057578975216,0.09059964605270487
2024-10-12T12:05:00+03:00,25.3,281.15,26.997771306564392,16.31016,177.1127136308401,167.80214945996423,0.0,5.773680000000001,5.79312,-1.7990874767107847,-11.79720100174365,-17.69866629159113,24.800488,59.478758,11.469169051382286,40.208039209381724,217.32075284022181,4.409390920165427,0.0015639927060368257,0.0921636387587417
2024-10-12T12:05:01+03:00,25.6,281.15,24.99814860155782,16.50456,175.41102897930153,168.19749033860447,0.0,5.42376,5.79312,-2.498095986770389,-12.599341914926804,-16.100114043176134,24.800494,59.478734,11.813370934161172,36.185584298576714,211.59661327787825,4.377564879844352,0.0014541659327849186,0.09361780469152661
2024-10-12T12:05:03+03:00,25.8,281.15,28.000447448043335,17.2044,181.62189147851964,164.3987801568871,0.0,5.0544,5.69592,-2.4006931615981495,-15.899578814880346,-15.00003507652495,24.800487,59.478691,12.960725488811407,38.550030266291316,220.17192174481096,3.952865713116457,0.002593449865264746,0.09621125455679136
2024-10-12T12:05:04+03:00,25.8,281.15,28.997394011570965,17.398799999999998,179.19255042716497,162.50228985500408,0.0,4.82112,5.69592,-2.6986312150661775,-17.200193009827313,-14.702097023056925,24.800484,59.47867,13.387627121116056,39.0512709918481,218.24382141901307,3.7439974442312045,0.0012655797615272874,0.09747683431831865
2024-10-12T12:05:05+03:00,25.8,281.15,28.997394011570965,18.00144,175.10163176993086,162.39915745188054,0.0,4.704479999999999,5.79312,-2.6986312150661775,-17.498131063295343,-16.197516868348373,24.800487,59.478651,14.072728101667963,38.32373048872469,213.42536225865555,3.690756796736971,0.0011457125013563134,0.09862254681967496
2024-10-12T12:05:06+03:00,25.6,281.15,28.000447448043335,18.40968,173.38848796248973,162.50228985500408,0.2000195662801704,5.09328,5.79312,-1.9996227050065731,-17.801798694714677,-16.99965778153153,24.80049,59.478626,14.116592639561192,37.75270129108543,211.14118925357516,4.027056375986104,0.0015054808751271413,0.1001280276948021
2024-10-12T12:05:07+03:00,25.6,281.15,28.000447448043335,18.701279999999997,173.4973499435646,163.0007631367679,0.6999825383113268,5.38488,5.79312,-2.1027551081301215,-16.99965778153153,-16.902254956359283,24.800494,59.478599,14.17401049128773,38.274731974157675,211.77208191772226,4.227398014504283,0.0016274953673550382,0.10175552306215714
2024-10-12T12:05:08+03:00,25.5,281.15,30.0000701530499,18.798479999999998,176.7689389537616,164.30137733171486,0.9000021045914972,5.1710400000000005,5.79312,-2.4006931615981495,-16.197516868348373,-17.69866629159113,24.800489,59.478574,14.5517683650348,40.2345946729036,217.0035336266652,3.9476038305842573,0.0015104245756182662,0.10326594763777541
2024-10-12T12:05:09+03:00,25.4,281.15,28.000447448043335,18.60408,176.09284875550722,165.69939435183406,1.200002806121996,4.91832,5.79312,-2.2975607584746007,-14.501561794761136,-18.90187766136586,24.800489,59.478552,14.447196264414089,37.197275169684815,213.29012392519203,3.9177304388233316,0.0013223697609189365,0.10458831739869436
2024-10-12T12:05:10+03:00,25.4,281.15,28.000447448043335,19.10952,179.5019476365356,168.19749033860447,1.4000223724021665,4.859999999999999,5.79312,-3.3976397251257815,-11.79720100174365,-19.297218540006124,24.800486,59.478533,14.99304325670414,36.75382212462844,216.25576976116403,3.893899541735397,0.001145712526927778,0.10573402992562213
2024-10-12T12:05:11+03:00,25.4,281.15,28.000447448043335,19.10952,175.8693952154062,169.80177216497077,1.7000230739326654,4.74336,5.79312,-2.2975607584746007,-10.599719209920229,-18.70134243307007,24.800488,59.478516,15.086658291079354,36.48875596082891,212.3581511762351,3.813536103520185,0.0010236534563834129,0.10675768338200554
2024-10-12T12:05:12+03:00,25.4,281.15,26.997771306564392,19.303919999999998,178.79720954852468,170.39764827190683,0.0,5.1127199999999995,5.69592,-2.498095986770389,-9.29910501497326,-18.002333923010465,24.800488,59.478493,14.929869765486757,35.94105880825626,214.73826835678094,4.139366662103452,0.0013824774775676573,0.1081401608595732
2024-10-12T12:05:13+03:00,25.4,281.15,26.00082474303676,18.701279999999997,178.61959263203414,168.99963125178763,0.0,5.50152,5.79312,-2.200157933302361,-10.800254438216017,-17.200193009827313,24.800485,59.478466,13.966395595252637,35.94475800040652,214.56435063244066,4.45393890486664,0.0016254901578755118,0.10976565101744871
2024-10-12T12:05:14+03:00,25.4,281.15,24.99814860155782,18.701279999999997,177.3189784370872,165.0977886669467,0.0,5.851439999999999,5.69592,-1.9996227050065731,-14.598964619933378,-16.39805209664416,24.800483,59.478438,13.62427128403874,35.45507240828684,212.77405084537403,4.766411092234824,0.001684123069065948,0.11144977408651466
2024-10-12T12:05:15+03:00,25.6,281.15,26.00082474303676,18.29304,178.04090525895202,163.69977164682751,0.0,6.1624799999999995,5.79312,-1.902219879834333,-16.701719728063498,-15.401105533116528,24.800478,59.478405,13.037250582861214,37.960105185104936,216.00101044405696,4.858741079098029,0.0019894184214760803,0.11343919250799074
2024-10-12T12:05:16+03:00,25.4,281.15,26.997771306564392,18.00144,177.37054463864894,164.50191256001065,0.0,5.9292,5.79312,-2.899166443361966,-15.29797312999298,-15.20057030482074,24.800479,59.478377,13.00007147825979,38.946987225914,216.31753186456294,4.6113042991431925,0.0016832928817449204,0.11512248538973566
2024-10-12T12:05:17+03:00,25.2,281.15,26.00082474303676,18.29304,182.72197044517085,165.49885912353832,1.5999846429028237,5.90976,5.79312,-2.200157933302361,-14.902632251352712,-14.902632251352712,24.80047,59.478346,13.237417737526208,37.287246901823096,220.00921734699395,4.701854368217944,0.0018834846411672449,0.1170059700309029
2024-10-12T12:05:18+03:00,25.2,281.15,24.99814860155782,18.60408,183.1803366812755,165.40145629836607,0.3999818367808277,5.346,5.79312,-2.200157933302361,-14.702097023056925,-13.401482828109954,24.80046,59.478322,13.94312515108833,34.32271014250574,217.50304682378123,4.415127036921053,0.0014745301260866762,0.11848050015698958
2024-10-12T12:05:19+03:00,25.2,281.15,24.001202038030186,18.195839999999997,178.40759824783575,167.20054377507685,0.8000209693411684,4.89888,5.79312,-1.1000789666511805,-12.79987714322259,-12.599341914926804,24.800449,59.478302,13.864474399541724,32.264556857408564,210.67215510524431,4.1424548225011995,0.0012481712643215733,0.11972867142131115
2024-10-12T12:05:20+03:00,25.0,281.15,24.001202038030186,18.09864,178.52218980686192,168.39802556690026,0.09998113525032865,5.1127199999999995,5.69592,-2.2975607584746007,-11.298727719979832,-10.101245928156414,24.800446,59.478277,13.588066161462478,32.80481562439337,211.3270054312553,4.297348888914622,0.0015054809334477512,0.1212341523547589
2024-10-12T12:05:21+03:00,24.9,281.15,24.99814860155782,17.90424,180.4702463103067,166.90260572160878,0.0,4.58784,5.69592,-0.8021409131831525,-11.997736230039438,-10.101245928156414,24.800443,59.478258,13.882231716929711,33.02622982518676,213.49647613549345,3.8465420707258873,0.001145712586522517,0.12237986494128142
2024-10-12T12:05:22+03:00,24.8,281.15,26.00082474303676,17.009999999999998,183.3293057080095,164.3987801568871,0.0,5.1710400000000005,5.69592,-2.1027551081301215,-15.29797312999298,-9.602772646392598,24.800439,59.478235,12.568457023528824,36.39180787028201,219.72111357829152,4.16257672561667,0.0013878594962233837,0.1237677244375048
2024-10-12T12:05:23+03:00,24.6,281.15,26.00082474303676,16.407359999999997,181.31822384710034,163.29870119023593,0.0,4.7628,5.69592,-2.200157933302361,-17.29759583499955,-10.702851613043778,24.800439,59.478216,12.305049252262823,35.770109534639715,217.08833338174006,3.864387670431193,0.0011420466109727733,0.12490977104847759
2024-10-12T12:05:24+03:00,24.6,281.15,22.998525896551243,16.19352,176.442353010537,162.89763073364438,0.0,4.5684000000000005,5.69592,-2.1027551081301215,-16.902254956359283,-11.000789666511807,24.800443,59.4782,12.120387262565615,31.46698383349846,207.90933684403547,3.896576156752393,0.0009694442011610586,0.12587921524963863
2024-10-12T12:05:25+03:00,24.5,281.15,26.00082474303676,16.407359999999997,174.8380711841707,160.89800802863775,0.0,4.91832,5.598719999999999,-0.8021409131831525,-20.09935945318928,-9.20170218980102,24.800444,59.47818,12.179204438524444,36.19777494086185,211.03584612503255,3.969001845720695,0.0012025418520208503,0.12708175710165948
2024-10-12T12:05:26+03:00,24.5,281.15,28.000447448043335,16.60176,174.29949085674772,159.70052623681437,0.600001403060998,4.97664,5.598719999999999,-1.3980170201192088,-20.00195662801704,-8.800631733209444,24.800444,59.478159,12.42923934525653,38.8352615709417,213.13475242768942,3.8765646082398346,0.0012622620450349188,0.12834401914669438
2024-10-12T12:05:27+03:00,24.5,281.15,28.000447448043335,16.69896,174.33959790240692,162.59969268017633,2.1000049107134933,4.97664,5.598719999999999,-1.3980170201192088,-18.397674801650734,-9.29910501497326,24.800448,59.478129,12.524719909040934,38.75167656585933,213.09127446826625,3.8811131625345134,0.001807361034446084,0.13015138018114047
2024-10-12T12:05:28+03:00,24.5,281.15,26.00082474303676,15.99912,178.48208276120272,165.69939435183406,0.9000021045914972,5.01552,5.50152,-1.598552248414997,-13.99735893504601,-9.20170218980102,24.800449,59.478103,11.699692466611467,36.83283536766851,215.31491812887123,4.01436176031046,0.0015630987441262625,0.13171447892526675
2024-10-12T12:05:29+03:00,24.5,281.15,26.997771306564392,16.31016,179.39881523341205,163.09816596194014,0.0,5.2488,5.404319999999999,-1.701684651538545,-16.002711218003892,-9.499640243269049,24.800448,59.478073,11.874858142438635,38.572906314114334,217.97172154752639,4.1035926793204,0.0018034898661063471,0.1335179687913731
2024-10-12T12:05:30+03:00,24.4,281.15,26.00082474303676,15.804720000000001,178.64824052179068,157.59777112868423,0.0,5.151599999999999,5.404319999999999,-1.7990874767107847,-21.30257082296401,-10.50231638474799,24.800448,59.478052,11.4004512595258,37.42644280617645,216.07468332796714,4.091061865627266,0.0012622620450349188,0.134780230836408
2024-10-12T12:05:31+03:00,24.4,281.15,24.99814860155782,15.49368,174.95839232114818,152.4984467520199,0.0,5.151599999999999,5.404319999999999,-1.701684651538545,-26.201359971332543,-9.700175471564837,24.800452,59.478026,11.041419604088643,36.36952083106004,211.32791315220823,4.148116537248826,0.001567563710801983,0.13634779454721
2024-10-12T12:05:32+03:00,24.4,281.15,26.997771306564392,15.29928,170.9992539567942,151.5989030136645,0.0,4.7628,5.404319999999999,-1.7990874767107847,-28.699455958102938,-8.800631733209444,24.800459,59.478004,11.264944831527938,38.06331331390868,209.06256727070289,3.749895089791255,0.001339523908579335,0.13768731845578933
2024-10-12T12:05:33+03:00,24.3,281.15,28.000447448043335,15.804720000000001,168.05998046777307,152.40104392684768,0.0,4.74336,5.307119999999999,-1.3006141949469687,-27.501974166279513,-9.900710699860626,24.800462,59.477979,11.828122503688856,38.852409913302324,206.9123903810754,3.6939602290759304,0.0015054809818311366,0.13919279943762047
2024-10-12T12:05:34+03:00,24.3,281.15,30.0000701530499,15.610319999999998,164.70244778830644,152.60157915514347,1.7000230739326654,4.93776,5.307119999999999,-1.3980170201192088,-28.097850273215574,-11.499262948275621,24.800472,59.477952,11.599877531663568,42.288740488872236,206.99118827717868,3.652773820408319,0.0016513693021076097,0.14084416873972808
2024-10-12T12:05:35+03:00,24.3,281.15,28.000447448043335,15.70752,162.22154053538998,152.89951720861148,0.3999818367808277,4.7628,5.307119999999999,-2.200157933302361,-26.602430427924123,-13.699420881577984,24.800483,59.47793,11.717561240949218,39.00152296079651,201.22306349618648,3.701311112924806,0.0013643389392397982,0.14220850767896787
2024-10-12T12:05:36+03:00,24.3,281.15,28.000447448043335,15.70752,161.84911796855496,153.3979904903753,0.0,4.31568,5.404319999999999,-2.498095986770389,-25.89769233991321,-15.097437901697193,24.800493,59.477913,12.068312238004927,37.66546404583704,199.514582014392,3.416257749544766,0.0010664559453429214,0.14327496362431077
2024-10-12T12:05:37+03:00,24.3,281.15,26.997771306564392,16.19352,159.72917412657088,151.70203541678808,0.0,4.93776,5.404319999999999,-1.501149423242757,-28.699455958102938,-14.398429391637588,24.800508,59.477889,12.004977459705476,37.75898430833047,197.48815843490135,3.903761280658954,0.001513515206723068,0.14478847883103385
2024-10-12T12:05:38+03:00,24.3,281.15,28.000447448043335,16.50456,159.75782201632745,150.49882404701333,0.0,5.346,5.50152,-1.902219879834333,-28.699455958102938,-14.702097023056925,24.800524,59.477864,12.048649997999972,40.02367061425721,199.78149263058467,4.093853586736728,0.0015800795217130051,0.14636855835274687
2024-10-12T12:05:39+03:00,24.5,281.15,30.0000701530499,16.60176,163.53934346419086,150.6019564501369,0.8000209693411684,5.3654399999999995,5.50152,-2.6986312150661775,-29.598999696458325,-15.00003507652495,24.800536,59.477834,12.252459782737153,42.64767689628653,206.1870203604774,3.9464613510775584,0.0018400644061451349,0.14820862275889202
2024-10-12T12:05:40+03:00,24.5,281.15,28.997394011570965,16.60176,164.85714639299175,151.39836778536872,1.2999839413723246,5.96808,5.50152,-2.4006931615981495,-28.699455958102938,-16.002711218003892,24.800555,59.477793,11.743776999296099,43.259353409319914,208.11649980231167,4.346308602765647,0.0025317511086939476,0.15074037386758596
2024-10-12T12:05:41+03:00,24.5,281.15,28.000447448043335,16.893359999999998,165.53896616919747,155.2028075450374,1.899985344433323,5.7153599999999996,5.50152,-2.200157933302361,-24.797613373262028,-17.200193009827313,24.800572,59.477761,12.147081720736098,40.76209600600478,206.30106217520225,4.328968893418535,0.001992226776869207,0.15273260064445515
2024-10-12T12:05:42+03:00,24.7,281.15,28.000447448043335,17.009999999999998,164.62223369698813,157.50036830351198,1.4000223724021665,5.52096,5.50152,-2.1027551081301215,-22.700587843083216,-16.701719728063498,24.800587,59.477732,12.409023730347108,40.05705445777812,204.67928815476625,4.225764774774457,0.0018022648680369416,0.1545348655124921
2024-10-12T12:05:43+03:00,24.9,281.15,26.997771306564392,17.2044,168.24905654016626,156.89876261862463,0.0,5.151599999999999,5.50152,-1.9996227050065731,-22.402649789615186,-14.702097023056925,24.800597,59.477707,12.829149697190989,37.50082396153431,205.74988050170057,4.08699396773058,0.0015333872383673404,0.15606825275085945
2024-10-12T12:05:44+03:00,25.0,281.15,28.000447448043335,17.107200000000002,173.62913023644467,155.3976131953819,0.0,5.01552,5.50152,-2.4006931615981495,-24.20173726632597,-11.699798176571411,24.800603,59.477682,12.895576740731252,38.521443922224904,212.15057415866957,3.9240180384430143,0.0015138145833137376,0.15758206733417318
2024-10-12T12:05:45+03:00,25.0,281.15,28.997394011570965,17.107200000000002,175.88085437130883,151.9999734702561,0.0,4.93776,5.50152,-1.1974817918234204,-27.897315044919782,-10.3017811564522,24.800603,59.477658,13.01051898927521,39.599072238916335,215.47992661022516,3.8046604341347807,0.0014425851934516745,0.15902465252762485
2024-10-12T12:05:46+03:00,25.0,281.15,28.000447448043335,16.31016,166.89114656570618,150.8998945036049,0.0,5.5598399999999994,5.598719999999999,-1.501149423242757,-28.802588361226483,-10.702851613043778,24.800615,59.477631,11.696115154757498,40.89575386503117,207.78690043073735,4.202694116202481,0.001663738657851974,0.16068839118547681
2024-10-12T12:05:47+03:00,24.8,281.15,28.000447448043335,16.19352,164.4618055143515,150.4014212218411,0.0,5.7153599999999996,5.598719999999999,-1.3980170201192088,-29.598999696458325,-10.702851613043778,24.800631,59.477604,11.46557180263194,41.534645197319804,205.99645071167132,4.278260822411451,0.0016948157591320488,0.16238320694460887
2024-10-12T12:05:48+03:00,24.4,281.15,28.997394011570965,16.31016,165.88274084627594,151.1004297319007,0.9000021045914972,5.2488,5.598719999999999,-2.1027551081301215,-28.997394011570965,-13.097815196690618,24.800639,59.477583,11.992381519435511,41.24712188205592,207.12986272833186,3.9464306203275727,0.0012856701744070065,0.16366887711901587
2024-10-12T12:05:49+03:00,24.2,281.15,28.000447448043335,16.407359999999997,167.25783955458994,151.7994382419603,1.4000223724021665,5.42376,5.598719999999999,-2.6986312150661775,-28.29838550151136,-17.29759583499955,24.80065,59.477553,11.894242778058203,40.36209961961248,207.61993917420241,4.132725395094888,0.0018342315176926736,0.16550310863670856
2024-10-12T12:05:50+03:00,24.2,281.15,28.000447448043335,16.407359999999997,164.77120272372215,153.70165812179465,2.199986045963822,5.5404,5.598719999999999,-3.300236899953542,-26.499298024800574,-20.798367963248886,24.800663,59.47753,11.805608629494905,40.728707927968884,205.49991065169104,4.198556720283072,0.0014383106335004942,0.16694141927020906
2024-10-12T12:05:51+03:00,24.2,281.15,28.000447448043335,16.69896,164.57066749542636,156.89876261862463,1.8000042091829944,5.5598399999999994,5.598719999999999,-2.899166443361966,-23.30219352797058,-21.199438419840458,24.800677,59.477508,12.075421160560724,40.4840483667586,205.05471586218496,4.228740624991171,0.001389718395464977,0.16833113766567404
2024-10-12T12:05:52+03:00,24.2,281.15,30.0000701530499,17.496,166.07754649662044,159.99846429028239,1.200002806121996,5.326560000000001,5.50152,-2.4006931615981495,-20.299894681485068,-18.999280486538098,24.80069,59.477483,13.155474351494137,41.68015671223975,207.7577032088602,3.9782400222494383,0.001554213600344544,0.16988535126601859
2024-10-12T12:05:53+03:00,24.5,281.15,31.999692858056477,18.40968,166.10046480842567,159.99846429028239,0.0,5.3654399999999995,5.50152,-1.3006141949469687,-19.600886171425465,-15.401105533116528,24.800701,59.477462,14.148146474689167,43.592854014867044,209.6933188232927,3.8859621235988215,0.0013061652080489893,0.17119151647406758
2024-10-12T12:05:54+03:00,24.7,281.15,33.00236899953541,18.50688,167.1203296837585,157.2998330752162,0.0,5.404319999999999,5.50152,-2.1027551081301215,-22.001579333023614,-12.89727996839483,24.800714,59.477436,14.281211003308595,44.89722568944708,212.0175553732056,3.8282798610581787,0.0016124019864766932,0.17280391846054427
2024-10-12T12:05:55+03:00,24.7,281.15,33.00236899953541,18.99288,166.15776058793872,154.89913991361806,0.0,5.1127199999999995,5.50152,-2.200157933302361,-25.301816232977153,-14.398429391637588,24.800726,59.477416,14.966465639163037,43.72571155008754,209.88347213802626,3.6947430954692946,0.001256730518392077,0.17406064897893636
2024-10-12T12:05:56+03:00,24.7,281.15,33.99931556306306,18.895680000000002,169.99084823736396,153.99959617526267,0.300000701530499,4.89888,5.598719999999999,-2.8017636181897254,-26.00082474303676,-16.902254956359283,24.800736,59.477395,15.08510392053587,44.46195852279877,214.45280676016273,3.496407372143783,0.001298652240430514,0.17535930121936688
2024-10-12T12:05:57+03:00,24.6,281.15,33.99931556306306,18.895680000000002,168.71888193217353,154.6986046853223,0.0,5.67648,5.69592,-3.002298846485514,-24.797613373262028,-18.300271976478495,24.800744,59.47737,14.54032325256695,46.608674637930676,215.3275565701042,3.8996140324060806,0.0015224089649229753,0.17688171018428986
2024-10-12T12:05:58+03:00,24.5,281.15,33.99931556306306,18.895680000000002,169.45226790994099,155.3976131953819,1.2999839413723246,5.443199999999999,5.69592,-1.9996227050065731,-25.3992190581494,-19.19981571483389,24.800752,59.477346,14.70155873779401,45.947998222923786,215.40026613286477,3.7847166102024796,0.0014631114786304283,0.1783448216629203
2024-10-12T12:05:59+03:00,24.5,281.15,33.99931556306306,18.701279999999997,172.09933292344536,156.19975410856503,0.0,5.94864,5.79312,-2.200157933302361,-23.399596353142822,-20.700965138076644,24.80076,59.47732,14.165680971453488,47.58029971414243,219.6796326375878,4.012692317188887,0.0015817676965439553,0.17992658935946423
2024-10-12T12:06:00+03:00,24.5,281.15,35.00199170454199,18.195839999999997,174.87817822982984,158.1993768135716,0.8000209693411684,6.1236,5.90976,-3.5007721282493303,-21.199438419840458,-21.600508876432034,24.800766,59.477289,13.639832983012006,49.9249381802322,224.80311641006205,3.9423163272996735,0.001872320055875778,0.18179890941534002
2024-10-12T12:06:01+03:00,25.2,281.15,33.99931556306306,18.29304,173.61767108054204,158.3999120418674,1.2999839413723246,5.851439999999999,5.90976,-2.6012283898939375,-22.2021145613194,-21.697911701604276,24.800773,59.477262,13.834443647209067,47.68014131461484,221.29781239515688,3.9395921556334885,0.0016369166151378742,0.1834358260304779
2024-10-12T12:06:02+03:00,25.2,281.15,33.99931556306306,18.29304,173.17076400034003,160.39953474687397,1.5999846429028237,5.832,5.90976,-3.5007721282493303,-19.297218540006124,-21.49737647330849,24.80078,59.477233,13.8475394533698,47.62066767663791,220.79143167697794,3.930977770295273,0.0017561734225986223,0.18519199945307652
2024-10-12T12:06:03+03:00,25.9,281.15,33.99931556306306,18.09864,173.8411246206431,160.10159669340592,0.3999818367808277,6.27912,6.006959999999999,-2.498095986770389,-20.500429909780856,-20.500429909780856,24.800785,59.4772,13.36252532660667,49.23338735664831,223.0745119772914,4.100135868510325,0.0019894188399863424,0.18718141829306287
2024-10-12T12:06:04+03:00,25.9,281.15,31.999692858056477,18.195839999999997,173.8010175749839,159.70052623681437,0.0,6.5124,6.006959999999999,-2.899166443361966,-20.798367963248886,-19.801421399721253,24.800792,59.477174,13.134468745346805,47.23269894344148,221.03371651842536,4.4220658092570835,0.0015773428779321493,0.18875876117099502
2024-10-12T12:06:06+03:00,25.6,281.15,31.999692858056477,18.195839999999997,175.50270222652244,159.49999100851855,0.0,6.0264,6.006959999999999,-1.902219879834333,-19.698288996597704,-16.39805209664416,24.800805,59.477111,13.46919981308517,45.71483275760545,221.2175349841279,4.207813170559191,0.0038075249764853137,0.19256628614748034
2024-10-12T12:06:07+03:00,25.3,281.15,31.999692858056477,18.195839999999997,176.06993044370196,160.30213192170172,0.6999825383113268,6.492959999999999,6.10416,-2.200157933302361,-19.89882422489349,-13.602018056405743,24.800812,59.477076,13.147676687209227,47.17050679750815,223.24043724121012,4.4140369524576455,0.0021145953601326073,0.19468088150761295
2024-10-12T12:06:08+03:00,25.2,281.15,31.999692858056477,18.50688,173.18222315624263,160.19899951857818,0.2000195662801704,6.454079999999999,6.10416,-1.1000789666511805,-19.89882422489349,-11.79720100174365,24.80082,59.477046,13.474756558290423,46.7031457289207,219.88536888516333,4.4260686219752605,0.0018196944854657576,0.1965005759930787
2024-10-12T12:06:09+03:00,24.9,281.15,31.999692858056477,18.60408,174.24792465518595,159.90106146511013,0.0,6.08472,6.10416,-2.6986312150661775,-20.90150036637243,-10.101245928156414,24.800825,59.477019,13.82518825954348,45.48672195749586,219.73464661268181,4.265842263477286,0.0016300705656081154,0.19813064655868684
2024-10-12T12:06:10+03:00,24.6,281.15,31.002746294528848,18.60408,171.58940048577895,159.098920551927,0.2000195662801704,5.754239999999999,6.10416,-0.20053522829578813,-22.001579333023614,-7.901087994854052,24.800835,59.476994,13.989454011210585,43.23447101979136,214.8238715055703,4.1922898149930665,0.0015333885211545988,0.19966403507984143
2024-10-12T12:06:11+03:00,24.3,281.15,30.0000701530499,18.99288,169.2001664800834,158.10197398839935,0.0,6.045839999999999,6.201359999999999,-1.501149423242757,-24.299140091498213,-6.399938571611295,24.800846,59.476963,14.085241640811747,42.39310411760846,211.59327059769186,4.465073461866922,0.00189335638117061,0.20155739146101204
2024-10-12T12:06:12+03:00,24.0,281.15,30.0000701530499,18.798479999999998,166.28954088081883,155.79868365197345,0.0,5.6181600000000005,6.10416,-1.3006141949469687,-26.699833253096365,-7.901087994854052,24.800856,59.476943,14.213368615932318,41.398874802290266,207.6884156831091,4.21431696980484,0.0012403103237464633,0.2027977017847585
2024-10-12T12:06:13+03:00,24.0,281.15,31.002746294528848,18.798479999999998,168.97098336203106,153.3005876652031,0.0,5.57928,6.201359999999999,-1.7990874767107847,-28.802588361226483,-9.998113525032863,24.800865,59.476916,14.307815376791895,42.58960400647436,211.56058736850542,4.1075769095502705,0.0016460009952159894,0.2044437027799745
2024-10-12T12:06:14+03:00,23.9,281.15,31.002746294528848,18.29304,164.2612702860557,151.30096496019647,0.0,5.754239999999999,6.10416,-2.200157933302361,-28.802588361226483,-12.501939089754565,24.800878,59.476887,13.685633671251406,43.51036157203856,207.77163185809425,4.17326183880914,0.0017877303972533528,0.20623143317722786
2024-10-12T12:06:15+03:00,23.8,281.15,30.0000701530499,17.90424,161.3792925765477,150.8998945036049,0.0,5.57928,6.10416,-2.498095986770389,-28.29838550151136,-13.699420881577984,24.800898,59.47686,13.366785247970304,42.046240465893504,203.4255330424412,4.143198784863486,0.0017339584547522342,0.2079653916319801
2024-10-12T12:06:16+03:00,23.8,281.15,28.997394011570965,17.70984,163.6883124909249,151.5989030136645,1.2999839413723246,5.94864,6.10416,-1.7990874767107847,-26.699833253096365,-13.602018056405743,24.800915,59.47683,12.835056390103823,41.98118448265754,205.66949697358243,4.42200793626341,0.0018764269594194576,0.20984181859139955
2024-10-12T12:06:17+03:00,23.8,281.15,28.000447448043335,17.5932,164.8686055488944,153.3979904903753,2.000023775463165,6.10416,6.10416,-1.701684651538545,-23.502728756266368,-13.200947599814167,24.800932,59.476803,12.53553921375093,41.21580120833636,206.08440675723077,4.591751961839463,0.0017038680299936684,0.21154568662139323
2024-10-12T12:06:18+03:00,23.8,281.15,28.000447448043335,17.80704,167.10887052785588,156.4002893368608,2.000023775463165,5.832,6.10416,-1.1974817918234204,-22.29951738649164,-11.79720100174365,24.800945,59.476775,12.950454947235139,40.20608797758308,207.31495850543897,4.454058436219749,0.0017291742472118257,0.21327486086860506
2024-10-12T12:06:19+03:00,24.0,281.15,28.997394011570965,18.29304,170.40910742780943,157.39723590038847,0.0,5.7348,6.10416,-0.6016056848873644,-23.898069634906637,-8.600096504913656,24.800955,59.476747,13.565076030630596,40.823516213061595,211.23262364087103,4.339676881241119,0.001710479109798699,0.21498533997840377
2024-10-12T12:06:20+03:00,24.0,281.15,28.000447448043335,18.29304,170.0424144389257,155.7012808268012,0.0,5.50152,6.10416,-2.4006931615981495,-27.398841763155968,-6.697876625079324,24.800961,59.476721,13.681517433217932,38.88224823351996,208.92466267244566,4.282590415418258,0.001573498114137844,0.21655883809254162
2024-10-12T12:06:21+03:00,24.0,281.15,28.000447448043335,18.29304,172.23111321632544,152.80211438343926,0.0,5.307119999999999,6.10416,-2.200157933302361,-31.5986224014649,-8.800631733209444,24.800968,59.476695,13.833383957866403,38.37681548265405,210.6079286989795,4.160488799126708,0.0015773432884443285,0.21813618138098595
2024-10-12T12:06:22+03:00,24.0,281.15,26.997771306564392,18.40968,165.7681492872498,149.79981553695373,0.09998113525032865,5.46264,6.006959999999999,-1.598552248414997,-28.29838550151136,-11.900333404867197,24.800981,59.476667,13.767507032560042,37.37449533006563,203.14264461731543,4.341077573395045,0.0017291745384136325,0.21986535591939957
2024-10-12T12:06:23+03:00,23.9,281.15,26.00082474303676,18.09864,165.24102811572942,151.5015001884923,0.9000021045914972,6.08472,6.006959999999999,-2.6012283898939375,-26.00082474303676,-12.198271458335228,24.800997,59.476636,12.908381255250605,37.92660103505739,203.1676291507868,4.7996198473721465,0.0019262958293647478,0.2217916517487643
2024-10-12T12:06:24+03:00,23.9,281.15,26.00082474303676,18.09864,169.8877158342404,153.50112289349886,1.200002806121996,6.37632,6.006959999999999,-1.0026761414789407,-28.000447448043335,-11.000789666511807,24.801003,59.476602,12.679634353211712,38.73652979797126,208.62424563221165,4.973731192181619,0.0020518544238595873,0.22384350617262389
2024-10-12T12:06:25+03:00,23.8,281.15,24.99814860155782,17.70984,170.35181164829635,152.4984467520199,0.0,6.24024,6.006959999999999,-0.8995437383553924,-27.599376991451756,-10.399183981624443,24.80101,59.476575,12.339256182267054,37.3381679721617,207.68997962045805,4.96142525237241,0.0016369171832406437,0.22548042335586452
2024-10-12T12:06:26+03:00,23.8,281.15,26.997771306564392,17.398799999999998,167.05730432629414,151.90257064508384,0.0,6.08472,5.90976,-1.3980170201192088,-29.197929239866756,-11.201324894807593,24.801021,59.476543,12.291552142166303,39.984360039200396,207.04166436549454,4.662233401135266,0.0019525409738847825,0.2274329643297493
2024-10-12T12:06:27+03:00,23.8,281.15,26.997771306564392,17.398799999999998,167.34951280181082,150.8024916784327,0.0,5.65704,5.90976,-2.6986312150661775,-30.49854343481372,-13.200947599814167,24.801035,59.476513,12.622241152618757,38.736788107123914,206.08630090893473,4.412654092749055,0.001853189133647172,0.22928615346339648
2024-10-12T12:06:28+03:00,23.8,281.15,28.000447448043335,16.79616,166.4098620177963,149.39874508036215,0.0,5.38488,5.90976,-3.798710181717358,-30.298008206517935,-15.49850835828877,24.801048,59.476481,12.30413166471007,39.85724818708519,206.2671102048815,4.133668465221025,0.0019639631654188435,0.2312501166288153
2024-10-12T12:06:29+03:00,23.8,281.15,30.0000701530499,16.79616,162.77158001871558,149.5018774834857,1.5000035076524951,5.46264,5.79312,-2.899166443361966,-28.699455958102938,-16.701719728063498,24.801063,59.476456,12.3706707534658,42.7555335020098,205.52711352072538,4.010981379386538,0.0015709169317457534,0.23282103356056105
2024-10-12T12:06:30+03:00,23.8,281.15,30.0000701530499,16.69896,161.64285316230786,151.19783255707296,2.1000049107134933,5.6376,5.79312,-1.0026761414789407,-28.802588361226483,-16.30064927147192,24.801081,59.476432,12.14821338454774,43.416957658876555,205.0598108211844,4.094990750312671,0.0015437007062148098,0.23436473426677587
2024-10-12T12:06:31+03:00,23.8,281.15,31.002746294528848,16.79616,163.72268995863274,151.19783255707296,0.0,5.69592,5.90976,-1.7990874767107847,-29.902667327877666,-14.902632251352712,24.801096,59.476407,12.269863142629006,44.836777147322096,208.55946710595484,4.039081096837593,0.0015709171246908575,0.23593565139146672
2024-10-12T12:06:32+03:00,23.8,281.15,31.999692858056477,17.009999999999998,163.56799135394743,149.39874508036215,0.0,5.07384,5.90976,-2.6986312150661775,-33.30030705300345,-15.601640761412316,24.801116,59.476382,12.988462296431699,43.94670452301625,207.51469587696369,3.6530919774330335,0.0016219978392026724,0.23755764923066938
2024-10-12T12:06:33+03:00,23.8,281.15,33.99931556306306,17.3016,162.58250394632242,147.10118432188756,0.0,5.22936,5.79312,-2.4006931615981495,-34.400386019654626,-17.69866629159113,24.801135,59.476354,13.291872099399491,46.708160098391375,209.2906640447138,3.585849003464005,0.0017801650110446142,0.239337814241714
2024-10-12T12:06:34+03:00,24.0,281.15,33.99931556306306,17.107200000000002,158.1191627222533,146.20164058353217,0.09998113525032865,4.82112,5.79312,-3.2028340747813018,-31.902290032884235,-20.299894681485068,24.801159,59.476334,13.384588441964784,45.61916965449487,203.73833237674816,3.3720082771395363,0.0014078336843876935,0.24074564792610167
2024-10-12T12:06:35+03:00,24.2,281.15,33.00236899953541,17.009999999999998,154.9277878033746,147.80019283194716,1.5999846429028237,5.151599999999999,5.79312,-3.0997016716577535,-29.598999696458325,-22.597455439959663,24.801182,59.476317,12.996144785815861,45.47103422081241,200.398822024187,3.612661281236115,0.0012398213890684995,0.24198546931517018
2024-10-12T12:06:36+03:00,24.4,281.15,33.00236899953541,17.2044,165.26967600548596,150.09775359042175,1.8000042091829944,5.6376,5.79312,-2.498095986770389,-28.602053132930696,-23.600131581438607,24.801196,59.476292,12.848751150608127,46.82898214899413,212.0986581544801,3.857123478691355,0.0015622914422953617,0.24354776075746554
2024-10-12T12:06:37+03:00,24.4,281.15,33.00236899953541,17.398799999999998,165.81971548881154,151.5989030136645,1.5999846429028237,5.6181600000000005,5.79312,-3.3976397251257815,-24.60280772291755,-24.20173726632597,24.801207,59.476268,13.050959384613257,46.56277748628946,212.382492975101,3.8628186566287024,0.00148115565830014,0.24502891641576569
2024-10-12T12:06:38+03:00,24.5,281.15,31.999692858056477,17.398799999999998,165.20092107007028,154.89913991361806,2.9000258800546614,5.69592,5.79312,-3.5007721282493303,-19.600886171425465,-24.99814860155782,24.80122,59.476244,12.925724929373038,45.50380152288321,210.7047225929535,3.9920535369458015,0.0014961809830786553,0.24652509739884435
2024-10-12T12:06:39+03:00,24.8,281.15,31.999692858056477,17.80704,168.79909602349184,159.70052623681437,3.2000265815851607,5.96808,5.79312,-2.498095986770389,-18.70134243307007,-23.800666809734395,24.801231,59.476215,13.132303473288264,45.93486956797159,214.73396559146343,4.150654162935061,0.001775176294471848,0.2483002736933162
2024-10-12T12:06:40+03:00,25.0,281.15,31.002746294528848,18.29304,169.65280313823678,161.2016756600571,0.9000021045914972,5.96808,5.79312,-3.0997016716577535,-18.197139573354946,-22.2021145613194,24.80124,59.476188,13.531347195816764,44.1337719985915,213.78657513682828,4.283386382151908,0.0016460019843182122,0.24994627567763442
2024-10-12T12:06:41+03:00,25.2,281.15,30.0000701530499,18.40968,171.28000327640828,161.49961371352515,0.0,5.890319999999999,5.79312,-2.899166443361966,-20.299894681485068,-20.299894681485068,24.801248,59.476163,13.630503473939555,42.47848013952691,213.7584834159352,4.344293784648172,0.0015224103647452866,0.2514686860423797
2024-10-12T12:06:42+03:00,25.2,281.15,31.002746294528848,18.50688,171.3372990559214,159.99846429028239,0.0,5.7153599999999996,5.90976,-3.002298846485514,-20.597832734953094,-20.09935945318928,24.801255,59.476139,13.922788166474271,43.20961956054256,214.54691861646396,4.165661205547808,0.0014583276713187497,0.25292701371369847
2024-10-12T12:06:43+03:00,25.1,281.15,30.0000701530499,18.50688,174.59169933226445,159.49999100851855,0.0,5.90976,5.90976,-2.899166443361966,-21.697911701604276,-19.497753768301912,24.801267,59.476114,13.711072024279396,42.44557595526504,217.0372752875295,4.36092261094033,0.0015467038739246165,0.2544737175876231
2024-10-12T12:06:44+03:00,25.1,281.15,30.0000701530499,18.40968,175.00995852270995,158.1993768135716,0.0,5.773680000000001,6.006959999999999,-2.8017636181897254,-23.898069634906637,-17.498131063295343,24.801274,59.47609,13.716755259663577,42.149457026084434,217.15941554879439,4.280588225256848,0.0014583277174970192,0.25593204530512015
2024-10-12T12:06:45+03:00,24.9,281.15,30.0000701530499,18.195839999999997,173.34265133887925,156.19975410856503,0.0,6.37632,6.006959999999999,-1.902219879834333,-27.702509394575305,-16.39805209664416,24.801282,59.47606,13.068639174296962,44.12018720334811,217.46283854222736,4.577439360730801,0.0018196954429505038,0.25775174074807067
2024-10-12T12:06:48+03:00,24.5,281.15,31.002746294528848,17.398799999999998,166.50726484296854,148.69973657030255,0.0,6.39576,6.10416,-2.8017636181897254,-31.002746294528848,-19.497753768301912,24.801314,59.475993,12.363689366497976,46.45596103683681,212.96322587980535,4.406115257407401,0.00414401285327316,0.2618957536013438
2024-10-12T12:06:49+03:00,24.5,281.15,30.0000701530499,16.893359999999998,164.50764213796197,148.79713939547477,0.0,6.492959999999999,6.006959999999999,-3.2028340747813018,-31.002746294528848,-20.09935945318928,24.801328,59.475966,11.728565196389006,46.06948319857014,210.5771253365321,4.504721557696826,0.0016782441925007345,0.26357399779384455
2024-10-12T12:06:50+03:00,24.5,281.15,30.0000701530499,16.60176,163.69977164682751,147.8975956571194,0.2000195662801704,6.37632,6.006959999999999,-3.9018425848409057,-32.40076331464805,-21.600508876432034,24.801345,59.475943,11.52928247597325,46.05315008108195,209.75292172790947,4.425107293409541,0.001476682936192697,0.26505068073003724
2024-10-12T12:06:51+03:00,24.5,281.15,30.0000701530499,16.50456,164.71963652216036,148.29866611371096,0.600001403060998,6.18192,6.10416,-3.5981749534215695,-31.70175480458845,-24.299140091498213,24.801359,59.475915,11.571337115754902,45.49319104532012,210.21282756748047,4.333488958860498,0.0017364376415575263,0.26678711837159474
2024-10-12T12:06:52+03:00,24.7,281.15,28.997394011570965,16.79616,163.64820544526572,150.8024916784327,0.9999832398418258,5.81256,6.10416,-3.9018425848409057,-28.401517904634908,-26.29876279650479,24.801374,59.475888,12.0464347636979,42.52463784419038,206.1728432894561,4.283779744816747,0.0016862777210260643,0.26847339609262083
2024-10-12T12:06:53+03:00,25.1,281.15,30.0000701530499,17.3016,163.44767021696995,153.10005243690728,0.9999832398418258,6.14304,6.006959999999999,-3.701307356545118,-25.80028951474097,-25.198683829853607,24.801391,59.475861,12.369010313969426,44.37844845763547,207.82611867460542,4.390650634701479,0.0017038724379858034,0.27017726853060664
2024-10-12T12:06:54+03:00,25.3,281.15,31.002746294528848,17.70984,168.94233547227452,152.2005086985519,0.0,6.18192,6.006959999999999,-3.3976397251257815,-29.197929239866756,-20.397297506657306,24.8014,59.475834,12.81301001279925,45.392184139382465,214.334519611657,4.341254406262717,0.0016460024641669563,0.2718232709947736
2024-10-12T12:06:55+03:00,25.3,281.15,33.00236899953541,18.09864,168.39802556690026,149.10080702689413,0.0,6.006959999999999,6.006959999999999,-3.002298846485514,-32.20022808635227,-19.600886171425465,24.801409,59.475807,13.464486094845888,47.06587770515594,215.4639032720562,4.0916829217819055,0.0016460025015609912,0.2734692734963346
2024-10-12T12:06:56+03:00,25.3,281.15,33.00236899953541,17.90424,162.2272701133413,146.20164058353217,0.2000195662801704,5.90976,6.006959999999999,-4.297183463481174,-33.798780334767265,-22.001579333023614,24.80143,59.475783,13.342142763569266,46.96313505188667,209.19040516522796,4.033226712668791,0.0015786287442538464,0.27504790224058845
2024-10-12T12:06:57+03:00,25.4,281.15,31.002746294528848,17.80704,159.2421600007097,145.8005701269406,0.0,6.24024,6.10416,-3.002298846485514,-34.80145647624621,-24.499675319793997,24.801453,59.475758,12.86621723800912,45.46951154669935,204.71167154740905,4.376209813855979,0.0016586501449918584,0.2767065523855803
2024-10-12T12:06:58+03:00,25.5,281.15,31.002746294528848,17.496,157.55193450507377,147.1985871470598,0.5000202678106694,6.492959999999999,6.10416,-3.9992454100131463,-32.10282526118002,-26.90036848139215,24.801476,59.475732,12.390493298961115,46.66199547686392,204.2139299819377,4.456124529604423,0.0017132953226667812,0.27841984770824707
2024-10-12T12:06:59+03:00,25.7,281.15,31.999692858056477,17.80704,163.60236882165526,149.39874508036215,0.600001403060998,6.318,5.90976,-4.400315866604722,-30.60167583793727,-28.89999118639872,24.801517,59.475677,12.891394880473092,47.0524423888956,210.65481121055086,4.304634549881976,0.0035349475750119587,0.281954795283259
2024-10-12T12:06:59+03:00,25.5,281.15,31.002746294528848,17.80704,158.07905567659412,148.0981308854152,0.5000202678106694,6.454079999999999,6.006959999999999,-4.199780638308934,-31.5986224014649,-28.000447448043335,24.8015,59.475705,12.71716736004961,46.15633706997622,204.23539274657034,4.47069602971889,0.0017612199687335448,0.2837160152519925
2024-10-12T12:07:00+03:00,26.1,281.15,31.999692858056477,17.80704,162.5710447904198,151.39836778536872,2.7000063137744914,6.454079999999999,5.90976,-4.698253920072751,-27.702509394575305,-28.000447448043335,24.801534,59.475649,12.79906727362372,47.4983458053635,210.0693905957833,4.360450627151527,0.0035224400635223093,0.28723845531551484
2024-10-12T12:07:01+03:00,26.5,281.15,31.999692858056477,17.80704,165.29259431729122,154.60120186015004,1.4000223724021665,6.39576,6.006959999999999,-3.9018425848409057,-24.60280772291755,-26.29876279650479,24.801544,59.47562,12.838540935399198,47.306459189392285,212.5990535066835,4.336816574188717,0.0017696560239783934,0.2890081113394932
2024-10-12T12:07:02+03:00,26.5,281.15,31.999692858056477,17.80704,164.63942243084207,155.90181605509702,0.300000701530499,6.318,6.006959999999999,-3.0997016716577535,-23.502728756266368,-22.001579333023614,24.801556,59.475592,12.891394880473092,47.0524423888956,211.69186481973767,4.304634549881976,0.0017224268004736125,0.29073053813996685
2024-10-12T12:07:03+03:00,26.5,281.15,33.99931556306306,18.00144,169.38924255247656,154.20013140355846,0.0,6.18192,6.10416,-2.2975607584746007,-26.90036848139215,-15.601640761412316,24.801566,59.475565,13.33229717243747,49.026777940032446,218.416020492509,4.053523481177219,0.001651373289892586,0.2923819114298594
2024-10-12T12:07:04+03:00,26.5,281.15,35.00199170454199,18.50688,167.22919166483337,150.2008859935453,0.0,6.35688,6.10416,-2.6012283898939375,-31.100149119701083,-11.900333404867197,24.801578,59.475536,13.790550179018664,50.333795712279596,217.56298737711296,4.057684730020398,0.0017812052012547764,0.2941631166311142
2024-10-12T12:07:05+03:00,26.1,281.15,37.001614409548566,18.40968,168.1401945590914,145.6000348986448,0.0,6.045839999999999,6.10416,-2.200157933302361,-35.39733258318226,-13.00041237151838,24.80159,59.475508,14.060328840903784,51.99964216760287,220.13983672669428,3.722220527941834,0.0017224269942404686,0.2958855436253547
